     3.02           OBSERVATION DATA    M: Mixed            RINEX VERSION / TYPE
GNSS-SDRLIB v1.1                        20180429 102200 UTC PGM / RUN BY / DATE 
                                                            MARKER NAME         
                                                            MARKER NUMBER       
                                                            MARKER TYPE         
                                                            OBSERVER / AGENCY   
GNSS-SDRLIB         GNSS-SDRLIB         1.1                 REC # / TYPE / VERS 
                                                            ANT # / TYPE        
        0.0000        0.0000        0.0000                  APPROX POSITION XYZ 
        0.0000        0.0000        0.0000                  ANTENNA: DELTA H/E/N
G    4 C1C L1C D1C S1C                                      SYS / # / OBS TYPES 
R    4 C1C L1C D1C S1C                                      SYS / # / OBS TYPES 
E    4 C1C L1C D1C S1C                                      SYS / # / OBS TYPES 
J    4 C1C L1C D1C S1C                                      SYS / # / OBS TYPES 
S    4 C1C L1C D1C S1C                                      SYS / # / OBS TYPES 
C    4 C1C L1C D1C S1C                                      SYS / # / OBS TYPES 
  1970     1     1     0     0    0.0000000     GPS         TIME OF FIRST OBS   
  1970     1     1     0     0    0.0000000     GPS         TIME OF LAST OBS    
G                                                           SYS / PHASE SHIFT   
R                                                           SYS / PHASE SHIFT   
E                                                           SYS / PHASE SHIFT   
J                                                           SYS / PHASE SHIFT   
S                                                           SYS / PHASE SHIFT   
C                                                           SYS / PHASE SHIFT   
  0                                                         GLONASS SLOT / FRQ #
 C1C    0.000 C1P    0.000 C2C    0.000 C2P    0.000        GLONASS COD/PHS/BIS 
                                                            END OF HEADER       
> 2018  4 22  0  0 14.6688020  0  1                     
G 3                     -8541.162        -833.753          42.750  
> 2018  4 22 11 21  6.1688020  0  1                     
G 3  20626900.428       -8566.569        -830.747          42.250  
> 2018  4 22 11 21  6.0688020  0  2                     
G 1  22000412.525       22082.099        1995.253          48.750  
G 3  20625066.338       -8483.926        -830.699          42.250  
> 2018  4 22 11 21  6.1688020  0  2                     
G 1  22002300.563       22282.729        2008.415          49.000  
G 3  20626900.428       -8566.569        -830.747          42.250  
> 2018  4 22 11 21  6.0688020  0  3                     
G 1  22000412.525       22082.175        2003.755          49.000  
G 3  20625066.338       -8483.926        -830.699          42.250  
G11  22662290.712       16110.866        2027.993          44.250  
> 2018  4 22 11 21  6.1688020  0  3                     
G 1  22002300.563       22282.632        2004.121          49.000  
G 3  20626900.428       -8566.569        -830.747          42.250  
G11  22664179.266       16311.932        2012.613          44.500  
> 2018  4 22 11 21  6.2688020  0  3                     
G 1  22004170.148       22483.134        2005.396          49.000  
G 3  20628717.240       -8649.660        -830.681          42.500  
G11  22666050.178       16513.465        2014.191          44.250  
> 2018  4 22 11 21  6.3688020  0  3                     
G 1  22006040.151       22683.736        2006.165          48.750  
G 3  20630532.032       -8732.620        -830.224          42.750  
G11  22667920.189       16714.969        2015.279          44.250  
> 2018  4 22 11 21  6.4688020  0  3                     
G 1  22007910.572       22884.392        2007.185          49.000  
G 3  20632347.317       -8815.522        -828.049          42.500  
G11  22669789.866       16916.519        2016.045          44.250  
> 2018  4 22 11 21  6.5688020  0  3                     
G 1  22009780.331       23085.084        2006.749          49.000  
G 3  20634164.508       -8898.388        -828.532          42.750  
G11  22671659.110       17118.110        2015.726          44.500  
> 2018  4 22 11 21  6.6688020  0  3                     
G 1  22011650.095       23285.809        2008.401          49.000  
G 3  20635980.085       -8981.214        -828.331          42.000  
G11  22673530.075       17319.753        2017.090          44.250  
> 2018  4 22 11 21  6.7688020  0  3                     
G 1  22013520.356       23486.642        2008.764          49.000  
G 3  20637795.853       -9063.914        -825.840          42.750  
G11  22675400.342       17521.477        2017.881          44.250  
> 2018  4 22 11 21  6.8688020  0  3                     
G 1  22015390.104       23687.513        2008.304          49.000  
G 3  20639611.847       -9146.599        -826.241          42.500  
G11  22677270.177       17723.250        2017.239          44.500  
> 2018  4 22 11 21  6.9688020  0  3                     
G 1  22017259.336       23888.441        2009.522          49.000  
G 3  20641426.353       -9229.192        -826.036          42.500  
G11  22679140.483       17925.075        2018.378          44.000  
> 2018  4 22 11 21  7.0688020  0  3                     
G 1  22019129.035       24089.377        2009.520          48.750  
G 3  20643241.790       -9311.825        -825.867          42.250  
G11  22681011.191       18126.907        2018.302          44.000  
> 2018  4 22 11 21  7.1688020  0  3                     
G 1  22020998.668       24290.332        2009.053          49.000  
G 3  20645058.729       -9394.379        -825.681          42.000  
G11  22682880.815       18328.770        2018.881          44.000  
> 2018  4 22 11 21  7.2688020  0  3                     
G 1  22022868.829       24491.255        2009.030          49.000  
G 3  20646874.890       -9476.966        -825.925          42.000  
G11  22684750.882       18530.581        2017.591          44.000  
> 2018  4 22 11 21  7.3688020  0  3                     
G 1  22024738.354       24692.153        2008.591          49.250  
G 3  20648690.208       -9559.583        -826.832          42.500  
G11  22686621.320       18732.381        2017.064          44.000  
> 2018  4 22 11 21  7.4688020  0  3                     
G 1  22026608.409       24893.068        2010.572          49.000  
G 3  20650505.780       -9642.187        -825.745          42.250  
G11  22688491.448       18934.206        2019.255          44.000  
> 2018  4 22 11 21  7.5688020  0  3                     
G 1  22028478.520       25094.025        2009.628          49.000  
G 3  20652321.872       -9724.729        -825.483          42.750  
G11  22690360.429       19136.059        2018.487          44.250  
> 2018  4 22 11 21  7.6688020  0  3                     
G 1  22030348.653       25294.968        2009.374          49.000  
G 3  20654137.307       -9807.294        -826.515          42.750  
G11  22692230.541       19337.881        2018.965          44.250  
> 2018  4 22 11 21  7.7688020  0  3                     
G 1  22032219.302       25495.870        2009.713          48.750  
G 3  20655953.721       -9889.881        -825.587          42.750  
G11  22694100.283       19539.682        2018.045          44.250  
> 2018  4 22 11 21  7.8688020  0  3                     
G 1  22034089.171       25696.747        2008.220          49.000  
G 3  20657769.671       -9972.496        -827.271          42.750  
G11  22695970.123       19741.460        2016.893          44.000  
> 2018  4 22 11 21  7.9688020  0  3                     
G 1  22035959.553       25897.629        2009.086          48.750  
G 3  20659585.421      -10055.081        -825.257          43.000  
G11  22697841.639       19943.232        2017.658          44.000  
> 2018  4 22 11 21  8.0688020  0  3                     
G 1  22037829.153       26098.489        2008.459          49.000  
G 3  20661400.990      -10137.678        -826.467          42.500  
G11  22699711.528       20145.019        2017.553          44.250  
> 2018  4 22 11 21  8.1688020  0  3                     
G 1  22039698.585       26299.345        2008.853          49.000  
G 3  20663216.338      -10220.294        -825.806          42.750  
G11  22701581.208       20346.759        2017.085          44.000  
> 2018  4 22 11 21  8.2688020  0  3                     
G 1  22041567.842       26500.223        2009.469          49.000  
G 3  20665032.290      -10302.889        -824.541          42.750  
G11  22703451.749       20548.526        2018.392          44.250  
> 2018  4 22 11 21  8.3688020  0  3                     
G 1  22043437.446       26701.140        2009.370          49.000  
G 3  20666847.928      -10385.412        -824.933          43.000  
G11  22705320.693       20750.354        2018.587          44.250  
> 2018  4 22 11 21  8.4688020  0  3                     
G 1  22045306.847       26902.017        2009.029          49.000  
G 3  20668664.184      -10467.999        -825.930          42.500  
G11  22707190.251       20952.127        2017.985          44.250  
> 2018  4 22 11 21  8.5688020  0  3                     
G 1  22047176.945       27102.931        2009.676          49.250  
G 3  20670479.999      -10550.512        -824.777          42.500  
G11  22709060.432       21153.933        2018.254          44.000  
> 2018  4 22 11 21  8.6688020  0  3                     
G 1  22049046.038       27303.839        2009.191          49.000  
G 3  20672297.041      -10633.031        -825.181          42.250  
G11  22710931.129       21355.752        2018.521          44.500  
> 2018  4 22 11 21  8.7688020  0  3                     
G 1  22050915.393       27504.711        2008.634          49.000  
G 3  20674111.960      -10715.624        -826.569          42.000  
G11  22712802.357       21557.492        2017.079          44.500  
> 2018  4 22 11 21  8.8688020  0  3                     
G 1  22052785.576       27705.523        2008.693          49.000  
G 3  20675927.256      -10798.243        -825.143          41.750  
G11  22714671.758       21759.214        2017.670          44.500  
> 2018  4 22 11 21  8.9688020  0  3                     
G 1  22054655.432       27906.354        2008.190          49.000  
G 3  20677742.778      -10880.864        -826.966          42.250  
G11  22716541.950       21960.944        2017.070          44.250  
> 2018  4 22 11 21  9.0688020  0  3                     
G 1  22056525.592       28107.199        2008.118          49.000  
G 3  20679558.152      -10963.385        -824.846          42.750  
G11  22718411.370       22162.690        2016.871          44.250  
> 2018  4 22 11 21  9.1688020  0  3                     
G 1  22058395.789       28308.053        2008.189          48.750  
G 3  20681374.429      -11045.967        -825.834          43.000  
G11  22720280.503       22364.436        2016.725          44.250  
> 2018  4 22 11 21  9.2688020  0  3                     
G 1  22060265.286       28508.892        2008.110          48.750  
G 3  20683190.885      -11128.529        -826.355          42.500  
G11  22722150.886       22566.188        2017.190          44.250  
> 2018  4 22 11 21  9.3688020  0  3                     
G 1  22062134.719       28709.711        2008.765          49.000  
G 3  20685006.447      -11211.104        -825.726          42.000  
G11  22724020.666       22767.886        2016.724          44.500  
> 2018  4 22 11 21  9.4688020  0  3                     
G 1  22064004.296       28910.537        2008.219          49.250  
G 3  20686822.133      -11293.648        -825.439          41.750  
G11  22725890.992       22969.597        2017.522          44.250  
> 2018  4 22 11 21  9.5688020  0  3                     
G 1  22065874.073       29111.317        2008.139          49.000  
G 3  20688638.540      -11376.292        -825.996          41.000  
G11  22727760.870       23171.266        2017.048          44.000  
> 2018  4 22 11 21  9.6688020  0  3                     
G 1  22067743.937       29311.996        2006.780          49.000  
G 3  20690454.911      -11459.020        -827.723          41.750  
G11  22729631.224       23372.851        2015.235          44.250  
> 2018  4 22 11 21  9.7688020  0  3                     
G 1  22069613.078       29512.643        2006.008          49.000  
G 3  20692270.150      -11541.759        -827.985          43.000  
G11  22731500.960       23574.384        2014.712          44.500  
> 2018  4 22 11 21  9.8688020  0  3                     
G 1  22071482.869       29713.268        2006.490          49.250  
G 3  20694086.441      -11624.483        -828.158          43.000  
G11  22733370.671       23775.917        2015.330          44.750  
> 2018  4 22 11 21  9.9688020  0  3                     
G 1  22073352.902       29913.840        2005.898          48.750  
G 3  20695903.551      -11707.258        -828.343          42.500  
G11  22735241.550       23977.372        2014.662          44.250  
> 2018  4 22 11 21 10.0688020  0  3                     
G 1  22075222.939       30114.358        2004.848          49.000  
G 3  20697719.261      -11790.103        -829.184          42.250  
G11  22737111.820       24178.778        2014.018          44.250  
> 2018  4 22 11 21 10.1688020  0  3                     
G 1  22077093.064       30314.843        2004.739          49.000  
G 3  20699534.576      -11872.990        -829.409          42.000  
G11  22738981.071       24380.161        2014.055          44.000  
> 2018  4 22 11 21 10.2688020  0  3                     
G 1  22078962.691       30515.255        2003.820          49.000  
G 3  20701349.471      -11955.936        -829.093          42.250  
G11  22740851.000       24581.454        2012.818          44.000  
> 2018  4 22 11 21 10.3688020  0  3                     
G 1  22080832.701       30715.655        2004.350          49.000  
G 3  20703166.226      -12038.868        -828.279          43.250  
G11  22742720.782       24782.759        2013.715          44.250  
> 2018  4 22 11 21 10.4688020  0  3                     
G 1  22082702.243       30916.101        2004.099          49.000  
G 3  20704982.521      -12121.749        -828.281          43.500  
G11  22744590.261       24984.099        2014.178          44.250  
> 2018  4 22 11 21 10.5688020  0  3                     
G 1  22084571.752       31116.537        2004.967          49.250  
G 3  20706797.964      -12204.646        -829.195          42.500  
G11  22746459.151       25185.422        2013.241          44.250  
> 2018  4 22 11 21 10.6688020  0  3                     
G 1  22086441.545       31317.006        2005.254          49.000  
G 3  20708612.909      -12287.529        -827.110          41.000  
G11  22748329.796       25386.768        2014.668          44.250  
> 2018  4 22 11 21 10.7688020  0  3                     
G 1  22088311.162       31517.472        2004.837          49.250  
G 3  20710428.003      -12370.406        -829.379          42.500  
G11  22750199.663       25588.128        2013.310          44.000  
> 2018  4 22 11 21 10.8688020  0  3                     
G 1  22090181.053       31717.955        2005.185          49.250  
G 3  20712245.672      -12453.225        -828.198          43.500  
G11  22752069.644       25789.486        2013.397          44.500  
> 2018  4 22 11 21 10.9688020  0  3                     
G 1  22092050.927       31918.452        2005.022          49.250  
G 3  20714062.464      -12536.026        -828.094          42.750  
G11  22753940.367       25990.895        2013.934          44.000  
> 2018  4 22 11 21 11.0688020  0  3                     
G 1  22093921.007       32118.938        2005.056          49.250  
G 3  20715877.245      -12618.873        -828.548          42.500  
G11  22755808.848       26192.250        2013.364          44.250  
> 2018  4 22 11 21 11.1688020  0  3                     
G 1  22095790.649       32319.438        2005.407          49.250  
G 3  20717692.402      -12701.640        -826.407          42.000  
G11  22757677.482       26393.643        2013.601          43.750  
> 2018  4 22 11 21 11.2688020  0  3                     
G 1  22097659.735       32519.955        2005.447          49.000  
G 3  20719508.505      -12784.439        -827.358          42.500  
G11  22759547.674       26595.050        2014.873          43.750  
> 2018  4 22 11 21 11.3688020  0  3                     
G 1  22099529.279       32720.458        2005.207          49.000  
G 3  20721324.955      -12867.242        -828.585          42.500  
G11  22761416.426       26796.449        2014.135          44.000  
> 2018  4 22 11 21 11.4688020  0  3                     
G 1  22101399.257       32920.933        2004.705          49.000  
G 3  20723140.295      -12950.047        -828.881          42.250  
G11  22763286.206       26997.814        2013.376          44.000  
> 2018  4 22 11 21 11.5688020  0  3                     
G 1  22103269.706       33121.419        2004.880          48.750  
G 3  20724955.460      -13032.833        -828.350          42.750  
G11  22765156.626       27199.180        2014.145          43.750  
> 2018  4 22 11 21 11.6688020  0  3                     
G 1  22105138.816       33321.913        2005.030          49.000  
G 3  20726771.351      -13115.612        -828.030          42.750  
G11  22767025.930       27400.555        2014.307          44.000  
> 2018  4 22 11 21 11.7688020  0  3                     
G 1  22107008.054       33522.415        2005.296          49.000  
G 3  20728588.401      -13198.365        -827.797          42.500  
G11  22768896.221       27601.962        2014.461          44.000  
> 2018  4 22 11 21 11.8688020  0  3                     
G 1  22108877.764       33722.923        2005.724          49.250  
G 3  20730403.169      -13281.140        -826.930          42.500  
G11  22770766.100       27803.353        2014.714          44.000  
> 2018  4 22 11 21 11.9688020  0  3                     
G 1  22110747.527       33923.489        2006.162          49.000  
G 3  20732218.918      -13363.823        -826.235          43.000  
G11  22772635.846       28004.817        2015.221          44.250  
> 2018  4 22 11 21 12.0688020  0  3                     
G 1  22112617.579       34123.993        2011.042          49.000  
G 3  20734035.830      -13446.462        -825.935          42.500  
G11  22774506.536       28206.311        2016.500          44.250  
> 2018  4 22 11 21 12.1688020  0  3                     
G 1  22114487.512       34324.829        2014.491          49.000  
G 3  20735851.114      -13528.938        -825.357          42.500  
G11  22776376.743       28407.942        2016.685          44.000  
> 2018  4 22 11 21 12.2688020  0  3                     
G 1  22116357.724       34525.594        2007.793          49.250  
G 3  20737667.909      -13611.456        -825.422          42.500  
G11  22778247.276       28609.574        2015.676          44.000  
> 2018  4 22 11 21 12.3688020  0  3                     
G 1  22118228.319       34726.450        2009.250          49.000  
G 3  20739483.817      -13693.830        -822.997          42.500  
G11  22780117.541       28811.304        2017.010          44.000  
> 2018  4 22 11 21 12.4688020  0  3                     
G 1  22120097.419       34927.348        2008.636          49.000  
G 3  20741298.973      -13776.156        -822.072          42.500  
G11  22781987.241       29013.112        2018.828          44.000  
> 2018  4 22 11 21 12.5688020  0  3                     
G 1  22121966.731       35128.321        2009.690          49.000  
G 3  20743114.212      -13858.420        -822.254          42.500  
G11  22783856.702       29214.959        2018.966          44.000  
> 2018  4 22 11 21 12.6688020  0  3                     
G 1  22123836.416       35329.325        2010.737          49.000  
G 3  20744930.426      -13940.607        -821.647          42.250  
G11  22785726.070       29416.859        2019.502          44.000  
> 2018  4 22 11 21 12.7688020  0  3                     
G 1  22125705.996       35530.433        2011.219          49.250  
G 3  20746746.313      -14022.738        -820.949          42.250  
G11  22787596.190       29618.826        2019.889          43.750  
> 2018  4 22 11 21 12.8688020  0  3                     
G 1  22127576.466       35731.711        2013.606          48.500  
G 3  20748562.369      -14104.656        -817.652          42.500  
G11  22789465.105       29821.003        2022.863          43.750  
> 2018  4 22 11 21 12.9688020  0  3                     
G 1  22129446.824       35933.193        2015.079          49.000  
G 3  20750379.071      -14186.380        -816.425          42.250  
G11  22791336.075       30023.353        2024.293          43.750  
> 2018  4 22 11 21 13.0688020  0  3                     
G 1  22131316.830       36134.840        2017.168          49.250  
G 3  20752194.277      -14267.944        -814.718          42.250  
G11  22793206.541       30225.871        2025.692          44.000  
> 2018  4 22 11 21 13.1688020  0  3                     
G 1  22133186.570       36336.583        2017.734          49.250  
G 3  20754011.387      -14349.396        -814.099          42.250  
G11  22795076.577       30428.518        2026.483          44.000  
> 2018  4 22 11 21 13.2688020  0  3                     
G 1  22135056.828       36538.377        2018.492          49.250  
G 3  20755827.728      -14430.778        -813.127          43.000  
G11  22796946.956       30631.188        2026.585          43.750  
> 2018  4 22 11 21 13.3688020  0  3                     
G 1  22136926.389       36740.188        2017.686          49.250  
G 3  20757643.537      -14512.132        -814.165          42.500  
G11  22798817.164       30833.886        2025.785          44.000  
> 2018  4 22 11 21 13.4688020  0  3                     
G 1  22138795.968       36941.950        2016.968          49.000  
G 3  20759460.167      -14593.545        -814.908          42.500  
G11  22800686.127       31036.526        2024.983          44.000  
> 2018  4 22 11 21 13.5688020  0  3                     
G 1  22140666.493       37143.564        2016.339          49.000  
G 3  20761276.097      -14675.092        -815.198          42.250  
G11  22802556.718       31239.035        2025.365          44.000  
> 2018  4 22 11 21 13.6688020  0  3                     
G 1  22142536.496       37345.144        2015.594          49.000  
G 3  20763091.802      -14756.685        -816.139          42.000  
G11  22804427.171       31441.486        2024.219          44.250  
> 2018  4 22 11 21 13.7688020  0  3                     
G 1  22144405.991       37546.657        2015.603          48.750  
G 3  20764907.607      -14838.327        -816.907          42.750  
G11  22806296.806       31643.911        2024.685          44.000  
> 2018  4 22 11 21 13.8688020  0  3                     
G 1  22146276.039       37748.142        2014.975          49.000  
G 3  20766723.361      -14919.991        -816.435          43.000  
G11  22808167.162       31846.251        2023.838          43.750  
> 2018  4 22 11 21 13.9688020  0  3                     
G 1  22148146.066       37949.602        2014.514          49.000  
G 3  20768539.170      -15001.674        -817.446          42.250  
G11  22810037.554       32048.612        2024.111          44.250  
> 2018  4 22 11 21 14.0688020  0  3                     
G 1  22150015.511       38151.012        2013.946          49.250  
G 3  20770355.855      -15083.425        -817.246          43.000  
G11  22811907.900       32250.898        2023.006          44.000  
> 2018  4 22 11 21 14.1688020  0  3                     
G 1  22151885.351       38352.417        2014.262          49.000  
G 3  20772172.440      -15165.141        -817.758          42.500  
G11  22813777.018       32453.187        2023.504          43.750  
> 2018  4 22 11 21 14.2688020  0  3                     
G 1  22153755.216       38553.847        2014.405          49.250  
G 3  20773988.238      -15246.835        -816.398          42.250  
G11  22815646.570       32655.489        2022.715          43.750  
> 2018  4 22 11 21 14.3688020  0  3                     
G 1  22155624.927       38755.208        2014.026          49.000  
G 3  20775803.631      -15328.597        -817.763          42.250  
G11  22817516.938       32857.744        2022.609          43.750  
> 2018  4 22 11 21 14.4688020  0  3                     
G 1  22157494.822       38956.599        2013.595          49.250  
G 3  20777619.459      -15410.323        -817.883          42.250  
G11  22819386.313       33060.010        2022.498          44.000  
> 2018  4 22 11 21 14.5688020  0  3                     
G 1  22159364.365       39157.953        2013.590          49.250  
G 3  20779434.793      -15492.085        -817.513          42.250  
G11  22821256.183       33262.247        2022.253          44.000  
> 2018  4 22 11 21 14.6688020  0  3                     
G 1  22161234.749       39359.227        2012.970          49.250  
G 3  20781250.745      -15573.926        -818.749          42.750  
G11  22823126.483       33464.397        2022.839          43.750  
> 2018  4 22 11 21 14.7688020  0  3                     
G 1  22163104.267       39560.493        2012.386          49.000  
G 3  20783067.953      -15655.753        -819.315          42.250  
G11  22824998.444       33666.540        2020.924          43.750  
> 2018  4 22 11 21 14.8688020  0  3                     
G 1  22164974.762       39761.716        2011.455          49.000  
G 3  20784883.835      -15737.600        -819.409          42.250  
G11  22826868.460       33868.645        2020.215          44.000  
> 2018  4 22 11 21 14.9688020  0  3                     
G 1  22166845.136       39962.932        2012.642          49.250  
G 3  20786699.700      -15819.490        -818.559          42.250  
G11  22828738.971       34070.757        2022.761          44.000  
> 2018  4 22 11 21 15.0688020  0  3                     
G 1  22168714.821       40164.244        2012.802          49.000  
G 3  20788515.289      -15901.270        -818.111          42.250  
G11  22830608.755       34272.930        2021.825          43.750  
> 2018  4 22 11 21 15.1688020  0  3                     
G 1  22170584.567       40365.575        2013.176          49.250  
G 3  20790330.412      -15983.008        -817.828          42.250  
G11  22832478.856       34475.145        2022.089          44.250  
> 2018  4 22 11 21 15.2688020  0  3                     
G 1  22172455.197       40566.978        2014.757          49.250  
G 3  20792145.360      -16064.693        -816.229          42.250  
G11  22834349.425       34677.434        2022.406          44.000  
> 2018  4 22 11 21 15.3688020  0  3                     
G 1  22174325.117       40768.444        2015.144          49.250  
G 3  20793963.135      -16146.289        -815.466          42.250  
G11  22836218.806       34879.761        2023.773          43.750  
> 2018  4 22 11 21 15.4688020  0  3                     
G 1  22176194.946       40969.943        2015.065          49.250  
G 3  20795779.999      -16227.854        -815.565          42.250  
G11  22838089.402       35082.144        2023.501          43.500  
> 2018  4 22 11 21 15.5688020  0  3                     
G 1  22178065.200       41171.439        2015.416          49.000  
G 3  20797596.064      -16309.424        -815.753          42.250  
G11  22839960.002       35284.513        2022.913          44.250  
> 2018  4 22 11 21 15.6688020  0  3                     
G 1  22179935.336       41372.949        2015.149          49.000  
G 3  20799412.081      -16390.955        -815.758          42.250  
G11  22841830.640       35486.901        2023.152          44.000  
> 2018  4 22 11 21 15.7688020  0  3                     
G 1  22181805.367       41574.470        2015.610          49.250  
G 3  20801227.673      -16472.480        -814.867          42.500  
G11  22843701.002       35689.295        2024.746          44.000  
> 2018  4 22 11 21 15.8688020  0  3                     
G 1  22183675.241       41775.963        2015.842          49.000  
G 3  20803042.285      -16554.025        -815.498          42.250  
G11  22845570.569       35891.673        2024.079          44.000  
> 2018  4 22 11 21 15.9688020  0  3                     
G 1  22185544.923       41977.410        2014.498          49.000  
G 3  20804859.857      -16635.608        -815.921          42.000  
G11  22847440.417       36094.009        2023.396          44.000  
> 2018  4 22 11 21 16.0688020  0  3                     
G 1  22187415.238       42178.841        2014.205          49.000  
G 3  20806676.166      -16717.201        -815.701          42.000  
G11  22849309.924       36296.317        2023.487          44.000  
> 2018  4 22 11 21 16.1688020  0  3                     
G 1  22189285.037       42380.297        2014.938          49.000  
G 3  20808493.099      -16798.768        -815.788          42.250  
G11  22851179.869       36498.652        2023.682          44.250  
> 2018  4 22 11 21 16.2688020  0  3                     
G 1  22191154.316       42581.781        2014.285          49.000  
G 3  20810308.838      -16880.298        -815.470          42.250  
G11  22853049.851       36701.011        2023.175          44.250  
> 2018  4 22 11 21 16.3688020  0  3                     
G 1  22193023.800       42783.230        2014.672          49.000  
G 3  20812123.958      -16961.873        -815.045          42.250  
G11  22854919.817       36903.333        2023.611          44.250  
> 2018  4 22 11 21 16.4688020  0  3                     
G 1  22194893.524       42984.616        2013.810          49.000  
G 3  20813939.833      -17043.486        -816.376          42.250  
G11  22856789.975       37105.587        2021.308          44.250  
> 2018  4 22 11 21 16.5688020  0  3                     
G 1  22196763.864       43185.953        2013.309          49.000  
G 3  20815755.507      -17125.168        -817.329          42.000  
G11  22858660.661       37307.808        2021.306          44.250  
> 2018  4 22 11 21 16.6688020  0  3                     
G 1  22198632.711       43387.264        2013.209          49.000  
G 3  20817571.628      -17206.849        -817.431          42.250  
G11  22860531.420       37509.989        2022.502          44.250  
> 2018  4 22 11 21 16.7688020  0  3                     
G 1  22200502.784       43588.558        2013.911          48.750  
G 3  20819388.430      -17288.539        -817.000          42.500  
G11  22862401.173       37712.175        2022.572          43.750  
> 2018  4 22 11 21 16.8688020  0  3                     
G 1  22202372.648       43789.880        2012.897          49.000  
G 3  20821202.647      -17370.181        -818.553          41.750  
G11  22864271.202       37914.359        2021.859          44.000  
> 2018  4 22 11 21 16.9688020  0  3                     
G 1  22204242.740       43991.183        2013.027          49.250  
G 3  20823018.108      -17451.881        -816.627          42.000  
G11  22866140.430       38116.530        2021.667          44.250  
> 2018  4 22 11 21 17.0688020  0  3                     
G 1  22206112.897       44192.450        2013.218          49.250  
G 3  20824833.755      -17533.587        -817.582          42.250  
G11  22868010.757       38318.675        2021.296          44.250  
> 2018  4 22 11 21 17.1688020  0  3                     
G 1  22207982.886       44393.737        2013.986          49.250  
G 3  20826649.146      -17615.257        -816.822          42.000  
G11  22869881.078       38520.844        2022.605          44.000  
> 2018  4 22 11 21 17.2688020  0  3                     
G 1  22209852.848       44595.113        2014.650          49.250  
G 3  20828465.672      -17696.841        -815.844          42.000  
G11  22871750.925       38723.082        2021.826          44.000  
> 2018  4 22 11 21 17.3688020  0  3                     
G 1  22211722.343       44796.562        2015.262          48.750  
G 3  20830283.350      -17778.347        -814.211          42.000  
G11  22873620.878       38925.402        2023.943          44.000  
> 2018  4 22 11 21 17.4688020  0  3                     
G 1  22213592.299       44998.073        2015.473          49.250  
G 3  20832101.070      -17859.794        -814.562          42.000  
G11  22875491.920       39127.777        2024.447          44.250  
> 2018  4 22 11 21 17.5688020  0  3                     
G 1  22215462.093       45199.649        2016.631          49.250  
G 3  20833916.510      -17941.158        -813.300          42.000  
G11  22877361.791       39330.241        2024.788          44.000  
> 2018  4 22 11 21 17.6688020  0  3                     
G 1  22217331.611       45401.305        2017.178          49.250  
G 3  20835732.334      -18022.426        -811.777          42.000  
G11  22879231.746       39532.768        2025.577          43.750  
> 2018  4 22 11 21 17.7688020  0  3                     
G 1  22219201.191       45602.975        2017.143          49.000  
G 3  20837548.735      -18103.705        -812.888          42.000  
G11  22881102.611       39735.309        2026.329          44.000  
> 2018  4 22 11 21 17.8688020  0  3                     
G 1  22221071.593       45804.661        2017.233          49.000  
G 3  20839363.815      -18184.939        -811.473          42.000  
G11  22882972.935       39937.874        2026.291          44.000  
> 2018  4 22 11 21 17.9688020  0  3                     
G 1  22222941.578       46006.379        2017.506          49.000  
G 3  20841180.482      -18266.158        -812.238          42.000  
G11  22884843.010       40140.449        2025.853          44.250  
> 2018  4 22 11 21 18.0688020  0  3                     
G 1  22224812.152       46208.068        2016.520          49.000  
G 3  20842997.435      -18347.379        -812.952          42.000  
G11  22886711.357       40342.950        1975.975          44.000  
> 2018  4 22 11 21 18.3688020  0  3                     
G 1  22230420.969       46813.074        2015.933          49.000  
G 3  20848443.239      -18591.091        -813.799          42.000  
G11  22892320.060       40950.645        2024.673          44.000  
> 2018  4 22 11 21 18.4688020  0  3                     
G 1  22232290.685       47014.647        2014.933          49.000  
G 3  20850259.526      -18672.399        -812.695          42.000  
G11  22894190.394       41153.090        2023.962          44.250  
> 2018  4 22 11 21 18.5688020  0  3                     
G 1  22234160.172       47216.187        2014.971          49.000  
G 3  20852074.633      -18753.756        -814.262          41.250  
G11  22896062.091       41355.500        2023.819          43.750  
> 2018  4 22 11 21 18.6688020  0  3                     
G 1  22236030.835       47417.616        2013.505          49.000  
G 3  20853891.385      -18835.191        -815.323          42.000  
G11  22897932.658       41557.789        2022.794          43.750  
> 2018  4 22 11 21 18.7688020  0  3                     
G 1  22237900.324       47618.973        2014.186          49.000  
G 3  20855708.755      -18916.729        -815.339          42.250  
G11  22899802.549       41760.012        2021.834          43.750  
> 2018  4 22 11 21 18.8688020  0  3                     
G 1  22239770.433       47820.306        2013.421          48.750  
G 3  20857525.357      -18998.274        -816.679          42.250  
G11  22901672.156       41962.225        2022.194          43.750  
> 2018  4 22 11 21 18.9688020  0  3                     
G 1  22241640.211       48021.607        2012.634          49.000  
G 3  20859341.583      -19079.843        -815.276          41.250  
G11  22903542.072       42164.381        2021.876          43.500  
> 2018  4 22 11 21 19.0688020  0  3                     
G 1  22243510.226       48222.849        2012.468          48.750  
G 3  20861156.971      -19161.450        -815.780          41.750  
G11  22905411.806       42366.496        2019.885          43.500  
> 2018  4 22 11 21 19.1688020  0  3                     
G 1  22245380.282       48424.028        2011.339          49.000  
G 3  20862971.993      -19243.125        -817.506          41.250  
G11  22907280.675       42568.544        2020.995          43.750  
> 2018  4 22 11 21 19.2688020  0  3                     
G 1  22247249.968       48625.174        2011.432          49.000  
G 3  20864787.126      -19324.845        -817.623          42.250  
G11  22909151.016       42770.559        2020.468          43.750  
> 2018  4 22 11 21 19.3688020  0  3                     
G 1  22249119.586       48826.328        2012.450          48.750  
G 3  20866603.345      -19406.520        -817.329          42.250  
G11  22911020.903       42972.578        2020.455          43.750  
> 2018  4 22 11 21 19.4688020  0  3                     
G 1  22250989.394       49027.585        2012.986          49.000  
G 3  20868420.861      -19488.099        -815.727          42.000  
G11  22912891.499       43174.717        2022.008          43.750  
> 2018  4 22 11 21 19.5688020  0  3                     
G 1  22252859.204       49228.900        2013.782          49.000  
G 3  20870237.469      -19569.609        -816.278          41.000  
G11  22914760.883       43376.898        2022.131          44.000  
> 2018  4 22 11 21 19.6688020  0  3                     
G 1  22254728.908       49430.359        2014.798          48.750  
G 3  20872052.970      -19650.981        -813.550          41.250  
G11  22916631.320       43579.223        2024.262          43.750  
> 2018  4 22 11 21 19.7688020  0  3                     
G 1  22256598.237       49631.817        2014.858          48.750  
G 3  20873868.761      -19732.352        -813.349          42.000  
G11  22918500.770       43781.558        2023.188          43.750  
> 2018  4 22 11 21 19.8688020  0  3                     
G 1  22258468.772       49833.355        2015.196          48.750  
G 3  20875684.448      -19813.640        -812.999          41.750  
G11  22920372.256       43983.944        2024.031          44.250  
> 2018  4 22 11 21 19.9688020  0  3                     
G 1  22260338.842       50034.910        2015.712          48.750  
G 3  20877500.367      -19894.894        -813.030          41.750  
G11  22922241.894       44186.371        2025.049          43.750  
> 2018  4 22 11 21 20.0688020  0  3                     
G 1  22262208.817       50236.428        2014.954          49.000  
G 3  20879317.553      -19976.175        -813.604          42.000  
G11  22924112.660       44388.762        2023.640          44.000  
> 2018  4 22 11 21 20.1688020  0  3                     
G 1  22264078.372       50437.955        2014.947          49.000  
G 3  20881134.340      -20057.444        -814.341          41.500  
G11  22925982.782       44591.148        2024.526          44.000  
> 2018  4 22 11 21 20.2688020  0  3                     
G 1  22265948.970       50639.438        2014.900          48.250  
G 3  20882949.456      -20138.752        -812.894          42.000  
G11  22927853.271       44793.497        2024.090          43.750  
> 2018  4 22 11 21 20.3688020  0  3                     
G 1  22267818.539       50840.894        2014.724          48.750  
G 3  20884766.302      -20220.118        -814.313          41.750  
G11  22929722.606       44995.826        2022.945          43.500  
> 2018  4 22 11 21 20.4688020  0  3                     
G 1  22269687.419       51042.330        2014.266          48.750  
G 3  20886582.219      -20301.447        -813.161          41.750  
G11  22931592.713       45198.124        2023.323          44.250  
> 2018  4 22 11 21 20.5688020  0  3                     
G 1  22271557.846       51243.730        2013.794          48.750  
G 3  20888400.330      -20382.814        -814.371          41.750  
G11  22933462.930       45400.393        2022.525          44.000  
> 2018  4 22 11 21 20.6688020  0  3                     
G 1  22273427.589       51445.088        2013.557          48.750  
G 3  20890217.333      -20464.213        -814.414          41.750  
G11  22935333.284       45602.616        2022.254          44.000  
> 2018  4 22 11 21 20.7688020  0  3                     
G 1  22275297.322       51646.335        2012.010          48.750  
G 3  20892032.659      -20545.739        -816.298          41.500  
G11  22937202.694       45804.738        2022.539          43.750  
> 2018  4 22 11 21 20.8688020  0  3                     
G 1  22277167.626       51847.665        2013.278          49.000  
G 3  20893849.190      -20627.160        -814.048          42.000  
G11  22939072.452       46006.918        2022.477          43.750  
> 2018  4 22 11 21 20.9688020  0  3                     
G 1  22279037.951       52049.024        2014.140          48.750  
G 3  20895664.838      -20708.582        -814.839          42.000  
G11  22940942.545       46209.149        2022.560          43.750  
> 2018  4 22 11 21 21.0688020  0  3                     
G 1  22280907.739       52250.464        2015.299          48.750  
G 3  20897480.108      -20789.879        -812.311          41.500  
G11  22942812.835       46411.447        2023.862          43.500  
> 2018  4 22 11 21 21.1688020  0  3                     
G 1  22282777.166       52451.945        2015.470          48.750  
G 3  20899296.835      -20871.159        -813.003          41.750  
G11  22944683.912       46613.795        2024.042          43.750  
> 2018  4 22 11 21 21.2688020  0  3                     
G 1  22284647.815       52653.504        2016.276          48.750  
G 3  20901112.207      -20952.325        -811.284          41.500  
G11  22946553.141       46816.229        2024.854          43.500  
> 2018  4 22 11 21 21.3688020  0  3                     
G 1  22286517.840       52855.102        2016.157          48.500  
G 3  20902928.853      -21033.451        -811.007          41.500  
G11  22948423.823       47018.690        2025.006          43.750  
> 2018  4 22 11 21 21.4688020  0  3                     
G 1  22288387.617       53056.731        2016.386          48.750  
G 3  20904745.334      -21114.550        -811.190          41.000  
G11  22950292.875       47221.185        2025.764          43.750  
> 2018  4 22 11 21 21.5688020  0  3                     
G 1  22290257.640       53258.408        2017.021          48.750  
G 3  20906560.775      -21195.602        -811.402          41.750  
G11  22952162.972       47423.721        2025.983          43.750  
> 2018  4 22 11 21 21.6688020  0  3                     
G 1  22292127.267       53460.148        2017.176          48.500  
G 3  20908377.421      -21276.578        -809.786          41.750  
G11  22954034.488       47626.323        2026.466          43.750  
> 2018  4 22 11 21 21.7688020  0  3                     
G 1  22293997.367       53661.867        2017.494          48.500  
G 3  20910192.367      -21357.545        -809.208          41.500  
G11  22955904.007       47828.908        2025.524          43.750  
> 2018  4 22 11 21 21.8688020  0  3                     
G 1  22295867.939       53863.610        2017.737          48.750  
G 3  20912008.479      -21438.517        -808.935          41.500  
G11  22957774.056       48031.518        2026.419          43.500  
> 2018  4 22 11 21 21.9688020  0  3                     
G 1  22297737.462       54065.327        2017.414          48.750  
G 3  20913824.987      -21519.517        -810.271          41.750  
G11  22959643.762       48234.086        2026.441          43.750  
> 2018  4 22 11 21 22.0688020  0  3                     
G 1  22299607.596       54267.072        2018.291          48.750  
G 3  20915641.504      -21600.471        -810.658          42.000  
G11  22961514.312       48436.703        2026.737          43.750  
> 2018  4 22 11 21 22.1688020  0  3                     
G 1  22301478.051       54468.798        2017.249          49.000  
G 3  20917457.681      -21681.418        -810.309          41.750  
G11  22963384.476       48639.286        2026.192          43.500  
> 2018  4 22 11 21 22.2688020  0  3                     
G 1  22303348.155       54670.536        2017.498          48.750  
G 3  20919273.421      -21762.381        -810.159          41.250  
G11  22965254.770       48841.885        2026.626          43.500  
> 2018  4 22 11 21 22.3688020  0  3                     
G 1  22305218.412       54872.253        2017.677          48.750  
G 3  20921089.303      -21843.329        -809.657          41.250  
G11  22967124.722       49044.452        2026.647          43.250  
> 2018  4 22 11 21 22.4688020  0  3                     
G 1  22307087.775       55073.911        2016.583          48.500  
G 3  20922904.540      -21924.345        -810.495          40.750  
G11  22968994.035       49246.984        2025.278          43.250  
> 2018  4 22 11 21 22.5688020  0  3                     
G 1  22308957.874       55275.510        2016.143          48.750  
G 3  20924720.444      -22005.401        -810.610          41.000  
G11  22970865.257       49449.437        2024.992          43.500  
> 2018  4 22 11 21 22.6688020  0  3                     
G 1  22310827.352       55477.089        2016.117          48.750  
G 3  20926537.192      -22086.472        -809.940          41.250  
G11  22972734.534       49651.881        2025.731          43.500  
> 2018  4 22 11 21 22.7688020  0  3                     
G 1  22312697.707       55678.629        2015.239          48.750  
G 3  20928353.096      -22167.581        -811.877          41.250  
G11  22974605.063       49854.296        2024.334          43.750  
> 2018  4 22 11 21 22.8688020  0  3                     
G 1  22314567.618       55880.197        2016.150          48.500  
G 3  20930169.165      -22248.675        -811.254          41.500  
G11  22976474.747       50056.713        2024.886          43.500  
> 2018  4 22 11 21 22.9688020  0  3                     
G 1  22316437.932       56081.745        2016.459          48.750  
G 3  20931984.361      -22329.751        -809.474          41.500  
G11  22978345.059       50259.115        2025.932          43.250  
> 2018  4 22 11 21 23.0688020  0  3                     
G 1  22318307.654       56283.349        2016.640          48.750  
G 3  20933800.531      -22410.795        -808.742          41.250  
G11  22980214.972       50461.594        2026.223          43.250  
> 2018  4 22 11 21 23.1688020  0  3                     
G 1  22320177.885       56485.021        2016.535          48.500  
G 3  20935616.410      -22491.769        -810.486          41.750  
G11  22982087.071       50664.088        2024.798          43.750  
> 2018  4 22 11 21 23.2688020  0  3                     
G 1  22322047.302       56686.698        2017.138          48.500  
G 3  20937433.265      -22572.707        -809.259          42.000  
G11  22983957.739       50866.641        2026.126          43.750  
> 2018  4 22 11 21 23.3688020  0  3                     
G 1  22323916.875       56888.458        2017.592          48.750  
G 3  20939249.686      -22653.597        -808.714          41.500  
G11  22985827.735       51069.257        2026.681          43.500  
> 2018  4 22 11 21 23.4688020  0  3                     
G 1  22325787.480       57090.215        2017.618          48.750  
G 3  20941066.845      -22734.442        -808.674          41.500  
G11  22987698.145       51271.876        2026.814          43.500  
> 2018  4 22 11 21 23.5688020  0  3                     
G 1  22327657.150       57291.989        2018.615          49.000  
G 3  20942881.533      -22815.254        -807.523          40.750  
G11  22989567.461       51474.512        2026.633          43.500  
> 2018  4 22 11 21 23.6688020  0  3                     
G 1  22329527.080       57493.790        2018.026          49.000  
G 3  20944697.305      -22896.061        -808.447          40.750  
G11  22991437.466       51677.172        2026.324          43.000  
> 2018  4 22 11 21 23.7688020  0  3                     
G 1  22331396.853       57695.596        2017.627          48.750  
G 3  20946511.855      -22976.868        -808.252          40.750  
G11  22993308.142       51879.839        2026.374          43.250  
> 2018  4 22 11 21 23.8688020  0  3                     
G 1  22333267.047       57897.400        2018.493          48.750  
G 3  20948328.106      -23057.644        -808.194          40.250  
G11  22995177.389       52082.501        2027.662          43.250  
> 2018  4 22 11 21 23.9688020  0  3                     
G 1  22335137.348       58099.246        2018.774          48.750  
G 3  20950144.607      -23138.402        -809.177          40.750  
G11  22997046.407       52285.182        2026.648          43.250  
> 2018  4 22 11 21 24.0688020  0  3                     
G 1  22337007.105       58301.118        2019.206          48.750  
G 3  20951960.707      -23219.101        -806.194          40.750  
G11  22998915.369       52487.878        2008.952          43.000  
> 2018  4 22 11 21 24.1688020  0  3                     
G 1  22338877.752       58503.022        2019.101          48.750  
G 3  20953776.450      -23299.770        -807.009          40.750  
G11  23000785.682       52690.664        2018.865          43.000  
> 2018  4 22 11 21 24.2688020  0  3                     
G 1  22340747.007       58704.902        2019.321          48.750  
G 3  20955592.880      -23380.460        -806.713          41.250  
G11  23002656.202       52893.431        2028.097          43.000  
> 2018  4 22 11 21 24.3688020  0  3                     
G 1  22342616.677       58906.793        2019.240          48.750  
G 3  20957409.748      -23461.138        -807.176          41.250  
G11  23004526.350       53096.176        2028.624          43.250  
> 2018  4 22 11 21 24.4688020  0  3                     
G 1  22344487.361       59108.649        2018.363          48.750  
G 3  20959226.872      -23541.845        -807.926          41.250  
G11  23006396.490       53298.904        2028.172          43.250  
> 2018  4 22 11 21 24.5688020  0  3                     
G 1  22346357.383       59310.473        2018.232          49.000  
G 3  20961042.556      -23622.582        -807.797          41.500  
G11  23008266.482       53501.566        2026.750          43.250  
> 2018  4 22 11 21 24.6688020  0  3                     
G 1  22348227.002       59512.285        2018.418          49.000  
G 3  20962858.732      -23703.298        -807.942          41.250  
G11  23010138.130       53704.242        2026.180          43.250  
> 2018  4 22 11 21 24.7688020  0  3                     
G 1  22350096.610       59714.072        2017.775          48.750  
G 3  20964674.364      -23784.059        -807.207          41.500  
G11  23012007.483       53906.883        2026.661          43.500  
> 2018  4 22 11 21 24.8688020  0  3                     
G 1  22351966.267       59915.820        2017.148          48.750  
G 3  20966489.785      -23864.852        -808.097          41.250  
G11  23013877.530       54109.488        2026.187          43.500  
> 2018  4 22 11 21 24.9688020  0  3                     
G 1  22353836.459       60117.558        2017.491          49.000  
G 3  20968305.895      -23945.646        -807.584          41.250  
G11  23015747.229       54312.070        2025.804          43.500  
> 2018  4 22 11 21 25.0688020  0  3                     
G 1  22355706.835       60319.302        2017.970          49.000  
G 3  20970122.636      -24026.438        -807.503          40.750  
G11  23017616.560       54514.668        2026.170          43.000  
> 2018  4 22 11 21 25.1688020  0  3                     
G 1  22357576.835       60521.030        2017.010          48.750  
G 3  20971940.534      -24107.230        -808.762          41.000  
G11  23019487.521       54717.263        2025.566          43.250  
> 2018  4 22 11 21 25.2688020  0  3                     
G 1  22359446.667       60722.692        2015.674          48.750  
G 3  20973756.685      -24188.076        -808.955          41.250  
G11  23021357.210       54919.781        2025.238          43.000  
> 2018  4 22 11 21 25.3688020  0  3                     
G 1  22361317.132       60924.330        2016.460          49.000  
G 3  20975571.064      -24268.954        -808.227          40.500  
G11  23023226.984       55122.267        2025.941          43.250  
> 2018  4 22 11 21 25.4688020  0  3                     
G 1  22363187.857       61125.949        2016.929          49.000  
G 3  20977387.293      -24349.839        -809.588          40.500  
G11  23025097.431       55324.744        2025.543          43.000  
> 2018  4 22 11 21 25.5688020  0  3                     
G 1  22365057.636       61327.536        2015.989          49.000  
G 3  20979203.391      -24430.761        -810.025          40.500  
G11  23026967.984       55527.190        2023.678          43.000  
> 2018  4 22 11 21 25.6688020  0  3                     
G 1  22366927.253       61529.141        2016.170          49.000  
G 3  20981019.141      -24511.632        -807.889          40.750  
G11  23028838.498       55729.635        2024.524          43.500  
> 2018  4 22 11 21 25.7688020  0  3                     
G 1  22368797.701       61730.652        2014.691          49.000  
G 3  20982834.431      -24592.602        -809.724          40.250  
G11  23030708.370       55932.014        2022.944          43.000  
> 2018  4 22 11 21 25.8688020  0  3                     
G 1  22370666.713       61932.133        2015.045          48.750  
G 3  20984649.732      -24673.612        -810.561          39.750  
G11  23032578.179       56134.339        2024.180          42.750  
> 2018  4 22 11 21 25.9688020  0  3                     
G 1  22372536.348       62133.612        2014.162          49.000  
G 3  20986466.047      -24754.597        -809.116          40.000  
G11  23034447.778       56336.679        2022.932          43.250  
> 2018  4 22 11 21 26.0688020  0  3                     
G 1  22374406.136       62335.199        2016.936          48.750  
G 3  20988283.096      -24835.483        -807.436          40.250  
G11  23036318.734       56539.092        2024.943          42.750  
> 2018  4 22 11 21 26.1688020  0  3                     
G 1  22376275.580       62536.838        2016.540          48.750  
G 3  20990098.492      -24916.313        -808.445          40.000  
G11  23038189.294       56741.621        2026.083          43.000  
> 2018  4 22 11 21 26.2688020  0  3                     
G 1  22378145.447       62738.580        2018.209          49.000  
G 3  20991912.586      -24997.025        -806.596          39.750  
G11  23040059.900       56944.197        2026.181          42.750  
> 2018  4 22 11 21 26.3688020  0  3                     
G 1  22380015.561       62940.390        2018.476          49.000  
G 3  20993729.568      -25077.665        -805.968          40.250  
G11  23041928.439       57146.872        2026.534          43.250  
> 2018  4 22 11 21 26.4688020  0  3                     
G 1  22381885.527       63142.218        2018.478          49.000  
G 3  20995544.689      -25158.298        -806.401          40.500  
G11  23043798.071       57349.540        2026.189          42.750  
> 2018  4 22 11 21 26.5688020  0  3                     
G 1  22383755.798       63343.986        2016.994          49.000  
G 3  20997359.851      -25238.965        -806.756          39.750  
G11  23045668.621       57552.175        2026.026          43.250  
> 2018  4 22 11 21 26.6688020  0  3                     
G 1  22385625.836       63545.730        2017.439          49.000  
G 3  20999176.171      -25319.665        -806.909          40.250  
G11  23047539.204       57754.759        2026.099          43.000  
> 2018  4 22 11 21 26.7688020  0  3                     
G 1  22387495.822       63747.427        2016.487          49.000  
G 3  21000992.769      -25400.384        -808.251          40.000  
G11  23049408.782       57957.316        2024.866          43.250  
> 2018  4 22 11 21 26.8688020  0  3                     
G 1  22389365.388       63949.115        2016.528          49.000  
G 3  21002810.367      -25481.121        -808.410          40.000  
G11  23051278.709       58159.847        2025.087          43.000  
> 2018  4 22 11 21 26.9688020  0  3                     
G 1  22391235.352       64150.792        2016.672          49.000  
G 3  21004627.253      -25561.868        -807.362          40.000  
G11  23053148.780       58362.377        2025.113          43.000  
> 2018  4 22 11 21 27.0688020  0  3                     
G 1  22393104.966       64352.438        2017.256          48.750  
G 3  21006444.795      -25642.641        -807.768          39.500  
G11  23055018.995       58564.877        2025.020          43.000  
> 2018  4 22 11 21 27.1688020  0  3                     
G 1  22394975.493       64554.134        2017.327          49.000  
G 3  21008261.883      -25723.363        -806.952          40.250  
G11  23056889.258       58767.414        2026.411          43.500  
> 2018  4 22 11 21 27.2688020  0  3                     
G 1  22396845.464       64755.802        2016.806          49.000  
G 3  21010076.767      -25804.076        -807.214          40.500  
G11  23058760.121       58969.945        2025.300          43.500  
> 2018  4 22 11 21 27.3688020  0  3                     
G 1  22398716.003       64957.482        2016.778          49.000  
G 3  21011891.886      -25884.784        -807.447          40.000  
G11  23060630.048       59172.473        2026.114          43.250  
> 2018  4 22 11 21 27.4688020  0  3                     
G 1  22400586.012       65159.181        2017.391          49.000  
G 3  21013708.941      -25965.496        -806.392          40.250  
G11  23062500.635       59375.020        2025.904          43.000  
> 2018  4 22 11 21 27.5688020  0  3                     
G 1  22402455.685       65360.879        2016.470          49.000  
G 3  21015524.025      -26046.175        -806.739          39.750  
G11  23064371.736       59577.557        2025.089          43.250  
> 2018  4 22 11 21 27.6688020  0  3                     
G 1  22404325.698       65562.542        2016.596          48.750  
G 3  21017339.190      -26126.904        -807.211          40.250  
G11  23066240.993       59780.088        2025.537          43.250  
> 2018  4 22 11 21 27.7688020  0  3                     
G 1  22406194.886       65764.130        2016.008          48.500  
G 3  21019155.239      -26207.689        -808.977          40.250  
G11  23068111.094       59982.512        2023.849          43.000  
> 2018  4 22 11 21 27.8688020  0  3                     
G 1  22408064.680       65965.699        2015.604          48.750  
G 3  21020973.496      -26288.486        -808.712          40.000  
G11  23069981.420       60184.925        2024.732          43.250  
> 2018  4 22 11 21 27.9688020  0  3                     
G 1  22409934.316       66167.326        2016.537          48.500  
G 3  21022789.951      -26369.228        -808.489          40.000  
G11  23071850.303       60387.397        2025.605          43.250  
> 2018  4 22 11 21 28.0688020  0  3                     
G 1  22411804.081       66369.035        2017.579          49.000  
G 3  21024605.043      -26449.875        -806.131          39.750  
G11  23073720.582       60589.956        2024.989          43.250  
> 2018  4 22 11 21 28.1688020  0  3                     
G 1  22413674.256       66570.752        2016.785          48.750  
G 3  21026421.346      -26530.499        -805.974          40.250  
G11  23075591.323       60792.525        2025.339          43.000  
> 2018  4 22 11 21 28.2688020  0  3                     
G 1  22415544.393       66772.429        2017.159          48.750  
G 3  21028238.760      -26611.173        -807.530          40.250  
G11  23077461.609       60995.057        2025.782          43.000  
> 2018  4 22 11 21 28.3688020  0  3                     
G 1  22417414.683       66974.165        2017.956          48.750  
G 3  21030056.135      -26691.772        -805.059          40.000  
G11  23079333.878       61197.643        2026.361          43.000  
> 2018  4 22 11 21 28.4688020  0  3                     
G 1  22419284.145       67176.025        2018.792          48.500  
G 3  21031871.274      -26772.262        -804.371          40.250  
G11  23081202.902       61400.340        2026.970          43.000  
> 2018  4 22 11 21 28.5688020  0  3                     
G 1  22421154.007       67377.892        2019.069          48.750  
G 3  21033687.121      -26852.711        -802.830          40.000  
G11  23083072.317       61603.069        2029.920          42.750  
> 2018  4 22 11 21 28.6688020  0  3                     
G 1  22423023.869       67579.742        2018.256          49.000  
G 3  21035503.454      -26933.179        -803.922          40.500  
G11  23084942.376       61805.737        2026.842          42.750  
> 2018  4 22 11 21 28.7688020  0  3                     
G 1  22424893.978       67781.550        2017.782          48.750  
G 3  21037319.590      -27013.713        -804.895          40.250  
G11  23086812.855       62008.396        2027.002          43.250  
> 2018  4 22 11 21 28.8688020  0  3                     
G 1  22426763.817       67983.325        2017.360          48.750  
G 3  21039134.702      -27094.247        -805.720          40.000  
G11  23088683.782       62211.023        2026.800          43.000  
> 2018  4 22 11 21 28.9688020  0  3                     
G 1  22428634.114       68185.109        2018.090          48.750  
G 3  21040951.507      -27174.763        -805.081          40.250  
G11  23090553.388       62413.661        2027.031          43.250  
> 2018  4 22 11 21 29.0688020  0  3                     
G 1  22430503.905       68386.896        2018.010          49.000  
G 3  21042769.645      -27255.271        -804.123          39.250  
G11  23092422.738       62616.302        2027.473          43.000  
> 2018  4 22 11 21 29.1688020  0  3                     
G 1  22432373.629       68588.676        2017.906          48.500  
G 3  21044585.407      -27335.789        -805.881          39.750  
G11  23094292.789       62818.931        2027.811          42.750  
> 2018  4 22 11 21 29.2688020  0  3                     
G 1  22434244.466       68790.460        2018.511          49.000  
G 3  21046401.869      -27416.305        -804.760          39.500  
G11  23096162.679       63021.542        2025.472          43.000  
> 2018  4 22 11 21 29.3688020  0  3                     
G 1  22436114.732       68992.253        2018.593          49.000  
G 3  21048217.090      -27496.787        -804.032          39.750  
G11  23098032.123       63224.189        2026.650          43.000  
> 2018  4 22 11 21 29.4688020  0  3                     
G 1  22437984.781       69194.076        2019.269          48.750  
G 3  21050032.956      -27577.259        -804.310          39.750  
G11  23099903.200       63426.858        2027.310          42.750  
> 2018  4 22 11 21 29.5688020  0  3                     
G 1  22439855.558       69395.918        2019.307          48.750  
G 3  21051847.237      -27657.675        -804.836          39.250  
G11  23101773.849       63629.534        2027.058          42.750  
> 2018  4 22 11 21 29.6688020  0  3                     
G 1  22441725.103       69597.795        2019.186          48.500  
G 3  21053664.290      -27738.077        -805.008          39.750  
G11  23103642.894       63832.255        2027.005          42.750  
> 2018  4 22 11 21 29.7688020  0  3                     
G 1  22443595.106       69799.735        2019.953          48.750  
G 3  21055481.615      -27818.406        -804.039          40.000  
G11  23105512.117       64035.039        2027.820          43.000  
> 2018  4 22 11 21 29.8688020  0  3                     
G 1  22445465.451       70001.637        2018.853          48.750  
G 3  21057299.296      -27898.757        -804.370          39.500  
G11  23107382.475       64237.788        2027.476          42.500  
> 2018  4 22 11 21 29.9688020  0  3                     
G 1  22447336.125       70203.510        2018.520          48.750  
G 3  21059116.621      -27979.119        -804.354          40.250  
G11  23109252.687       64440.512        2026.425          42.500  
> 2018  4 22 11 21 30.0688020  0  3                     
G 1  22449205.611       70405.337        2018.434          48.500  
G 3  21060932.549      -28059.541        -804.047          40.500  
G11  23111122.924       64642.940        1997.061          42.750  
> 2018  4 22 11 21 30.1688020  0  3                     
G 1  22451075.259       70607.181        2018.427          48.500  
G 3  21062749.808      -28139.951        -803.193          40.500  
G11  23112993.070       64846.104        2069.513          42.500  
> 2018  4 22 11 21 30.2688020  0  3                     
G 1  22452944.292       70808.945        2017.453          48.500  
G 3  21064567.235      -28220.434        -805.759          40.750  
G11  23114863.607       65048.473        2025.746          42.750  
> 2018  4 22 11 21 30.3688020  0  3                     
G 1  22454814.242       71010.690        2017.450          49.000  
G 3  21066382.494      -28300.913        -805.251          39.750  
G11  23116732.831       65251.052        2025.786          42.750  
> 2018  4 22 11 21 30.4688020  0  3                     
G 1  22456684.273       71212.435        2017.385          49.000  
G 3  21068199.103      -28381.396        -804.600          40.000  
G11  23118603.887       65453.646        2025.409          42.750  
> 2018  4 22 11 21 30.5688020  0  3                     
G 1  22458553.972       71414.157        2017.272          48.750  
G 3  21070014.643      -28461.886        -804.553          39.500  
G11  23120473.527       65656.209        2026.071          42.500  
> 2018  4 22 11 21 30.6688020  0  3                     
G 1  22460424.483       71615.968        2018.838          48.750  
G 3  21071829.766      -28542.281        -803.490          39.500  
G11  23122342.733       65858.869        2027.321          43.000  
> 2018  4 22 11 21 30.7688020  0  3                     
G 1  22462294.993       71817.791        2019.157          48.500  
G 3  21073645.682      -28622.668        -804.348          40.000  
G11  23124212.810       66061.540        2027.172          42.500  
> 2018  4 22 11 21 30.8688020  0  3                     
G 1  22464165.257       72019.660        2018.878          49.000  
G 3  21075461.880      -28703.023        -802.434          39.500  
G11  23126083.120       66264.232        2027.203          42.750  
> 2018  4 22 11 21 30.9688020  0  3                     
G 1  22466034.680       72221.518        2018.022          49.000  
G 3  21077278.197      -28783.331        -804.091          39.500  
G11  23127952.187       66466.937        2026.482          42.500  
> 2018  4 22 11 21 31.0688020  0  3                     
G 1  22467904.720       72423.362        2018.390          49.000  
G 3  21079093.160      -28863.662        -803.455          39.000  
G11  23129822.101       66669.617        2027.690          42.500  
> 2018  4 22 11 21 31.1688020  0  3                     
G 1  22469774.466       72625.189        2017.919          48.750  
G 3  21080907.425      -28944.037        -804.304          38.750  
G11  23131692.691       66872.287        2026.391          42.750  
> 2018  4 22 11 21 31.2688020  0  3                     
G 1  22471644.772       72826.979        2017.971          48.750  
G 3  21082724.283      -29024.390        -803.228          39.250  
G11  23133563.575       67074.921        2026.152          42.250  
> 2018  4 22 11 21 31.3688020  0  3                     
G 1  22473515.498       73028.766        2017.823          48.750  
G 3  21084541.462      -29104.802        -805.317          39.250  
G11  23135435.475       67277.540        2025.335          42.500  
> 2018  4 22 11 21 31.4688020  0  3                     
G 1  22475385.252       73230.443        2016.769          48.750  
G 3  21086356.554      -29185.294        -805.329          40.000  
G11  23137305.690       67480.052        2025.320          42.500  
> 2018  4 22 11 21 31.5688020  0  3                     
G 1  22477255.062       73432.116        2017.242          49.000  
G 3  21088173.636      -29265.794        -804.113          40.000  
G11  23139174.878       67682.576        2024.680          42.500  
> 2018  4 22 11 21 31.6688020  0  3                     
G 1  22479125.392       73633.779        2016.552          49.000  
G 3  21089990.449      -29346.293        -805.394          40.000  
G11  23141045.605       67885.077        2025.495          42.500  
> 2018  4 22 11 21 31.7688020  0  3                     
G 1  22480995.553       73835.402        2016.403          48.750  
G 3  21091808.530      -29426.809        -804.978          40.250  
G11  23142915.042       68087.543        2025.066          43.000  
> 2018  4 22 11 21 31.8688020  0  3                     
G 1  22482864.889       74037.031        2016.347          48.750  
G 3  21093624.437      -29507.335        -805.744          40.250  
G11  23144785.211       68290.012        2024.313          43.000  
> 2018  4 22 11 21 31.9688020  0  3                     
G 1  22484735.077       74238.613        2015.894          48.750  
G 3  21095441.343      -29587.904        -805.631          40.000  
G11  23146654.767       68492.419        2023.588          42.750  
> 2018  4 22 11 21 32.0688020  0  3                     
G 1  22486605.328       74440.123        2015.183          49.000  
G 3  21097257.601      -29668.523        -804.456          40.000  
G11  23148524.491       68694.768        2023.189          42.750  
> 2018  4 22 11 21 32.1688020  0  3                     
G 1  22488474.699       74641.638        2015.377          48.750  
G 3  21099073.255      -29749.136        -806.745          39.000  
G11  23150394.675       68897.129        2023.300          42.750  
> 2018  4 22 11 21 32.2688020  0  3                     
G 1  22490344.430       74843.184        2016.054          48.750  
G 3  21100889.665      -29829.702        -805.027          39.250  
G11  23152265.496       69099.506        2024.145          42.500  
> 2018  4 22 11 21 32.3688020  0  3                     
G 1  22492213.990       75044.830        2016.807          48.750  
G 3  21102706.476      -29910.186        -804.413          39.250  
G11  23154136.962       69302.005        2025.485          42.500  
> 2018  4 22 11 21 32.4688020  0  3                     
G 1  22494084.063       75246.503        2017.883          48.750  
G 3  21104520.621      -29990.623        -803.269          38.750  
G11  23156008.306       69504.527        2024.900          42.500  
> 2018  4 22 11 21 32.5688020  0  3                     
G 1  22495953.978       75448.293        2018.750          48.750  
G 3  21106335.559      -30070.937        -802.332          38.750  
G11  23157878.798       69707.130        2026.562          42.750  
> 2018  4 22 11 21 32.6688020  0  3                     
G 1  22497824.743       75650.138        2019.303          48.750  
G 3  21108151.787      -30151.182        -801.447          39.000  
G11  23159748.507       69909.822        2027.744          43.000  
> 2018  4 22 11 21 32.7688020  0  3                     
G 1  22499694.767       75852.015        2018.208          49.000  
G 3  21109968.982      -30231.404        -801.312          39.250  
G11  23161618.222       70112.533        2026.246          43.250  
> 2018  4 22 11 21 32.8688020  0  3                     
G 1  22501564.415       76053.901        2019.636          48.750  
G 3  21111785.849      -30311.583        -800.380          39.250  
G11  23163486.320       70315.262        2028.004          43.000  
> 2018  4 22 11 21 32.9688020  0  3                     
G 1  22503434.118       76255.866        2019.756          48.750  
G 3  21113601.676      -30391.689        -800.025          39.000  
G11  23165356.802       70518.056        2027.833          42.750  
> 2018  4 22 11 21 33.0688020  0  3                     
G 1  22505304.797       76457.838        2019.987          48.750  
G 3  21115417.949      -30471.826        -801.595          39.750  
G11  23167227.952       70720.872        2027.894          42.750  
> 2018  4 22 11 21 33.1688020  0  3                     
G 1  22507174.372       76659.815        2020.388          48.750  
G 3  21117235.367      -30551.922        -801.066          39.000  
G11  23169098.422       70923.683        2027.779          43.000  
> 2018  4 22 11 21 33.2688020  0  3                     
G 1  22509044.210       76861.819        2019.959          48.750  
G 3  21119051.762      -30631.993        -800.390          39.750  
G11  23170969.738       71126.524        2028.991          43.000  
> 2018  4 22 11 21 33.3688020  0  3                     
G 1  22510914.985       77063.783        2019.517          49.000  
G 3  21120868.982      -30712.097        -801.642          40.250  
G11  23172838.564       71329.330        2027.713          43.250  
> 2018  4 22 11 21 33.4688020  0  3                     
G 1  22512785.000       77265.769        2020.576          48.750  
G 3  21122685.590      -30792.178        -800.119          40.000  
G11  23174707.937       71532.132        2028.157          43.000  
> 2018  4 22 11 21 33.5688020  0  3                     
G 1  22514654.804       77467.765        2019.203          49.000  
G 3  21124501.962      -30872.202        -801.242          40.000  
G11  23176578.680       71734.975        2026.333          42.500  
> 2018  4 22 11 21 33.6688020  0  3                     
G 1  22516524.665       77669.712        2018.814          48.750  
G 3  21126316.455      -30952.310        -801.236          39.250  
G11  23178449.425       71937.768        2027.498          43.000  
> 2018  4 22 11 21 33.7688020  0  3                     
G 1  22518395.523       77871.676        2019.959          49.000  
G 3  21128131.514      -31032.386        -799.872          39.000  
G11  23180318.853       72140.555        2026.835          43.000  
> 2018  4 22 11 21 33.8688020  0  3                     
G 1  22520265.826       78073.649        2019.776          49.000  
G 3  21129950.230      -31112.435        -799.290          38.500  
G11  23182189.119       72343.358        2028.012          43.250  
> 2018  4 22 11 21 33.9688020  0  3                     
G 1  22522135.301       78275.603        2020.505          48.750  
G 3  21131767.656      -31192.509        -799.772          39.000  
G11  23184059.327       72546.155        2029.049          43.250  
> 2018  4 22 11 21 34.0688020  0  3                     
G 1  22524005.292       78477.541        2019.515          49.000  
G 3  21133583.820      -31272.580        -799.805          39.250  
G11  23185931.363       72748.924        2027.268          43.500  
> 2018  4 22 11 21 34.1688020  0  3                     
G 1  22525875.173       78679.457        2019.094          48.500  
G 3  21135400.263      -31352.694        -801.317          39.250  
G11  23187801.851       72951.667        2027.387          43.250  
> 2018  4 22 11 21 34.2688020  0  3                     
G 1  22527744.801       78881.278        2018.046          48.750  
G 3  21137216.523      -31432.871        -802.408          40.000  
G11  23189672.102       73154.316        2025.806          43.250  
> 2018  4 22 11 21 34.3688020  0  3                     
G 1  22529615.000       79083.020        2017.249          48.750  
G 3  21139033.560      -31513.122        -803.229          39.750  
G11  23191542.014       73356.904        2025.562          43.250  
> 2018  4 22 11 21 34.4688020  0  3                     
G 1  22531484.869       79284.756        2017.274          48.500  
G 3  21140852.501      -31593.407        -803.935          40.000  
G11  23193411.807       73559.467        2025.766          43.250  
> 2018  4 22 11 21 34.5688020  0  3                     
G 1  22533354.627       79486.480        2017.628          48.750  
G 3  21142669.618      -31673.656        -802.203          39.500  
G11  23195281.390       73762.040        2025.532          43.000  
> 2018  4 22 11 21 34.6688020  0  3                     
G 1  22535224.237       79688.212        2016.656          48.750  
G 3  21144485.466      -31753.947        -802.202          39.750  
G11  23197151.545       73964.589        2025.092          43.250  
> 2018  4 22 11 21 34.7688020  0  3                     
G 1  22537094.346       79889.913        2017.230          49.000  
G 3  21146300.485      -31834.218        -801.687          39.750  
G11  23199021.809       74167.119        2025.106          43.250  
> 2018  4 22 11 21 34.8688020  0  3                     
G 1  22538964.491       80091.668        2017.723          48.750  
G 3  21148115.802      -31914.450        -801.957          39.750  
G11  23200893.171       74369.698        2026.072          43.000  
> 2018  4 22 11 21 34.9688020  0  3                     
G 1  22540834.622       80293.453        2017.860          48.750  
G 3  21149930.715      -31994.622        -801.507          39.500  
G11  23202762.440       74572.343        2026.823          43.000  
> 2018  4 22 11 21 35.0688020  0  3                     
G 1  22542704.758       80495.314        2019.002          49.000  
G 3  21151747.325      -32074.718        -800.061          39.750  
G11  23204632.605       74775.019        2028.083          43.250  
> 2018  4 22 11 21 35.1688020  0  3                     
G 1  22544574.596       80697.239        2019.702          48.750  
G 3  21153561.835      -32154.769        -800.689          38.750  
G11  23206503.366       74977.767        2027.462          43.250  
> 2018  4 22 11 21 35.2688020  0  3                     
G 1  22546443.999       80899.196        2019.840          48.500  
G 3  21155377.496      -32234.780        -800.435          39.000  
G11  23208373.727       75180.562        2028.395          43.500  
> 2018  4 22 11 21 35.3688020  0  3                     
G 1  22548313.742       81101.216        2021.138          48.750  
G 3  21157194.485      -32314.713        -798.708          39.000  
G11  23210244.233       75383.407        2027.981          43.500  
> 2018  4 22 11 21 35.4688020  0  3                     
G 1  22550183.935       81303.291        2020.575          48.750  
G 3  21159011.700      -32394.587        -798.630          39.250  
G11  23212113.883       75586.316        2029.010          43.500  
> 2018  4 22 11 21 35.5688020  0  3                     
G 1  22552053.542       81505.290        2020.415          48.750  
G 3  21160827.899      -32474.521        -799.791          39.500  
G11  23213984.159       75789.146        2028.805          43.750  
> 2018  4 22 11 21 35.6688020  0  3                     
G 1  22553923.093       81707.301        2020.549          48.750  
G 3  21162645.285      -32554.449        -799.919          39.000  
G11  23215854.862       75991.984        2029.132          43.500  
> 2018  4 22 11 21 35.7688020  0  3                     
G 1  22555793.424       81909.308        2020.618          48.500  
G 3  21164462.420      -32634.368        -799.069          39.000  
G11  23217725.747       76194.832        2029.219          43.750  
> 2018  4 22 11 21 35.8688020  0  3                     
G 1  22557663.740       82111.286        2020.866          48.750  
G 3  21166278.900      -32714.295        -798.129          39.000  
G11  23219596.622       76397.623        2027.201          43.750  
> 2018  4 22 11 21 35.9688020  0  3                     
G 1  22559534.169       82313.292        2019.950          48.500  
G 3  21168094.237      -32794.207        -798.351          39.250  
G11  23221466.528       76600.471        2028.194          43.750  
> 2018  4 22 11 21 36.0688020  0  7                     
G 1  23175532.273       82511.173        2020.801          48.750  
G 3  21784038.126      -32872.460        -798.809          39.250  
G11  23837463.936       76799.165        2029.732          43.750  
G17  21485038.651      -82781.200       -2305.329          51.000  
G19  21907423.404     -110042.821       -3159.645          42.750  
G22  23344330.369       27636.297         851.564          47.750  
G28  21066355.496       11905.426         380.802          47.750  
> 2018  4 22 11 21 36.4688020  0  7                     
G 1  23183011.732       83319.445        2020.906          48.500  
G 3  21791302.732      -33191.777        -797.647          38.750  
G11  23844944.592       77610.757        2029.589          43.750  
G17  21492189.168      -83703.162       -2304.518          50.750  
G19  21914509.796     -111306.515       -3159.260          43.000  
G22  23351721.555       27967.471         829.091          47.500  
G28  21073708.415       12057.887         381.637          47.500  
> 2018  4 22 11 21 36.5688020  0  7                     
G 1  23184881.725       83521.555        2021.481          48.750  
G 3  21793117.874      -33271.559        -797.388          39.750  
G11  23846814.912       77813.696        2029.447          43.750  
G17  21493976.917      -83933.608       -2304.220          51.000  
G19  21916281.302     -111622.407       -3158.521          43.000  
G22  23353568.123       28050.312         828.007          47.500  
G28  21075549.605       12096.054         381.600          47.500  
> 2018  4 22 11 21 36.6688020  0  7                     
G 1  23186751.712       83723.687        2021.662          48.750  
G 3  21794934.084      -33351.314        -798.332          39.500  
G11  23848683.551       78016.650        2030.238          43.750  
G17  21495764.798      -84164.039       -2304.621          51.000  
G19  21918053.848     -111938.266       -3158.208          42.750  
G22  23355415.552       28133.194         828.305          47.500  
G28  21077386.384       12134.248         381.327          47.500  
> 2018  4 22 11 21 36.7688020  0  7                     
G 1  23188621.839       83925.830        2022.234          48.500  
G 3  21796751.596      -33431.036        -795.767          38.750  
G11  23850553.332       78219.616        2030.103          43.500  
G17  21497552.751      -84394.448       -2303.295          50.750  
G19  21919824.835     -112254.113       -3158.457          43.000  
G22  23357263.263       28216.083         830.356          47.500  
G28  21079226.062       12172.453         383.592          47.750  
> 2018  4 22 11 21 36.8688020  0  7                     
G 1  23190493.250       84127.960        2020.383          48.750  
G 3  21798568.951      -33510.759        -796.823          39.250  
G11  23852422.707       78422.591        2029.110          43.250  
G17  21499340.505      -84624.868       -2304.259          51.000  
G19  21921596.509     -112569.979       -3159.495          43.000  
G22  23359110.013       28298.979         827.612          47.500  
G28  21081064.935       12210.658         382.034          47.750  
> 2018  4 22 11 21 36.9688020  0  7                     
G 1  23192363.350       84330.090        2021.664          48.750  
G 3  21800386.503      -33590.491        -796.353          39.250  
G11  23854293.445       78625.530        2029.198          43.500  
G17  21501128.182      -84855.287       -2304.206          50.750  
G19  21923368.522     -112885.827       -3158.410          42.500  
G22  23360957.340       28381.869         829.515          47.250  
G28  21082902.282       12248.855         382.346          47.500  
> 2018  4 22 11 21 37.0688020  0  7                     
G 1  23194232.990       84532.231        2021.765          48.750  
G 3  21802201.610      -33670.191        -797.047          39.000  
G11  23856162.760       78828.491        2029.213          43.500  
G17  21502915.798      -85085.711       -2304.236          50.750  
G19  21925139.044     -113201.673       -3158.568          43.000  
G22  23362804.424       28464.762         829.866          47.500  
G28  21084742.740       12287.058         381.741          47.750  
> 2018  4 22 11 21 37.1688020  0  7                     
G 1  23196102.935       84734.365        2020.992          48.750  
G 3  21804016.281      -33749.951        -796.109          39.250  
G11  23858033.128       79031.445        2029.537          43.750  
G17  21504702.886      -85316.138       -2304.603          50.750  
G19  21926911.655     -113517.555       -3159.282          43.250  
G22  23364651.190       28547.649         828.186          47.500  
G28  21086581.483       12325.276         382.212          47.500  
> 2018  4 22 11 21 37.2688020  0  7                     
G 1  23197972.539       84936.418        2020.182          48.750  
G 3  21805832.860      -33829.729        -799.041          39.250  
G11  23859903.579       79234.346        2028.844          43.500  
G17  21506490.510      -85546.629       -2305.722          50.750  
G19  21928682.330     -113833.465       -3159.860          43.000  
G22  23366498.564       28630.488         827.618          47.500  
G28  21088421.156       12363.418         380.494          47.750  
> 2018  4 22 11 21 37.3688020  0  7                     
G 1  23199842.971       85138.443        2020.006          48.500  
G 3  21807647.911      -33909.534        -798.633          39.000  
G11  23861772.765       79437.180        2027.783          43.750  
G17  21508278.386      -85777.151       -2305.517          50.750  
G19  21930454.612     -114149.422       -3161.155          42.750  
G22  23368346.607       28713.277         827.574          47.250  
G28  21090259.679       12401.532         380.863          47.500  
> 2018  4 22 11 21 37.4688020  0  7                     
G 1  23201712.738       85340.422        2020.056          48.500  
G 3  21809464.407      -33989.374        -798.059          38.750  
G11  23863643.699       79639.991        2027.926          43.750  
G17  21510066.022      -86007.719       -2305.862          51.000  
G19  21932224.283     -114465.428       -3159.434          42.500  
G22  23370193.624       28796.042         827.515          47.500  
G28  21092097.866       12439.609         380.404          47.750  
> 2018  4 22 11 21 37.5688020  0  7                     
G 1  23203582.580       85542.401        2020.288          48.500  
G 3  21811281.493      -34069.237        -798.003          39.000  
G11  23865514.592       79842.796        2028.966          43.750  
G17  21511854.038      -86238.293       -2305.674          51.000  
G19  21933996.521     -114781.444       -3159.851          43.000  
G22  23372041.278       28878.793         827.561          47.750  
G28  21093938.166       12477.683         381.131          47.750  
> 2018  4 22 11 21 37.6688020  0  7                     
G 1  23205453.087       85744.369        2020.302          48.750  
G 3  21813098.808      -34149.080        -797.577          38.750  
G11  23867385.707       80045.613        2028.950          43.750  
G17  21513641.791      -86468.870       -2305.114          50.750  
G19  21935767.881     -115097.443       -3159.808          42.750  
G22  23373888.975       28961.554         828.262          47.500  
G28  21095774.340       12515.752         380.915          47.750  
> 2018  4 22 11 21 37.7688020  0  7                     
G 1  23207323.017       85946.418        2020.578          48.750  
G 3  21814913.185      -34228.854        -797.472          39.250  
G11  23869255.249       80248.474        2027.667          43.750  
G17  21515429.085      -86699.361       -2305.181          50.750  
G19  21937538.834     -115413.383       -3159.740          43.000  
G22  23375737.547       29044.393         828.215          47.750  
G28  21097613.623       12553.916         381.029          47.500  
> 2018  4 22 11 21 37.8688020  0  7                     
G 1  23209193.720       86148.532        2021.762          48.750  
G 3  21816729.376      -34308.558        -798.709          38.750  
G11  23871125.589       80451.414        2030.420          43.750  
G17  21517217.225      -86929.802       -2303.769          50.750  
G19  21939310.266     -115729.246       -3159.292          43.000  
G22  23377583.913       29127.298         829.215          47.500  
G28  21099453.303       12592.140         383.134          47.500  
> 2018  4 22 11 21 37.9688020  0  7                     
G 1  23211062.768       86350.702        2021.566          48.750  
G 3  21818547.213      -34388.182        -797.199          38.000  
G11  23872996.188       80654.401        2030.288          43.750  
G17  21519004.506      -87160.190       -2303.816          50.500  
G19  21941081.881     -116045.060       -3157.743          43.000  
G22  23379430.874       29210.263         830.333          47.500  
G28  21101290.516       12630.418         382.606          47.750  
> 2018  4 22 11 21 38.0688020  0  7                     
G 1  23212932.528       86552.894        2021.592          48.250  
G 3  21820365.078      -34467.798        -795.665          38.750  
G11  23874866.950       80857.410        2029.973          43.750  
G17  21520793.008      -87390.536       -2303.473          50.750  
G19  21942854.250     -116360.840       -3157.810          42.500  
G22  23381278.135       29293.247         829.320          47.750  
G28  21103130.537       12668.727         383.176          47.500  
> 2018  4 22 11 21 38.1688020  0  7                     
G 1  23214802.842       86755.081        2022.348          48.500  
G 3  21822179.972      -34547.411        -797.029          38.500  
G11  23876737.640       81060.427        2030.790          44.000  
G17  21522580.977      -87620.898       -2303.765          51.000  
G19  21944625.043     -116676.651       -3158.742          43.000  
G22  23383124.922       29376.231         830.073          47.500  
G28  21104968.111       12707.039         383.440          47.500  
> 2018  4 22 11 21 38.2688020  0  7                     
G 1  23216673.052       86957.281        2021.876          48.500  
G 3  21823996.496      -34626.997        -795.628          38.750  
G11  23878607.338       81263.440        2030.396          43.750  
G17  21524368.622      -87851.238       -2303.771          50.500  
G19  21946397.202     -116992.415       -3158.109          42.750  
G22  23384972.495       29459.249         830.115          47.500  
G28  21106806.768       12745.364         382.671          47.500  
> 2018  4 22 11 21 38.3688020  0  7                     
G 1  23218543.492       87159.429        2020.938          48.750  
G 3  21825813.206      -34706.622        -796.081          38.750  
G11  23880476.901       81466.434        2029.901          44.000  
G17  21526156.307      -88081.630       -2304.225          50.750  
G19  21948167.266     -117308.235       -3158.576          43.000  
G22  23386820.473       29542.211         829.570          47.500  
G28  21108647.553       12783.655         383.327          47.500  
> 2018  4 22 11 21 38.4688020  0  7                     
G 1  23220413.224       87361.582        2021.453          48.750  
G 3  21827628.979      -34786.237        -794.827          38.750  
G11  23882347.024       81669.407        2029.748          43.750  
G17  21527943.525      -88312.022       -2304.497          50.750  
G19  21949940.872     -117624.051       -3159.068          42.750  
G22  23388668.822       29625.185         829.694          47.750  
G28  21110485.084       12821.940         382.603          47.750  
> 2018  4 22 11 21 38.5688020  0  7                     
G 1  23222284.057       87563.694        2021.127          48.750  
G 3  21829444.425      -34865.902        -796.893          38.750  
G11  23884216.406       81872.323        2028.950          44.000  
G17  21529730.954      -88542.457       -2304.445          50.750  
G19  21951711.721     -117939.919       -3158.772          43.000  
G22  23390515.406       29708.109         829.374          47.750  
G28  21112326.351       12860.185         381.975          47.750  
> 2018  4 22 11 21 38.6688020  0  7                     
G 1  23224154.272       87765.812        2021.015          48.750  
G 3  21831261.309      -34945.554        -796.408          38.750  
G11  23886087.847       82075.272        2029.723          44.000  
G17  21531518.256      -88772.879       -2304.520          50.750  
G19  21953482.956     -118255.770       -3157.962          42.750  
G22  23392363.177       29791.047         830.022          47.750  
G28  21114164.225       12898.454         383.200          47.500  
> 2018  4 22 11 21 38.7688020  0  7                     
G 1  23226024.718       87967.888        2020.593          48.500  
G 3  21833077.901      -35025.232        -797.048          38.750  
G11  23887957.796       82278.176        2029.775          43.500  
G17  21533306.012      -89003.332       -2304.355          50.750  
G19  21955253.969     -118571.656       -3159.185          43.000  
G22  23394210.492       29873.951         829.425          47.750  
G28  21116002.954       12936.683         382.281          47.500  
> 2018  4 22 11 21 38.8688020  0  7                     
G 1  23227894.215       88169.990        2021.642          48.500  
G 3  21834893.904      -35104.874        -795.380          38.250  
G11  23889829.031       82481.089        2029.198          43.750  
G17  21535094.232      -89233.783       -2304.523          50.750  
G19  21957025.626     -118887.525       -3158.687          42.500  
G22  23396057.423       29956.878         829.286          47.500  
G28  21117842.400       12974.921         382.795          47.750  
> 2018  4 22 11 21 38.9688020  0  7                     
G 1  23229763.801       88372.071        2021.607          48.500  
G 3  21836711.170      -35184.557        -795.697          38.500  
G11  23891698.493       82683.994        2029.834          44.000  
G17  21536881.428      -89464.236       -2303.928          50.750  
G19  21958798.855     -119203.427       -3158.928          43.000  
G22  23397904.899       30039.786         829.233          47.750  
G28  21119680.278       13013.170         383.148          47.750  
> 2018  4 22 11 21 39.0688020  0  7                     
G 1  23231633.893       88574.215        2021.518          48.250  
G 3  21838527.727      -35264.158        -796.011          38.750  
G11  23893568.691       82886.962        2030.016          43.750  
G17  21538669.931      -89694.629       -2303.726          50.750  
G19  21960571.701     -119519.241       -3158.373          42.750  
G22  23399753.472       30122.768         829.660          47.750  
G28  21121520.093       13051.469         383.119          47.500  
> 2018  4 22 11 21 39.1688020  0  7                     
G 1  23233503.756       88776.393        2022.277          48.500  
G 3  21840344.684      -35343.719        -795.090          38.500  
G11  23895439.029       83089.942        2029.609          43.750  
G17  21540457.621      -89924.984       -2302.986          50.750  
G19  21962343.888     -119835.044       -3157.372          43.000  
G22  23401601.281       30205.791         830.248          47.750  
G28  21123357.454       13089.808         383.846          47.750  
> 2018  4 22 11 21 39.2688020  0  7                     
G 1  23235373.575       88978.644        2022.399          48.500  
G 3  21842160.322      -35423.191        -795.608          38.250  
G11  23897308.583       83293.041        2030.008          43.750  
G17  21542245.627      -90155.264       -2302.707          50.750  
G19  21964113.240     -120150.741       -3156.628          43.250  
G22  23403448.560       30288.894         831.309          47.750  
G28  21125196.602       13128.238         384.047          47.500  
> 2018  4 22 11 21 39.3688020  0  7                     
G 1  23237243.478       89180.991        2024.594          48.500  
G 3  21843977.571      -35502.554        -789.961          38.000  
G11  23899178.649       83496.196        2033.180          44.000  
G17  21544033.711      -90385.462       -2300.795          50.750  
G19  21965885.216     -120466.375       -3154.237          43.250  
G22  23405295.530       30372.083         832.903          47.750  
G28  21127036.345       13166.750         385.907          47.500  
> 2018  4 22 11 21 39.4688020  0  7                     
G 1  23239113.999       89383.346        2023.638          48.500  
G 3  21845791.571      -35581.915        -793.641          38.500  
G11  23901049.300       83699.377        2031.303          44.000  
G17  21545821.583      -90615.640       -2302.301          50.750  
G19  21967656.356     -120781.991       -3156.865          43.250  
G22  23407142.081       30455.291         832.219          47.750  
G28  21128873.462       13205.295         385.268          47.750  
> 2018  4 22 11 21 39.5688020  0  7                     
G 1  23240984.082       89585.672        2022.998          48.500  
G 3  21847606.622      -35661.325        -794.843          38.750  
G11  23902919.109       83902.515        2031.644          44.000  
G17  21547609.217      -90845.857       -2302.894          50.750  
G19  21969428.361     -121097.627       -3156.706          42.750  
G22  23408989.642       30538.466         831.711          47.750  
G28  21130713.647       13243.791         384.650          47.750  
> 2018  4 22 11 21 39.6688020  0  7                     
G 1  23242854.629       89787.973        2024.088          48.750  
G 3  21849422.942      -35740.741        -794.259          38.750  
G11  23904789.977       84105.636        2032.030          44.000  
G17  21549396.403      -91076.098       -2302.482          50.750  
G19  21971199.596     -121413.304       -3157.365          42.750  
G22  23410836.710       30621.613         830.931          47.750  
G28  21132552.169       13282.264         384.614          47.750  
> 2018  4 22 11 21 39.7688020  0  7                     
G 1  23244723.694       89990.240        2022.985          48.500  
G 3  21851239.623      -35820.175        -794.182          38.000  
G11  23906660.377       84308.728        2030.750          44.250  
G17  21551183.983      -91306.358       -2302.790          50.750  
G19  21972972.793     -121729.001       -3157.737          43.000  
G22  23412684.402       30704.747         830.958          47.500  
G28  21134390.992       13320.727         384.063          47.500  
> 2018  4 22 11 21 39.8688020  0  7                     
G 1  23246593.675       90192.525        2023.134          48.750  
G 3  21853058.172      -35899.565        -793.806          38.750  
G11  23908530.980       84511.825        2030.871          44.000  
G17  21552971.711      -91536.598       -2302.557          50.500  
G19  21974743.448     -122044.674       -3157.437          43.000  
G22  23414532.546       30787.902         831.304          47.750  
G28  21136231.418       13359.208         384.795          47.750  
> 2018  4 22 11 21 39.9688020  0  7                     
G 1  23248463.765       90394.767        2022.297          48.500  
G 3  21854874.679      -35979.038        -795.196          38.000  
G11  23910400.932       84714.887        2031.184          43.750  
G17  21554759.299      -91766.886       -2303.113          50.750  
G19  21976513.737     -122360.383       -3157.176          42.750  
G22  23416381.143       30871.027         831.228          47.500  
G28  21138068.486       13397.660         384.268          47.750  
> 2018  4 22 11 21 40.0688020  0  7                     
G 1  23250333.659       90597.022        2021.933          48.500  
G 3  21856690.543      -36058.464        -793.667          38.750  
G11  23912271.067       84917.964        2029.794          44.000  
G17  21556547.392      -91997.165       -2302.768          50.750  
G19  21978285.055     -122676.081       -3156.602          42.750  
G22  23418228.642       30954.145         831.000          47.750  
G28  21139908.890       13436.106         384.404          47.500  
> 2018  4 22 11 21 40.1688020  0  7                     
G 1  23252203.550       90799.277        2023.196          48.750  
G 3  21858507.279      -36137.906        -795.184          38.500  
G11  23914142.239       85121.032        2029.812          44.000  
G17  21558335.323      -92227.446       -2303.236          50.750  
G19  21980056.196     -122991.800       -3157.585          43.250  
G22  23420074.566       31037.275         830.588          47.750  
G28  21141747.117       13474.561         384.440          47.500  
> 2018  4 22 11 21 40.2688020  0  7                     
G 1  23254073.235       91001.470        2021.919          48.750  
G 3  21860324.367      -36217.393        -795.553          38.250  
G11  23916012.423       85324.049        2030.990          44.250  
G17  21560122.671      -92457.781       -2303.982          50.750  
G19  21981826.843     -123307.554       -3157.450          43.000  
G22  23421921.651       31120.357         831.936          47.750  
G28  21143586.144       13512.970         384.019          47.750  
> 2018  4 22 11 21 40.3688020  0  7                     
G 1  23255943.308       91203.632        2021.260          48.500  
G 3  21862139.494      -36296.900        -793.598          39.000  
G11  23917882.847       85527.034        2029.943          44.000  
G17  21561910.846      -92688.134       -2303.682          50.750  
G19  21983598.633     -123623.343       -3157.515          42.750  
G22  23423769.100       31203.402         830.599          47.750  
G28  21145426.318       13551.351         383.676          47.750  
> 2018  4 22 11 21 40.4688020  0  7                     
G 1  23257813.875       91405.779        2021.769          48.750  
G 3  21863955.540      -36376.417        -793.964          38.500  
G11  23919753.396       85729.981        2030.403          44.000  
G17  21563698.656      -92918.534       -2304.210          50.750  
G19  21985369.840     -123939.170       -3158.474          42.750  
G22  23425615.910       31286.432         830.696          47.750  
G28  21147263.387       13589.707         383.594          47.500  
> 2018  4 22 11 21 40.5688020  0  7                     
G 1  23259684.458       91607.925        2021.276          48.500  
G 3  21865771.490      -36455.935        -794.907          38.250  
G11  23921623.887       85932.951        2028.713          44.250  
G17  21565486.536      -93148.903       -2304.544          50.750  
G19  21987141.291     -124254.968       -3157.408          43.250  
G22  23427463.106       31369.475         829.879          47.750  
G28  21149103.377       13628.086         383.806          47.750  
> 2018  4 22 11 21 40.6688020  0  7                     
G 1  23261554.799       91810.044        2021.108          48.500  
G 3  21867589.035      -36535.453        -795.473          38.000  
G11  23923493.517       86135.878        2029.416          43.750  
G17  21567274.403      -93379.312       -2304.702          50.500  
G19  21988913.036     -124570.829       -3159.473          43.000  
G22  23429310.732       31452.497         829.967          47.750  
G28  21150941.804       13666.433         383.296          47.500  
> 2018  4 22 11 21 40.7688020  0  7                     
G 1  23263425.003       92012.167        2021.383          48.750  
G 3  21869405.146      -36614.972        -794.432          38.000  
G11  23925363.716       86338.839        2029.235          44.250  
G17  21569062.225      -93609.710       -2304.435          50.750  
G19  21990684.952     -124886.625       -3158.188          43.000  
G22  23431158.271       31535.526         829.650          47.750  
G28  21152780.262       13704.797         383.298          47.750  
> 2018  4 22 11 21 40.8688020  0  7                     
G 1  23265294.348       92214.252        2021.134          48.750  
G 3  21871220.542      -36694.546        -796.215          38.000  
G11  23927233.861       86541.721        2027.713          44.250  
G17  21570849.843      -93840.158       -2304.750          50.500  
G19  21992457.760     -125202.497       -3159.352          42.750  
G22  23433004.618       31618.512         830.597          47.500  
G28  21154619.833       13743.106         382.653          47.500  
> 2018  4 22 11 21 40.9688020  0  7                     
G 1  23267164.359       92416.336        2020.648          48.500  
G 3  21873037.248      -36774.113        -796.411          38.000  
G11  23929104.918       86744.625        2028.662          44.000  
G17  21572637.265      -94070.604       -2305.114          50.750  
G19  21994228.922     -125518.391       -3160.729          43.000  
G22  23434851.981       31701.488         829.784          47.750  
G28  21156457.671       13781.429         383.155          47.500  
> 2018  4 22 11 21 41.0688020  0  7                     
G 1  23269035.060       92618.402        2021.174          48.500  
G 3  21874853.572      -36853.682        -795.250          38.250  
G11  23930975.145       86947.507        2029.353          43.750  
G17  21574425.058      -94301.050       -2304.479          50.500  
G19  21995999.491     -125834.255       -3158.667          42.750  
G22  23436699.944       31784.467         830.149          48.000  
G28  21158298.198       13819.748         383.165          47.500  
> 2018  4 22 11 21 41.1688020  0  7                     
G 1  23270904.875       92820.472        2020.495          48.750  
G 3  21876669.344      -36933.203        -796.232          38.250  
G11  23932844.715       87150.400        2028.564          44.250  
G17  21576212.972      -94531.503       -2305.092          50.750  
G19  21997771.620     -126150.126       -3159.136          43.000  
G22  23438547.441       31867.454         829.772          47.750  
G28  21160136.460       13858.066         383.084          47.500  
> 2018  4 22 11 21 41.2688020  0  7                     
G 1  23272775.103       93022.525        2021.237          48.750  
G 3  21878484.916      -37012.768        -794.251          38.250  
G11  23934714.288       87353.276        2028.579          44.000  
G17  21578000.813      -94761.964       -2304.628          50.750  
G19  21999544.214     -126466.017       -3159.017          42.750  
G22  23440394.664       31950.438         829.600          48.000  
G28  21161974.979       13896.377         383.162          47.750  
> 2018  4 22 11 21 41.3688020  0  7                     
G 1  23274645.181       93224.560        2020.424          48.750  
G 3  21880299.786      -37092.347        -796.326          38.000  
G11  23936584.377       87556.120        2028.680          44.000  
G17  21579789.006      -94992.447       -2304.910          50.500  
G19  22001315.045     -126781.940       -3159.406          42.750  
G22  23442242.741       32033.384         829.247          47.750  
G28  21163815.142       13934.666         383.053          47.750  
> 2018  4 22 11 21 41.4688020  0  7                     
G 1  23276514.464       93426.567        2020.064          48.750  
G 3  21882116.792      -37171.942        -794.582          38.500  
G11  23938454.546       87758.952        2029.187          44.250  
G17  21581576.542      -95222.953       -2304.661          50.750  
G19  22003086.490     -127097.875       -3159.396          42.500  
G22  23444090.280       32116.331         829.729          48.000  
G28  21165653.070       13972.936         382.632          47.500  
> 2018  4 22 11 21 41.5688020  0  7                     
G 1  23278384.160       93628.614        2020.250          48.750  
G 3  21883936.993      -37251.517        -796.345          38.500  
G11  23940324.739       87961.795        2028.972          44.250  
G17  21583364.436      -95453.438       -2305.203          50.750  
G19  22004858.575     -127413.781       -3160.180          43.000  
G22  23445937.256       32199.303         829.664          47.750  
G28  21167493.805       14011.236         382.647          47.500  
> 2018  4 22 11 21 41.6688020  0  7                     
G 1  23280254.713       93830.635        2020.355          48.500  
G 3  21885754.423      -37331.114        -795.989          38.500  
G11  23942195.332       88164.628        2028.045          44.500  
G17  21585151.984      -95683.930       -2305.401          50.750  
G19  22006629.707     -127729.696       -3159.041          43.250  
G22  23447784.779       32282.262         829.723          48.000  
G28  21169331.381       14049.540         382.921          47.500  
> 2018  4 22 11 21 41.7688020  0  7                     
G 1  23282125.007       94032.661        2020.447          48.500  
G 3  21887572.201      -37410.665        -797.110          38.250  
G11  23944066.155       88367.478        2028.817          44.250  
G17  21586938.731      -95914.426       -2304.828          50.750  
G19  22008400.517     -128045.621       -3159.524          42.750  
G22  23449632.452       32365.216         830.104          48.000  
G28  21171169.541       14087.835         383.065          47.500  
> 2018  4 22 11 21 41.8688020  0  7                     
G 1  23283995.255       94234.691        2020.082          48.500  
G 3  21889389.020      -37490.209        -794.089          38.500  
G11  23945936.040       88570.325        2029.157          44.250  
G17  21588726.553      -96144.910       -2304.495          50.500  
G19  22010172.421     -128361.530       -3159.253          43.000  
G22  23451479.517       32448.189         829.812          48.000  
G28  21173009.500       14126.147         383.258          47.750  
> 2018  4 22 11 21 41.9688020  0  7                     
G 1  23285865.237       94436.775        2020.941          48.500  
G 3  21891203.061      -37569.716        -795.635          38.000  
G11  23947805.778       88773.214        2028.698          44.250  
G17  21590513.571      -96375.352       -2304.720          50.500  
G19  22011944.735     -128677.378       -3157.305          43.000  
G22  23453327.590       32531.206         830.133          47.750  
G28  21174847.734       14164.505         383.513          47.750  
> 2018  4 22 11 21 42.0688020  0  7                     
G 1  23287735.633       94638.868        2021.558          48.500  
G 3  21893019.561      -37649.212        -795.117          38.500  
G11  23949676.234       88976.243        2075.677          44.250  
G17  21592301.368      -96605.775       -2304.457          50.500  
G19  22013715.539     -128993.231       -3157.933          43.000  
G22  23455175.204       32614.258         831.040          47.750  
G28  21176687.764       14202.880         383.815          47.500  
> 2018  4 22 11 21 42.1688020  0  7                     
G 1  23289605.399       94840.892        2020.129          48.500  
G 3  21894837.078      -37728.728        -794.300          38.500  
G11  23951546.850       89178.977        2040.485          44.500  
G17  21594089.172      -96836.252       -2304.847          50.500  
G19  22015487.005     -129309.142       -3159.630          43.000  
G22  23457022.064       32697.231         829.448          47.750  
G28  21178525.113       14241.202         383.026          47.500  
> 2018  4 22 11 21 42.2688020  0  7                     
G 1  23291475.321       95042.986        2020.587          48.500  
G 3  21896653.047      -37808.202        -794.676          38.500  
G11  23953415.656       89381.860        2028.508          44.250  
G17  21595876.628      -97066.685       -2304.969          50.500  
G19  22017258.896     -129625.000       -3158.789          43.000  
G22  23458868.727       32780.283         831.003          48.000  
G28  21180362.942       14279.593         383.379          47.500  
> 2018  4 22 11 21 42.3688020  0  7                     
G 1  23293345.243       95245.056        2020.698          48.750  
G 3  21898468.434      -37887.704        -795.497          38.250  
G11  23955286.417       89584.754        2029.144          44.500  
G17  21597664.415      -97297.118       -2304.187          50.500  
G19  22019029.248     -129940.864       -3158.582          42.750  
G22  23460716.084       32863.315         830.415          47.750  
G28  21182203.639       14317.965         384.056          47.500  
> 2018  4 22 11 21 42.4688020  0  7                     
G 1  23295215.371       95447.153        2020.781          48.750  
G 3  21900284.677      -37967.168        -795.715          38.250  
G11  23957156.215       89787.666        2029.071          44.500  
G17  21599451.802      -97527.531       -2304.179          50.500  
G19  22020800.409     -130256.707       -3158.706          43.000  
G22  23462563.626       32946.375         830.645          47.500  
G28  21184041.034       14356.373         383.888          47.750  
> 2018  4 22 11 21 42.5688020  0  7                     
G 1  23297085.028       95649.258        2021.472          48.500  
G 3  21902101.006      -38046.599        -796.366          38.250  
G11  23959026.151       89990.576        2028.998          44.250  
G17  21601238.836      -97757.945       -2303.701          50.500  
G19  22022572.267     -130572.542       -3158.231          43.000  
G22  23464411.139       33029.437         830.661          48.000  
G28  21185880.425       14394.773         383.933          47.500  
> 2018  4 22 11 21 42.6688020  0  7                     
G 1  23298955.308       95851.346        2021.557          48.750  
G 3  21903919.636      -38126.042        -793.459          38.000  
G11  23960896.297       90193.499        2030.202          44.500  
G17  21603026.539      -97988.352       -2303.405          50.500  
G19  22024343.721     -130888.363       -3157.448          43.000  
G22  23466258.830       33112.513         831.361          47.750  
G28  21187719.214       14433.183         385.335          47.750  
> 2018  4 22 11 21 42.7688020  0  7                     
G 1  23300825.071       96053.468        2020.851          48.500  
G 3  21905735.558      -38205.473        -794.147          37.750  
G11  23962767.136       90396.410        2029.164          44.250  
G17  21604813.912      -98218.757       -2304.111          50.250  
G19  22026115.080     -131204.190       -3157.265          43.000  
G22  23468106.042       33195.589         830.755          47.500  
G28  21189557.592       14471.612         385.223          47.500  
> 2018  4 22 11 21 42.8688020  0  7                     
G 1  23302695.500       96255.598        2021.237          48.500  
G 3  21907552.477      -38284.877        -792.680          38.250  
G11  23964637.682       90599.353        2028.642          44.500  
G17  21606602.482      -98449.127       -2304.176          50.500  
G19  22027886.217     -131519.998       -3158.675          42.750  
G22  23469953.144       33278.712         830.896          47.750  
G28  21191397.707       14510.048         383.601          47.500  
> 2018  4 22 11 21 42.9688020  0  7                     
G 1  23304565.180       96457.742        2021.116          48.750  
G 3  21909369.677      -38364.242        -795.310          38.250  
G11  23966507.885       90802.290        2028.729          44.500  
G17  21608390.050      -98679.496       -2304.067          50.500  
G19  22029658.333     -131835.790       -3158.435          42.750  
G22  23471799.851       33361.833         831.405          47.750  
G28  21193235.407       14548.519         384.281          47.750  
> 2018  4 22 11 21 43.0688020  0  7                     
G 1  23306435.135       96659.865        2021.453          48.500  
G 3  21911185.816      -38443.641        -793.535          38.000  
G11  23968377.488       91005.240        2030.049          44.500  
G17  21610177.820      -98909.879       -2303.650          50.500  
G19  22031429.772     -132151.589       -3157.078          42.750  
G22  23473646.739       33444.942         831.599          47.750  
G28  21195075.188       14586.977         385.280          47.750  
> 2018  4 22 11 21 43.1688020  0  7                     
G 1  23308304.832       96862.010        2021.540          48.500  
G 3  21913001.221      -38523.005        -794.199          38.250  
G11  23970247.188       91208.195        2030.343          44.500  
G17  21611965.676      -99140.245       -2303.804          50.500  
G19  22033201.893     -132467.371       -3158.449          43.000  
G22  23475494.476       33528.076         831.551          48.000  
G28  21196914.089       14625.451         384.765          47.500  
> 2018  4 22 11 21 43.2688020  0  7                     
G 1  23310174.702       97064.101        2020.859          48.750  
G 3  21914817.225      -38602.446        -793.741          38.000  
G11  23972117.605       91411.111        2029.852          44.500  
G17  21613753.294      -99370.648       -2303.749          50.500  
G19  22034974.049     -132783.194       -3158.201          43.500  
G22  23477341.563       33611.172         831.713          48.000  
G28  21198752.987       14663.883         384.491          47.750  
> 2018  4 22 11 21 43.3688020  0  7                     
G 1  23312044.607       97266.174        2021.208          48.500  
G 3  21916634.175      -38681.859        -794.195          38.250  
G11  23973988.471       91613.979        2028.922          44.500  
G17  21615541.208      -99601.081       -2304.188          50.500  
G19  22036745.949     -133099.069       -3159.701          43.000  
G22  23479188.970       33694.234         830.404          48.000  
G28  21200593.042       14702.304         384.221          47.750  
> 2018  4 22 11 21 43.4688020  0  7                     
G 1  23313914.474       97468.188        2020.489          48.750  
G 3  21918450.793      -38761.338        -794.801          38.500  
G11  23975858.946       91816.805        2028.406          44.750  
G17  21617328.889      -99831.577       -2305.640          50.500  
G19  22038515.661     -133414.973       -3158.747          43.000  
G22  23481037.355       33777.246         830.256          47.750  
G28  21202430.214       14740.651         383.045          47.500  
> 2018  4 22 11 21 43.5688020  0  7                     
G 1  23315784.193       97670.124        2019.172          48.750  
G 3  21920267.434      -38840.910        -795.776          38.250  
G11  23977729.177       92019.544        2026.890          44.500  
G17  21619116.080     -100062.155       -2306.503          50.500  
G19  22040286.784     -133730.973       -3159.767          43.000  
G22  23482884.962       33860.185         829.059          48.000  
G28  21204270.838       14778.930         382.350          47.500  
> 2018  4 22 11 21 43.6688020  0  7                     
G 1  23317653.955       97871.960        2017.755          48.500  
G 3  21922082.473      -38920.547        -795.981          38.250  
G11  23979599.970       92222.186        2025.873          44.500  
G17  21620903.264     -100292.819       -2307.427          50.500  
G19  22042058.873     -134047.070       -3161.867          42.750  
G22  23484731.167       33943.018         827.359          47.750  
G28  21206108.042       14817.125         382.023          47.500  
> 2018  4 22 11 21 43.7688020  0  7                     
G 1  23319523.791       98073.686        2017.600          48.500  
G 3  21923897.545      -39000.309        -797.251          38.250  
G11  23981468.798       92424.723        2025.301          44.500  
G17  21622690.605     -100523.592       -2308.076          50.500  
G19  22043829.271     -134363.263       -3162.045          43.000  
G22  23486579.553       34025.770         827.551          47.750  
G28  21207947.029       14855.209         380.277          47.500  
> 2018  4 22 11 21 43.8688020  0  7                     
G 1  23321394.666       98275.379        2017.162          48.500  
G 3  21925714.268      -39080.088        -799.029          37.750  
G11  23983338.526       92627.224        2024.770          44.750  
G17  21624478.039     -100754.394       -2308.516          50.500  
G19  22045600.448     -134679.496       -3162.981          42.750  
G22  23488425.995       34108.474         826.525          47.750  
G28  21209787.033       14893.256         380.987          47.500  
> 2018  4 22 11 21 43.9688020  0  7                     
G 1  23323264.128       98477.046        2017.469          48.500  
G 3  21927531.497      -39159.888        -797.468          38.250  
G11  23985207.981       92829.707        2025.031          44.500  
G17  21626265.586     -100985.225       -2307.773          50.500  
G19  22047373.012     -134995.731       -3161.397          43.000  
G22  23490273.274       34191.158         827.422          47.750  
G28  21211624.569       14931.302         380.648          47.500  
> 2018  4 22 11 21 44.0688020  0  7                     
G 1  23325133.639       98678.846        2018.526          48.500  
G 3  21929346.409      -39239.545        -796.763          37.750  
G11  23987077.709       93032.320        2027.344          44.250  
G17  21628053.190     -101215.928       -2306.455          50.250  
G19  22049143.780     -135311.859       -3161.196          43.000  
G22  23492121.178       34273.983         828.945          47.750  
G28  21213464.412       14969.469         382.230          47.750  
> 2018  4 22 11 21 44.1688020  0  7                     
G 1  23327003.984       98880.759        2019.943          48.250  
G 3  21931165.090      -39319.103        -794.466          38.250  
G11  23988947.984       93235.027        2027.756          44.250  
G17  21629840.910     -101446.511       -2305.528          50.500  
G19  22050915.720     -135627.858       -3159.594          43.000  
G22  23493968.580       34356.922         829.982          48.000  
G28  21215302.581       15007.755         383.808          47.250  
> 2018  4 22 11 21 44.2688020  0  7                     
G 1  23328873.757       99082.747        2020.241          48.250  
G 3  21932983.196      -39398.555        -795.436          38.000  
G11  23990817.344       93437.842        2028.994          44.750  
G17  21631628.621     -101677.017       -2305.140          50.500  
G19  22052686.033     -135943.787       -3158.637          43.250  
G22  23495815.811       34439.944         830.100          48.000  
G28  21217141.445       15046.120         383.728          47.500  
> 2018  4 22 11 21 44.3688020  0  7                     
G 1  23330743.264       99284.805        2020.293          48.500  
G 3  21934798.667      -39477.955        -794.360          38.000  
G11  23992687.450       93640.706        2029.074          44.500  
G17  21633416.590     -101907.457       -2304.303          50.250  
G19  22054458.506     -136259.658       -3159.429          43.000  
G22  23497662.444       34523.042         831.335          48.000  
G28  21218981.458       15084.561         384.501          47.750  
> 2018  4 22 11 21 44.4688020  0  7                     
G 1  23332613.749       99486.843        2020.947          48.250  
G 3  21936613.739      -39557.335        -794.047          38.000  
G11  23994558.225       93843.546        2028.519          44.750  
G17  21635204.796     -102137.918       -2304.518          50.500  
G19  22056228.503     -136575.532       -3159.373          43.000  
G22  23499508.921       34606.115         831.137          47.750  
G28  21220818.826       15122.993         384.942          47.500  
> 2018  4 22 11 21 44.5688020  0  7                     
G 1  23334483.625       99688.860        2020.548          48.750  
G 3  21938430.137      -39636.766        -795.270          38.250  
G11  23996428.534       94046.381        2028.873          44.750  
G17  21636992.433     -102368.397       -2304.833          50.500  
G19  22057999.401     -136891.441       -3159.011          43.000  
G22  23501355.815       34689.188         831.253          48.000  
G28  21222659.759       15161.398         384.502          47.750  
> 2018  4 22 11 21 44.6688020  0  7                     
G 1  23336354.092       99890.842        2020.300          48.500  
G 3  21940247.602      -39716.195        -794.014          37.750  
G11  23998298.751       94249.161        2027.883          44.500  
G17  21638780.001     -102598.909       -2305.425          50.250  
G19  22059771.367     -137207.375       -3159.580          42.750  
G22  23503203.444       34772.210         830.463          48.000  
G28  21224497.807       15199.783         383.709          47.500  
> 2018  4 22 11 21 44.7688020  0  7                     
G 1  23338224.669      100092.797        2019.122          48.500  
G 3  21942064.848      -39795.702        -796.459          38.000  
G11  24000168.928       94451.912        2027.214          44.750  
G17  21640567.487     -102829.455       -2306.160          50.250  
G19  22061543.611     -137523.336       -3160.979          43.000  
G22  23505051.654       34855.201         830.020          48.000  
G28  21226337.097       15238.117         383.055          47.500  
> 2018  4 22 11 21 44.8688020  0  7                     
G 1  23340094.411      100294.678        2018.807          48.500  
G 3  21943880.825      -39875.205        -796.162          38.000  
G11  24002038.216       94654.608        2026.563          44.500  
G17  21642355.737     -103060.058       -2306.245          50.500  
G19  22063315.001     -137839.367       -3160.524          43.000  
G22  23506899.564       34938.139         829.156          48.000  
G28  21228176.710       15276.404         382.119          47.500  
> 2018  4 22 11 21 44.9688020  0  7                     
G 1  23341964.498      100496.550        2018.052          48.500  
G 3  21945696.807      -39954.743        -795.440          38.250  
G11  24003908.426       94857.297        2027.284          44.750  
G17  21644142.894     -103290.681       -2306.797          50.500  
G19  22065085.888     -138155.396       -3160.394          42.750  
G22  23508748.041       35021.080         828.721          47.750  
G28  21230013.797       15314.695         382.733          47.500  
> 2018  4 22 11 21 45.0688020  0  7                     
G 1  23343834.752      100698.386        2018.601          48.500  
G 3  21947513.404      -40034.351        -795.662          37.500  
G11  24005779.301       95059.932        2026.487          44.750  
G17  21645930.663     -103521.337       -2306.908          50.500  
G19  22066858.180     -138471.484       -3161.331          43.250  
G22  23510595.575       35103.963         828.245          47.750  
G28  21231853.911       15352.939         382.466          47.750  
> 2018  4 22 11 21 45.1688020  0  7                     
G 1  23345704.284      100900.166        2017.828          48.250  
G 3  21949329.125      -40113.932        -795.406          38.000  
G11  24007648.480       95262.520        2026.439          44.500  
G17  21647718.682     -103752.047       -2307.531          50.250  
G19  22068629.182     -138787.600       -3161.540          42.750  
G22  23512442.164       35186.815         828.384          48.000  
G28  21233692.268       15391.140         383.220          47.500  
> 2018  4 22 11 21 45.2688020  0  7                     
G 1  23347573.815      101101.916        2017.001          48.500  
G 3  21951144.343      -40193.596        -796.668          37.750  
G11  24009519.385       95465.075        2025.045          45.000  
G17  21649506.327     -103982.793       -2307.929          50.250  
G19  22070399.530     -139103.764       -3162.326          43.250  
G22  23514288.956       35269.634         828.215          47.750  
G28  21235530.089       15429.304         381.194          47.750  
> 2018  4 22 11 21 45.3688020  0  7                     
G 1  23349443.751      101303.672        2018.014          48.250  
G 3  21952960.493      -40273.220        -795.102          38.250  
G11  24011389.542       95667.631        2025.620          44.750  
G17  21651293.707     -104213.509       -2307.416          50.500  
G19  22072172.477     -139419.913       -3160.824          43.000  
G22  23516136.647       35352.452         827.842          48.000  
G28  21237370.194       15467.494         382.494          47.500  
> 2018  4 22 11 21 45.4688020  0  7                     
G 1  23351312.974      101505.399        2017.710          48.250  
G 3  21954777.111      -40352.893        -798.299          37.500  
G11  24013259.682       95870.173        2026.101          44.500  
G17  21653081.257     -104444.277       -2307.954          50.250  
G19  22073943.707     -139736.083       -3162.267          42.750  
G22  23517984.690       35435.268         828.465          47.500  
G28  21239207.728       15505.647         382.251          47.250  
> 2018  4 22 11 21 45.5688020  0  7                     
G 1  23353183.075      101707.149        2017.128          48.000  
G 3  21956595.627      -40432.522        -796.287          37.750  
G11  24015130.151       96072.719        2025.218          44.750  
G17  21654868.728     -104675.015       -2307.483          50.500  
G19  22075715.049     -140052.247       -3161.742          43.000  
G22  23519831.732       35518.092         827.785          48.000  
G28  21241046.144       15543.832         382.026          47.500  
> 2018  4 22 11 21 45.6688020  0  7                     
G 1  23355053.129      101908.884        2017.032          48.500  
G 3  21958415.187      -40512.160        -796.314          37.750  
G11  24017000.836       96275.252        2025.210          44.750  
G17  21656656.460     -104905.776       -2308.111          50.500  
G19  22077487.747     -140368.431       -3161.653          43.000  
G22  23521679.071       35600.899         827.931          48.000  
G28  21242884.645       15581.989         381.204          47.750  
> 2018  4 22 11 21 45.7688020  0  7                     
G 1  23356922.939      102110.552        2016.849          48.500  
G 3  21960231.381      -40591.859        -797.677          37.500  
G11  24018871.361       96477.726        2024.554          44.750  
G17  21658443.840     -105136.592       -2308.044          50.250  
G19  22079258.570     -140684.668       -3162.360          43.250  
G22  23523526.451       35683.663         827.170          48.000  
G28  21244722.010       15620.105         380.867          47.500  
> 2018  4 22 11 21 45.8688020  0  7                     
G 1  23358792.792      102312.210        2017.340          48.000  
G 3  21962045.830      -40671.579        -800.008          37.750  
G11  24020741.623       96680.197        2025.564          45.000  
G17  21660232.148     -105367.417       -2308.389          50.500  
G19  22081030.824     -141000.912       -3162.998          42.750  
G22  23525373.835       35766.414         827.779          48.000  
G28  21246562.949       15658.211         381.364          47.750  
> 2018  4 22 11 21 45.9688020  0  7                     
G 1  23360662.793      102513.925        2017.465          48.250  
G 3  21963861.060      -40751.188        -795.946          37.750  
G11  24022611.087       96882.709        2025.227          45.000  
G17  21662020.198     -105598.196       -2307.683          50.500  
G19  22082801.275     -141317.105       -3161.423          43.000  
G22  23527220.738       35849.212         828.456          48.250  
G28  21248400.760       15696.372         381.851          47.500  
> 2018  4 22 11 21 46.0688020  0  7                     
G 1  23362533.290      102715.649        2017.632          48.250  
G 3  21965677.662      -40830.859        -796.385          37.500  
G11  24024481.315       97085.239        2025.968          45.000  
G17  21663807.376     -105828.944       -2307.335          50.250  
G19  22084572.212     -141633.270       -3161.167          43.000  
G22  23529068.576       35932.041         828.718          48.000  
G28  21250240.479       15734.545         382.403          47.500  
> 2018  4 22 11 21 46.1688020  0  7                     
G 1  23364403.167      102917.437        2018.064          48.250  
G 3  21967494.447      -40910.416        -795.852          38.000  
G11  24026352.040       97287.830        2025.647          45.000  
G17  21665595.150     -106059.645       -2306.472          50.500  
G19  22086344.110     -141949.378       -3160.399          43.250  
G22  23530916.446       36014.922         829.313          48.000  
G28  21252080.136       15772.792         382.939          47.750  
> 2018  4 22 11 21 46.2688020  0  7                     
G 1  23366273.238      103119.298        2019.090          48.250  
G 3  21969312.927      -40989.872        -792.480          37.500  
G11  24028221.694       97490.507        2028.029          45.000  
G17  21667382.411     -106290.261       -2305.790          50.250  
G19  22088115.465     -142265.437       -3159.339          43.500  
G22  23532763.590       36097.900         830.975          47.750  
G28  21253918.669       15811.121         384.602          47.500  
> 2018  4 22 11 21 46.3688020  0  7                     
G 1  23368143.538      103321.188        2019.443          47.750  
G 3  21971128.117      -41069.305        -793.206          38.000  
G11  24030092.988       97693.189        2027.395          44.500  
G17  21669170.299     -106520.848       -2305.507          50.250  
G19  22089887.093     -142581.415       -3158.583          42.500  
G22  23534610.581       36180.896         829.861          48.000  
G28  21255759.471       15849.470         384.052          47.250  
> 2018  4 22 11 21 46.4688020  0  7                     
G 1  23370012.761      103523.112        2019.411          48.250  
G 3  21972944.753      -41148.682        -792.780          38.000  
G11  24031963.422       97895.919        2027.284          44.750  
G17  21670958.117     -106751.398       -2305.288          50.250  
G19  22091658.658     -142897.398       -3158.570          43.000  
G22  23536458.435       36263.951         830.314          48.250  
G28  21257596.724       15887.877         383.962          47.500  
> 2018  4 22 11 21 46.5688020  0  7                     
G 1  23371882.930      103725.084        2019.658          48.250  
G 3  21974760.577      -41228.062        -792.663          37.500  
G11  24033833.522       98098.703        2027.304          44.750  
G17  21672745.547     -106981.912       -2305.045          50.000  
G19  22093429.865     -143213.311       -3157.806          43.000  
G22  23538305.843       36347.034         830.891          47.750  
G28  21259435.447       15926.323         384.782          47.250  
> 2018  4 22 11 21 46.6688020  0  7                     
G 1  23373751.812      103927.040        2019.751          48.000  
G 3  21976576.192      -41307.434        -792.946          38.250  
G11  24035703.693       98301.460        2028.286          44.750  
G17  21674533.366     -107212.436       -2305.352          50.500  
G19  22095200.700     -143529.254       -3158.848          42.500  
G22  23540153.290       36430.105         831.007          48.000  
G28  21261273.976       15964.749         384.708          47.250  
> 2018  4 22 11 21 46.7688020  0  7                     
G 1  23375622.029      104128.926        2017.822          48.000  
G 3  21978392.080      -41386.837        -795.403          37.250  
G11  24037573.709       98504.151        2026.524          44.500  
G17  21676321.003     -107443.024       -2306.414          50.000  
G19  22096971.673     -143845.274       -3162.275          42.750  
G22  23542000.224       36513.129         830.446          47.750  
G28  21263112.260       16003.126         383.360          47.250  
> 2018  4 22 11 21 46.8688020  0  7                     
G 1  23377492.418      104330.696        2017.949          48.000  
G 3  21980206.952      -41466.398        -795.187          37.750  
G11  24039443.500       98706.713        2024.626          45.000  
G17  21678108.507     -107673.742       -2307.356          50.250  
G19  22098743.016     -144161.403       -3162.593          42.750  
G22  23543847.169       36596.005         828.523          48.000  
G28  21264953.210       16041.369         382.228          47.250  
> 2018  4 22 11 21 46.9688020  0  7                     
G 1  23379363.119      104532.368        2016.185          48.000  
G 3  21982023.710      -41546.010        -795.566          37.500  
G11  24041313.146       98909.177        2023.742          45.000  
G17  21679896.464     -107904.558       -2308.851          50.250  
G19  22100513.897     -144477.631       -3163.926          43.000  
G22  23545694.725       36678.806         827.255          48.000  
G28  21266790.253       16079.536         381.247          47.500  
> 2018  4 22 11 21 47.0688020  0  7                     
G 1  23381233.289      104734.001        2016.768          48.250  
G 3  21983841.256      -41625.669        -795.428          38.000  
G11  24043183.406       99111.629        2025.400          45.000  
G17  21681684.384     -108135.399       -2307.812          50.500  
G19  22102286.165     -144793.893       -3162.830          43.000  
G22  23547542.164       36761.576         828.300          48.000  
G28  21268629.350       16117.663         382.026          47.500  
> 2018  4 22 11 21 47.1688020  0  7                     
G 1  23383103.720      104935.665        2017.627          48.250  
G 3  21985658.126      -41705.345        -797.105          37.750  
G11  24045053.124       99314.085        2024.247          45.000  
G17  21683472.180     -108366.214       -2308.453          50.250  
G19  22104057.485     -145110.131       -3163.806          43.250  
G22  23549389.139       36844.363         827.618          48.000  
G28  21270468.914       16155.808         381.044          47.500  
> 2018  4 22 11 21 47.2688020  0  7                     
G 1  23384973.674      105137.311        2017.080          48.250  
G 3  21987475.657      -41784.945        -795.829          38.000  
G11  24046923.986       99516.529        2025.349          45.250  
G17  21685259.619     -108597.040       -2308.282          50.500  
G19  22105828.398     -145426.355       -3162.256          43.000  
G22  23551236.632       36927.159         828.122          48.000  
G28  21272306.907       16193.967         381.686          47.500  
> 2018  4 22 11 21 47.3688020  0  7                     
G 1  23386843.655      105339.084        2017.793          48.000  
G 3  21989289.796      -41864.456        -795.270          37.250  
G11  24048793.316       99719.098        2025.457          45.250  
G17  21687047.495     -108827.739       -2307.030          50.250  
G19  22107600.571     -145742.470       -3161.786          43.250  
G22  23553083.659       37010.082         829.711          48.250  
G28  21274146.735       16232.249         382.546          47.500  
> 2018  4 22 11 21 47.4688020  0  7                     
G 1  23388713.368      105540.885        2018.267          48.000  
G 3  21991107.078      -41943.924        -794.631          37.750  
G11  24050664.098       99921.699        2026.686          45.250  
G17  21688834.816     -109058.413       -2307.248          50.250  
G19  22109371.863     -146058.552       -3160.908          43.000  
G22  23554930.723       37093.027         829.103          48.250  
G28  21275983.737       16270.564         383.134          47.500  
> 2018  4 22 11 21 47.5688020  0  7                     
G 1  23390582.564      105742.749        2018.637          48.000  
G 3  21992924.169      -42023.316        -794.855          37.500  
G11  24052533.776      100124.379        2027.289          45.000  
G17  21690621.932     -109289.015       -2305.904          50.250  
G19  22111143.896     -146374.554       -3160.084          42.750  
G22  23556779.201       37176.053         829.927          48.000  
G28  21277823.042       16308.947         383.746          47.500  
> 2018  4 22 11 21 47.6688020  0  7                     
G 1  23392452.158      105944.632        2018.756          48.000  
G 3  21994740.417      -42102.728        -793.333          38.000  
G11  24054404.055      100327.048        2026.303          45.250  
G17  21692409.986     -109519.601       -2305.101          50.250  
G19  22112915.155     -146690.577       -3159.676          43.000  
G22  23558626.750       37259.085         830.579          47.750  
G28  21279662.790       16347.342         384.352          47.500  
> 2018  4 22 11 21 47.7688020  0  7                     
G 1  23394322.193      106146.601        2020.515          48.000  
G 3  21996558.041      -42182.001        -792.774          37.250  
G11  24056274.985      100529.820        2028.221          45.000  
G17  21694197.524     -109750.123       -2305.255          50.250  
G19  22114686.295     -147006.507       -3160.120          43.000  
G22  23560474.360       37342.216         832.122          48.000  
G28  21281500.970       16385.831         385.365          47.500  
> 2018  4 22 11 21 47.8688020  0  7                     
G 1  23396192.288      106348.607        2021.599          48.250  
G 3  21998373.640      -42261.228        -789.739          38.000  
G11  24058144.629      100732.639        2029.607          45.250  
G17  21695985.407     -109980.577       -2303.908          50.250  
G19  22116458.338     -147322.382       -3158.807          43.000  
G22  23562321.374       37425.401         833.352          48.000  
G28  21283341.312       16424.375         387.147          47.500  
> 2018  4 22 11 21 47.9688020  0  7                     
G 1  23398062.854      106550.789        2022.275          48.000  
G 3  22000190.722      -42340.298        -789.592          37.750  
G11  24060015.844      100935.604        2030.338          45.250  
G17  21697773.416     -110210.868       -2302.944          50.500  
G19  22118229.688     -147638.091       -3156.746          43.000  
G22  23564168.721       37508.739         833.520          48.000  
G28  21285180.112       16463.085         387.232          47.500  
> 2018  4 22 11 21 48.0688020  0  7                     
G 1  23399933.749      106752.999        2022.473          48.250  
G 3  22002006.454      -42419.336        -791.547          37.750  
G11  24061886.764      101138.623        2030.744          45.250  
G17  21699560.984     -110441.121       -2302.972          50.250  
G19  22120000.261     -147953.742       -3156.284          43.000  
G22  23566015.696       37591.961         797.922          48.000  
G28  21287020.051       16501.826         386.887          47.500  
> 2018  4 22 11 21 48.1688020  0  7                     
G 1  23401803.042      106955.138        2021.286          48.250  
G 3  22003822.460      -42498.434        -790.971          37.750  
G11  24063756.825      101341.545        2028.871          45.250  
G17  21701348.895     -110671.445       -2303.816          50.250  
G19  22121771.492     -148269.488       -3158.599          43.000  
G22  23567862.988       37675.577         839.045          48.000  
G28  21288858.517       16540.513         387.054          47.500  
> 2018  4 22 11 21 48.2688020  0  7                     
G 1  23403673.221      107157.181        2020.523          48.250  
G 3  22005639.795      -42577.614        -790.358          37.750  
G11  24065626.286      101544.410        2029.272          45.250  
G17  21703137.315     -110901.881       -2304.935          50.250  
G19  22123542.971     -148585.321       -3158.738          43.000  
G22  23569710.197       37758.668         832.382          48.250  
G28  21290696.846       16579.102         384.990          47.500  
> 2018  4 22 11 21 48.3688020  0  7                     
G 1  23405543.531      107359.139        2020.075          48.500  
G 3  22007456.630      -42656.897        -793.270          37.750  
G11  24067497.072      101747.155        2027.292          45.500  
G17  21704924.939     -111132.393       -2305.623          50.250  
G19  22125314.217     -148901.250       -3159.548          43.250  
G22  23571557.758       37841.797         830.573          48.000  
G28  21292537.481       16617.607         384.922          47.750  
> 2018  4 22 11 21 48.4688020  0  7                     
G 1  23407414.224      107561.020        2019.092          48.250  
G 3  22009272.671      -42736.247        -793.437          37.750  
G11  24069367.053      101949.829        2027.731          45.250  
G17  21706712.552     -111362.978       -2306.122          50.500  
G19  22127085.061     -149217.249       -3160.319          43.000  
G22  23573405.691       37924.875         831.046          48.000  
G28  21294374.862       16656.044         384.485          47.250  
> 2018  4 22 11 21 48.5688020  0  7                     
G 1  23409283.640      107762.900        2018.705          48.000  
G 3  22011090.598      -42815.550        -791.666          38.000  
G11  24071237.282      102152.508        2026.213          45.500  
G17  21708499.905     -111593.558       -2306.207          50.500  
G19  22128857.278     -149533.235       -3161.045          42.750  
G22  23575252.963       38007.948         830.790          48.250  
G28  21296213.406       16694.489         384.664          47.500  
> 2018  4 22 11 21 48.6688020  0  7                     
G 1  23411153.511      107964.711        2018.005          48.250  
G 3  22012907.410      -42894.941        -792.326          37.500  
G11  24073107.321      102355.118        2025.870          45.500  
G17  21710287.753     -111824.200       -2306.140          50.250  
G19  22130629.507     -149849.296       -3160.720          43.500  
G22  23577101.108       38090.945         830.541          48.000  
G28  21298052.673       16732.856         384.186          47.250  
> 2018  4 22 11 21 48.7688020  0  7                     
G 1  23413022.759      108166.505        2018.038          48.250  
G 3  22014724.233      -42974.365        -793.254          38.250  
G11  24074977.785      102557.710        2025.812          45.500  
G17  21712075.694     -112054.872       -2306.926          50.250  
G19  22132401.546     -150165.380       -3159.651          43.250  
G22  23578947.460       38173.949         829.717          48.250  
G28  21299890.830       16771.222         383.821          47.250  
> 2018  4 22 11 21 48.8688020  0  7                     
G 1  23414892.693      108368.270        2017.909          48.250  
G 3  22016540.335      -43053.790        -793.397          37.750  
G11  24076847.275      102760.272        2026.011          45.500  
G17  21713862.809     -112285.576       -2307.084          50.500  
G19  22134174.144     -150481.507       -3161.429          43.250  
G22  23580795.084       38256.910         829.640          48.250  
G28  21301731.504       16809.550         383.561          47.500  
> 2018  4 22 11 21 48.9688020  0  7                     
G 1  23416763.181      108570.058        2018.237          48.250  
G 3  22018358.685      -43133.187        -795.339          38.000  
G11  24078716.890      102962.839        2025.859          45.250  
G17  21715650.761     -112516.262       -2307.292          50.250  
G19  22135946.394     -150797.609       -3161.055          43.500  
G22  23582641.729       38339.894         829.465          48.250  
G28  21303569.113       16847.894         383.148          47.750  
> 2018  4 22 11 21 49.0688020  0  7                     
G 1  23418632.729      108771.789        2017.911          48.250  
G 3  22020174.776      -43212.638        -794.876          37.750  
G11  24080586.997      103165.381        2026.075          45.250  
G17  21717438.157     -112746.980       -2307.119          50.500  
G19  22137715.863     -151113.740       -3161.651          43.250  
G22  23584488.902       38422.845         829.669          48.000  
G28  21305408.766       16886.220         383.230          47.500  
> 2018  4 22 11 21 49.1688020  0  7                     
G 1  23420503.256      108973.578        2018.125          48.000  
G 3  22021990.761      -43292.033        -793.084          38.000  
G11  24082456.374      103367.950        2025.491          45.000  
G17  21719226.070     -112977.658       -2307.061          50.250  
G19  22139487.688     -151429.817       -3161.098          43.000  
G22  23586336.000       38505.846         830.119          48.000  
G28  21307247.412       16924.592         383.474          47.250  
> 2018  4 22 11 21 49.2688020  0  7                     
G 1  23422372.895      109175.349        2016.977          48.000  
G 3  22023807.107      -43371.412        -793.222          38.250  
G11  24084326.100      103570.522        2025.930          45.500  
G17  21721013.710     -113208.342       -2307.605          50.500  
G19  22141259.816     -151745.916       -3162.147          43.000  
G22  23588183.579       38588.835         829.479          48.000  
G28  21309085.542       16962.944         383.076          47.500  
> 2018  4 22 11 21 49.3688020  0  7                     
G 1  23424243.052      109377.129        2018.648          48.250  
G 3  22025623.774      -43450.841        -795.229          38.000  
G11  24086195.895      103773.095        2025.308          45.250  
G17  21722801.236     -113439.024       -2306.536          50.500  
G19  22143031.056     -152061.989       -3161.010          43.500  
G22  23590031.641       38671.835         830.239          48.000  
G28  21310926.057       17001.320         383.575          47.500  
> 2018  4 22 11 21 49.4688020  0  7                     
G 1  23426112.314      109578.990        2019.384          48.250  
G 3  22027441.093      -43530.126        -792.804          37.750  
G11  24088066.277      103975.752        2028.356          45.250  
G17  21724589.117     -113669.623       -2305.135          50.250  
G19  22144801.430     -152378.006       -3159.143          43.250  
G22  23591878.544       38754.925         831.852          48.000  
G28  21312763.177       17039.778         385.858          47.500  
> 2018  4 22 11 21 49.5688020  0  7                     
G 1  23427982.864      109781.099        2021.759          48.000  
G 3  22029256.866      -43609.167        -789.088          37.500  
G11  24089936.636      104178.659        2029.652          45.000  
G17  21726376.501     -113899.972       -2302.544          50.000  
G19  22146573.097     -152693.773       -3156.947          43.000  
G22  23593725.875       38838.263         834.946          47.750  
G28  21314602.247       17078.478         387.132          47.250  
> 2018  4 22 11 21 49.6688020  0  7                     
G 1  23429852.467      109983.353        2023.702          48.000  
G 3  22031071.263      -43688.059        -787.769          38.000  
G11  24091806.710      104381.703        2030.417          44.750  
G17  21728164.647     -114130.165       -2301.344          50.250  
G19  22148343.522     -153009.376       -3155.009          42.500  
G22  23595573.104       38921.742         835.868          48.250  
G28  21316440.687       17117.343         389.534          47.000  
> 2018  4 22 11 21 49.7688020  0  7                     
G 1  23431722.891      110185.702        2023.527          48.250  
G 3  22032888.301      -43766.857        -790.506          37.250  
G11  24093677.342      104584.842        2031.484          45.250  
G17  21729952.314     -114360.284       -2302.025          50.000  
G19  22150114.893     -153324.914       -3156.014          43.250  
G22  23597420.619       39005.322         835.646          47.750  
G28  21318279.519       17156.294         388.626          47.500  
> 2018  4 22 11 21 49.8688020  0  7                     
G 1  23433592.991      110387.855        2020.401          48.000  
G 3  22034705.338      -43845.839        -789.929          38.000  
G11  24095547.453      104787.789        2027.736          45.000  
G17  21731740.157     -114590.585       -2304.228          50.250  
G19  22151886.326     -153640.598       -3157.433          43.250  
G22  23599268.155       39088.730         832.758          48.000  
G28  21320120.062       17195.069         387.009          47.250  
> 2018  4 22 11 21 49.9688020  0  7                     
G 1  23435463.027      110589.838        2019.593          48.000  
G 3  22036519.947      -43924.994        -792.053          37.500  
G11  24097416.922      104990.581        2026.615          45.250  
G17  21733528.141     -114821.043       -2304.925          50.500  
G19  22153658.599     -153956.499       -3160.302          42.750  
G22  23601115.700       39171.956         831.968          48.250  
G28  21321956.965       17233.678         385.690          47.500  
> 2018  4 22 11 21 50.0688020  0  7                     
G 1  23437333.358      110791.726        2019.470          48.250  
G 3  22038336.707      -44004.230        -792.567          38.000  
G11  24099286.836      105193.261        2027.262          45.250  
G17  21735315.768     -115051.618       -2305.609          50.500  
G19  22155430.543     -154272.474       -3159.637          43.250  
G22  23602963.249       39255.089         831.579          48.250  
G28  21323796.664       17272.173         385.288          47.500  
> 2018  4 22 11 21 50.1688020  0  7                     
G 1  23439203.241      110993.758        2021.986          48.250  
G 3  22040154.599      -44083.334        -789.530          38.000  
G11  24101156.887      105396.083        2029.847          45.000  
G17  21737104.081     -115282.035       -2302.166          50.250  
G19  22157201.969     -154588.287       -3157.083          43.500  
G22  23604811.427       39338.365         833.982          48.000  
G28  21325635.987       17310.838         388.485          47.500  
> 2018  4 22 11 21 50.2688020  0  7                     
G 1  23441073.971      111196.078        2023.777          48.000  
G 3  22041970.662      -44162.123        -786.959          37.750  
G11  24103027.471      105599.195        2031.990          45.250  
G17  21738891.858     -115512.177       -2300.799          50.250  
G19  22158973.079     -154903.832       -3154.565          43.250  
G22  23606658.144       39421.939         836.260          48.000  
G28  21327474.067       17349.786         390.608          47.250  
> 2018  4 22 11 21 50.3688020  0  7                     
G 1  23442944.393      111398.410        2023.362          48.250  
G 3  22043786.133      -44240.895        -788.573          38.000  
G11  24104898.180      105802.325        2032.079          45.000  
G17  21740679.658     -115742.300       -2301.310          50.250  
G19  22160744.964     -155219.371       -3156.229          43.250  
G22  23608505.415       39505.530         835.873          48.250  
G28  21329315.118       17388.747         390.314          47.500  
> 2018  4 22 11 21 50.4688020  0  7                     
G 1  23444814.254      111600.724        2022.695          48.250  
G 3  22045602.278      -44319.674        -788.482          37.500  
G11  24106768.409      106005.429        2031.067          45.000  
G17  21742467.330     -115972.426       -2301.703          50.500  
G19  22162517.273     -155534.904       -3156.002          43.500  
G22  23610352.686       39589.113         835.919          48.250  
G28  21331151.746       17427.710         389.656          47.500  
> 2018  4 22 11 21 50.5688020  0  7                     
G 1  23446683.819      111802.976        2023.317          48.000  
G 3  22047418.701      -44398.529        -788.865          38.250  
G11  24108638.788      106208.469        2030.832          45.000  
G17  21744254.443     -116202.618       -2301.370          50.500  
G19  22164288.812     -155850.506       -3154.847          43.250  
G22  23612200.264       39672.623         836.018          48.250  
G28  21332990.760       17466.598         389.953          47.500  
> 2018  4 22 11 21 50.6688020  0  7                     
G 1  23448554.568      112005.295        2022.878          48.250  
G 3  22049234.998      -44477.308        -786.697          37.750  
G11  24110508.763      106411.582        2031.409          45.000  
G17  21746042.837     -116432.758       -2301.580          50.250  
G19  22166060.324     -156166.054       -3155.916          43.250  
G22  23614047.976       39756.211         836.155          48.250  
G28  21334829.919       17505.553         389.413          47.250  
> 2018  4 22 11 21 50.7688020  0  7                     
G 1  23450424.556      112207.594        2022.879          48.250  
G 3  22051053.289      -44556.102        -788.379          37.750  
G11  24112379.033      106614.672        2031.374          45.250  
G17  21747830.568     -116662.906       -2301.923          50.500  
G19  22167831.603     -156481.606       -3155.785          43.000  
G22  23615895.992       39839.790         836.018          48.500  
G28  21336668.197       17544.514         389.293          47.500  
> 2018  4 22 11 21 50.8688020  0  7                     
G 1  23452294.159      112409.843        2022.129          48.250  
G 3  22052870.458      -44634.929        -788.126          38.250  
G11  24114248.972      106817.723        2030.454          45.250  
G17  21749617.924     -116893.100       -2302.649          50.500  
G19  22169603.534     -156797.222       -3157.211          43.250  
G22  23617743.747       39923.310         834.602          48.250  
G28  21338509.385       17583.409         388.939          47.500  
> 2018  4 22 11 21 50.9688020  0  7                     
G 1  23454164.283      112611.927        2020.140          48.000  
G 3  22054685.470      -44713.919        -789.385          37.250  
G11  24116119.702      107020.583        2027.840          44.500  
G17  21751405.784     -117123.469       -2304.281          49.750  
G19  22171374.515     -157113.006       -3160.365          43.000  
G22  23619591.091       40006.667         832.600          47.750  
G28  21340346.630       17622.147         386.779          47.250  
> 2018  4 22 11 21 51.0688020  0  7                     
G 1  23456034.113      112813.827        2019.006          47.750  
G 3  22056501.067      -44793.097        -791.685          37.750  
G11  24117988.660      107223.275        2025.864          44.500  
G17  21753193.163     -117354.015       -2306.256          49.750  
G19  22173145.939     -157428.942       -3161.007          42.750  
G22  23621437.610       40089.850         830.947          48.000  
G28  21342186.632       17660.706         384.798          47.000  
> 2018  4 22 11 21 51.1688020  0  7                     
G 1  23457904.196      113015.650        2018.338          48.000  
G 3  22058319.193      -44872.343        -791.167          38.500  
G11  24119858.955      107425.893        2026.612          45.000  
G17  21754980.525     -117584.637       -2305.746          50.250  
G19  22174918.188     -157744.960       -3159.986          43.250  
G22  23623284.772       40172.972         831.766          48.500  
G28  21344025.871       17699.196         385.804          47.250  
> 2018  4 22 11 21 51.2688020  0  7                     
G 1  23459773.673      113217.487        2018.701          48.250  
G 3  22060137.175      -44951.569        -791.306          37.750  
G11  24121728.891      107628.510        2026.281          45.000  
G17  21756768.837     -117815.250       -2306.051          50.250  
G19  22176689.170     -158060.975       -3160.682          43.500  
G22  23625132.866       40256.087         831.649          48.250  
G28  21345864.450       17737.700         384.487          47.500  
> 2018  4 22 11 21 51.3688020  0  7                     
G 1  23461644.619      113419.326        2017.984          48.000  
G 3  22061954.664      -45030.762        -792.303          37.750  
G11  24123599.389      107831.159        2026.448          44.750  
G17  21758556.598     -118045.843       -2305.590          50.250  
G19  22178459.952     -158376.986       -3161.090          43.250  
G22  23626980.238       40339.236         832.064          48.250  
G28  21347705.294       17776.233         385.082          47.250  
> 2018  4 22 11 21 51.4688020  0  7                     
G 1  23463513.827      113621.158        2018.675          48.250  
G 3  22063768.490      -45109.987        -791.172          38.000  
G11  24125469.549      108033.775        2026.202          45.250  
G17  21760344.458     -118276.467       -2305.835          50.500  
G19  22180232.020     -158693.014       -3160.459          43.500  
G22  23628827.848       40422.369         832.057          48.250  
G28  21349542.399       17814.733         385.204          47.250  
> 2018  4 22 11 21 51.5688020  0  7                     
G 1  23465384.287      113823.017        2018.751          48.250  
G 3  22065585.038      -45189.184        -791.841          38.000  
G11  24127339.844      108236.414        2027.796          45.250  
G17  21762132.068     -118507.042       -2305.552          50.500  
G19  22182002.878     -159008.999       -3159.486          43.500  
G22  23630676.160       40505.524         831.470          48.500  
G28  21351382.348       17853.282         386.320          47.500  
> 2018  4 22 11 21 51.6688020  0  7                     
G 1  23467254.286      114024.810        2018.161          48.250  
G 3  22067403.276      -45268.411        -790.170          38.250  
G11  24129209.638      108439.004        2025.625          45.000  
G17  21763919.823     -118737.691       -2306.447          50.500  
G19  22183774.170     -159325.069       -3160.754          43.500  
G22  23632523.944       40588.634         831.202          48.250  
G28  21353220.499       17891.762         384.532          47.500  
> 2018  4 22 11 21 51.7688020  0  7                     
G 1  23469124.466      114226.561        2016.832          48.250  
G 3  22069220.635      -45347.707        -792.680          38.000  
G11  24131080.405      108641.539        2024.283          45.000  
G17  21765707.137     -118968.387       -2306.905          50.500  
G19  22185546.563     -159641.164       -3161.903          43.250  
G22  23634371.047       40671.683         830.202          48.500  
G28  21355058.373       17930.205         384.975          47.500  
> 2018  4 22 11 21 51.8688020  0  7                     
G 1  23470993.704      114428.259        2017.129          48.250  
G 3  22071035.784      -45427.050        -793.657          37.750  
G11  24132949.551      108844.034        2024.725          45.250  
G17  21767494.581     -119199.123       -2307.749          50.500  
G19  22187317.590     -159957.294       -3162.846          43.500  
G22  23636217.547       40754.697         830.294          48.000  
G28  21356899.171       17968.606         384.267          47.750  
> 2018  4 22 11 21 51.9688020  0  7                     
G 1  23472864.542      114629.991        2017.985          48.000  
G 3  22072851.545      -45506.328        -792.974          37.000  
G11  24134818.893      109046.562        2025.649          44.750  
G17  21769282.604     -119429.834       -2307.241          50.250  
G19  22189088.966     -160273.414       -3161.282          43.250  
G22  23638064.766       40837.748         830.544          48.250  
G28  21358737.057       18007.027         384.178          47.250  
> 2018  4 22 11 21 52.0688020  0  7                     
G 1  23474734.410      114831.744        2018.112          48.000  
G 3  22074667.161      -45585.587        -791.373          38.250  
G11  24136689.565      109249.087        2025.550          45.000  
G17  21771069.947     -119660.528       -2306.754          50.500  
G19  22190860.763     -160589.500       -3159.486          43.250  
G22  23639912.438       40920.805         831.238          48.250  
G28  21360577.313       18045.470         384.571          47.500  
> 2018  4 22 11 21 52.1688020  0  7                     
G 1  23476604.539      115033.580        2018.325          48.250  
G 3  22076484.817      -45664.760        -790.865          38.000  
G11  24138559.568      109451.722        2026.547          44.750  
G17  21772857.865     -119891.123       -2305.954          50.500  
G19  22192631.872     -160905.512       -3160.008          43.500  
G22  23641760.063       41003.976         831.698          48.250  
G28  21362414.767       18084.022         385.608          47.250  
> 2018  4 22 11 21 52.2688020  0  7                     
G 1  23478473.811      115235.423        2018.854          48.250  
G 3  22078300.588      -45743.904        -789.878          37.750  
G11  24140430.138      109654.347        2027.161          45.000  
G17  21774645.787     -120121.721       -2306.436          50.250  
G19  22194403.883     -161221.508       -3160.440          43.250  
G22  23643607.261       41087.151         832.077          48.250  
G28  21364253.164       18122.590         385.941          47.500  
> 2018  4 22 11 21 52.3688020  0  7                     
G 1  23480343.760      115437.432        2022.410          48.000  
G 3  22080118.140      -45822.925        -788.637          38.250  
G11  24142300.362      109857.147        2029.953          44.500  
G17  21776434.358     -120352.152       -2302.206          50.000  
G19  22196173.975     -161537.352       -3156.067          43.500  
G22  23645454.860       41170.496         835.742          48.000  
G28  21366093.771       18161.311         389.763          47.250  
> 2018  4 22 11 21 52.4688020  0  7                     
G 1  23482213.096      115639.854        2024.934          47.750  
G 3  22081934.744      -45901.475        -784.619          38.250  
G11  24144170.918      110060.353        2032.878          44.500  
G17  21778222.136     -120582.168       -2299.647          50.250  
G19  22197946.266     -161852.763       -3154.070          42.750  
G22  23647301.722       41254.247         838.635          48.250  
G28  21367930.490       18200.444         391.532          47.250  
> 2018  4 22 11 21 52.5688020  0  7                     
G 1  23484083.506      115842.221        2022.514          48.250  
G 3  22083751.585      -45980.118        -787.880          38.000  
G11  24146040.858      110263.512        2031.319          44.750  
G17  21780009.221     -120812.236       -2302.274          50.500  
G19  22199718.502     -162168.217       -3156.324          43.500  
G22  23649148.793       41337.960         836.725          48.500  
G28  21369770.834       18239.546         390.066          47.500  
> 2018  4 22 11 21 52.6688020  0  7                     
G 1  23485953.724      116044.282        2019.711          48.000  
G 3  22085569.366      -46059.042        -791.255          37.250  
G11  24147911.300      110466.356        2027.169          44.750  
G17  21781797.005     -121042.598       -2304.901          50.250  
G19  22201488.249     -162484.004       -3158.932          43.250  
G22  23650997.018       41421.355         832.838          48.000  
G28  21371609.815       18278.338         387.508          47.500  
> 2018  4 22 11 21 52.7688020  0  7                     
G 1  23487824.094      116246.164        2018.457          48.000  
G 3  22087388.427      -46138.104        -790.271          38.000  
G11  24149781.391      110669.019        2026.046          45.000  
G17  21783584.857     -121273.146       -2306.340          50.250  
G19  22203259.603     -162799.967       -3159.919          43.250  
G22  23652844.377       41504.593         831.461          48.000  
G28  21373448.235       18316.951         385.734          47.250  
> 2018  4 22 11 21 52.8688020  0  7                     
G 1  23489694.636      116447.904        2017.525          48.000  
G 3  22089202.835      -46217.370        -792.729          38.750  
G11  24151651.008      110871.548        2024.839          44.750  
G17  21785372.076     -121503.850       -2307.490          50.500  
G19  22205031.882     -163116.083       -3161.849          43.250  
G22  23654692.167       41587.672         830.416          48.250  
G28  21375288.544       18355.412         384.083          47.500  
> 2018  4 22 11 21 52.9688020  0  7                     
G 1  23491564.929      116649.561        2015.765          48.000  
G 3  22091019.318      -46296.639        -793.251          37.750  
G11  24153521.765      111073.992        2023.647          45.000  
G17  21787160.157     -121734.625       -2308.319          50.500  
G19  22206803.398     -163432.242       -3162.893          43.500  
G22  23656540.197       41670.693         829.845          48.500  
G28  21377126.040       18393.821         383.792          47.500  
> 2018  4 22 11 21 53.0688020  0  7                     
G 1  23493434.277      116851.194        2017.089          48.250  
G 3  22092838.311      -46375.978        -793.028          38.250  
G11  24155391.432      111276.425        2025.277          45.000  
G17  21788947.491     -121965.417       -2307.340          50.500  
G19  22208575.110     -163748.423       -3161.963          43.250  
G22  23658387.278       41753.688         830.672          48.500  
G28  21378966.144       18432.208         384.405          47.500  
> 2018  4 22 11 21 53.1688020  0  7                     
G 1  23495304.432      117052.889        2016.194          48.250  
G 3  22094653.753      -46455.263        -792.956          38.000  
G11  24157261.813      111478.890        2023.816          44.750  
G17  21790735.050     -122196.156       -2307.840          50.500  
G19  22210346.266     -164064.574       -3161.659          43.500  
G22  23660234.645       41836.742         830.488          48.250  
G28  21380804.189       18470.642         384.769          47.250  
> 2018  4 22 11 21 53.2688020  0  7                     
G 1  23497175.200      117254.610        2017.180          48.250  
G 3  22096469.607      -46534.487        -791.543          38.000  
G11  24159132.698      111681.406        2025.097          45.000  
G17  21792523.122     -122426.854       -2306.607          50.500  
G19  22212117.322     -164380.671       -3160.814          43.750  
G22  23662081.756       41919.840         830.674          48.500  
G28  21382642.553       18509.126         385.021          47.500  
> 2018  4 22 11 21 53.3688020  0  7                     
G 1  23499044.876      117456.369        2017.153          48.250  
G 3  22098288.202      -46613.666        -791.123          38.250  
G11  24161003.188      111883.946        2025.889          44.750  
G17  21794310.807     -122657.529       -2306.988          50.500  
G19  22213889.161     -164696.760       -3161.712          43.500  
G22  23663929.196       42002.959         831.302          48.500  
G28  21384483.536       18547.642         385.031          47.500  
> 2018  4 22 11 21 53.4688020  0  7                     
G 1  23500914.628      117658.146        2018.405          48.500  
G 3  22100103.888      -46692.820        -791.227          38.000  
G11  24162872.575      112086.517        2026.456          45.000  
G17  21796098.959     -122888.175       -2306.337          50.500  
G19  22215661.050     -165012.798       -3160.449          43.750  
G22  23665776.149       42086.115         831.839          48.500  
G28  21386321.498       18586.190         386.504          47.500  
> 2018  4 22 11 21 53.5688020  0  7                     
G 1  23502784.295      117859.907        2017.786          48.250  
G 3  22101920.047      -46771.998        -791.610          38.250  
G11  24164743.124      112289.062        2025.450          45.000  
G17  21797886.552     -123118.845       -2307.171          50.500  
G19  22217431.822     -165328.868       -3161.320          43.500  
G22  23667622.904       42169.249         830.961          48.500  
G28  21388160.598       18624.698         385.068          47.500  
> 2018  4 22 11 21 53.6688020  0  7                     
G 1  23504654.453      118061.594        2016.612          48.250  
G 3  22103735.503      -46851.231        -792.816          38.250  
G11  24166613.182      112491.544        2024.700          45.000  
G17  21799673.978     -123349.582       -2307.732          50.500  
G19  22219203.623     -165645.017       -3161.808          43.500  
G22  23669470.248       42252.316         830.648          48.250  
G28  21389999.055       18663.169         384.488          47.500  
> 2018  4 22 11 21 53.7688020  0  7                     
G 1  23506524.638      118263.228        2015.936          48.250  
G 3  22105550.676      -46930.512        -793.226          38.000  
G11  24168482.943      112693.972        2023.905          44.750  
G17  21801461.360     -123580.367       -2308.715          50.500  
G19  22220973.841     -165961.193       -3162.454          43.750  
G22  23671318.550       42335.338         829.698          48.500  
G28  21391838.023       18701.580         383.593          47.750  
> 2018  4 22 11 21 53.8688020  0  7                     
G 1  23508394.044      118464.779        2014.725          48.250  
G 3  22107367.364      -47009.866        -793.207          38.000  
G11  24170354.252      112896.288        2021.868          45.000  
G17  21803248.979     -123811.251       -2310.039          50.500  
G19  22222745.585     -166277.481       -3164.030          43.500  
G22  23673165.980       42418.278         828.574          48.250  
G28  21393677.692       18739.902         382.983          47.500  
> 2018  4 22 11 21 53.9688020  0  7                     
G 1  23510263.041      118666.222        2013.581          48.250  
G 3  22109184.723      -47089.350        -796.147          37.750  
G11  24172222.854      113098.529        2022.415          44.750  
G17  21805036.318     -124042.228       -2309.967          50.500  
G19  22224518.029     -166593.864       -3165.119          43.750  
G22  23675012.290       42501.106         827.873          48.250  
G28  21395515.106       18778.125         381.534          47.500  
> 2018  4 22 11 21 54.0688020  0  7                     
G 1  23512133.297      118867.606        2015.029          48.000  
G 3  22111000.543      -47168.870        -794.668          38.250  
G11  24174093.082      113300.725        2034.440          45.000  
G17  21806823.604     -124273.272       -2310.349          50.500  
G19  22226288.997     -166910.294       -3164.422          43.500  
G22  23676859.705       42583.885         828.096          48.250  
G28  21397355.718       18816.303         382.420          47.500  
> 2018  4 22 11 21 54.1688020  0  7                     
G 1  23514003.484      119068.973        2014.162          48.000  
G 3  22112816.439      -47248.402        -794.763          38.000  
G11  24175962.749      113502.342        1965.908          44.750  
G17  21808611.006     -124504.322       -2310.237          50.500  
G19  22228060.166     -167226.758       -3164.030          43.500  
G22  23678707.455       42666.654         828.430          48.500  
G28  21399193.467       18854.457         382.632          47.500  
> 2018  4 22 11 21 54.2688020  0  7                     
G 1  23515873.239      119270.397        2014.626          48.000  
G 3  22114632.617      -47327.873        -795.377          38.000  
G11  24177832.222      113705.055        2022.346          44.750  
G17  21810398.637     -124735.316       -2309.746          50.500  
G19  22229831.897     -167543.162       -3163.456          43.500  
G22  23680555.127       42749.486         828.281          48.500  
G28  21401031.720       18892.681         381.869          47.500  
> 2018  4 22 11 21 54.3688020  0  7                     
G 1  23517743.165      119471.910        2016.364          48.250  
G 3  22116449.374      -47407.218        -791.738          38.500  
G11  24179702.098      113907.335        2024.603          44.750  
G17  21812186.108     -124966.224       -2308.157          50.500  
G19  22231604.115     -167859.453       -3162.534          43.750  
G22  23682402.767       42832.410         830.484          48.250  
G28  21402871.884       18931.002         384.628          47.500  
> 2018  4 22 11 21 54.4688020  0  7                     
G 1  23519612.820      119673.559        2016.754          48.250  
G 3  22118265.483      -47486.452        -791.266          38.000  
G11  24181572.879      114109.776        2024.705          45.000  
G17  21813973.914     -125196.987       -2307.169          50.500  
G19  22233374.705     -168175.617       -3161.361          43.500  
G22  23684250.225       42915.467         831.446          48.500  
G28  21404709.348       18969.457         384.996          47.500  
> 2018  4 22 11 21 54.5688020  0  7                     
G 1  23521483.275      119875.257        2017.656          48.250  
G 3  22120082.441      -47565.657        -792.097          37.750  
G11  24183444.377      114312.266        2025.906          44.750  
G17  21815761.630     -125427.716       -2307.273          50.750  
G19  22235145.154     -168491.733       -3161.445          43.500  
G22  23686097.985       42998.584         831.769          48.500  
G28  21406549.174       19007.967         385.344          47.750  
> 2018  4 22 11 21 54.6688020  0  7                     
G 1  23523352.812      120077.002        2017.916          48.250  
G 3  22121900.363      -47644.759        -789.506          38.000  
G11  24185315.098      114514.787        2026.497          45.000  
G17  21817550.300     -125658.386       -2306.017          50.500  
G19  22236917.286     -168807.816       -3160.344          43.750  
G22  23687945.329       43081.746         832.386          48.500  
G28  21408387.432       19046.517         386.428          47.500  
> 2018  4 22 11 21 54.7688020  0  7                     
G 1  23525222.625      120278.785        2018.532          48.250  
G 3  22123716.799      -47723.857        -791.526          38.250  
G11  24187185.311      114717.341        2025.023          44.750  
G17  21819338.413     -125889.021       -2306.538          50.500  
G19  22238688.746     -169123.857       -3161.118          43.750  
G22  23689792.755       43164.942         832.231          48.250  
G28  21410226.139       19085.119         386.085          47.750  
> 2018  4 22 11 21 54.8688020  0  7                     
G 1  23527092.743      120480.528        2018.393          48.250  
G 3  22125532.469      -47802.978        -791.846          38.250  
G11  24189055.520      114919.867        2025.610          44.750  
G17  21821126.213     -126119.704       -2307.249          50.500  
G19  22240460.018     -169439.927       -3161.831          43.250  
G22  23691639.254       43248.113         832.453          48.500  
G28  21412066.459       19123.678         385.643          47.500  
> 2018  4 22 11 21 54.9688020  0  7                     
G 1  23528963.945      120682.241        2016.826          48.500  
G 3  22127352.256      -47882.112        -791.860          38.250  
G11  24190925.669      115122.359        2023.766          45.000  
G17  21822913.878     -126350.399       -2307.791          50.500  
G19  22242231.831     -169756.040       -3162.281          43.750  
G22  23693486.582       43331.252         830.625          48.500  
G28  21413904.465       19162.211         384.724          47.500  
> 2018  4 22 11 21 55.0688020  0  7                     
G 1  23530833.502      120883.865        2016.204          48.250  
G 3  22129168.205      -47961.344        -793.467          38.000  
G11  24192795.580      115324.767        2023.526          45.000  
G17  21824701.168     -126581.193       -2308.745          50.500  
G19  22244001.630     -170072.224       -3163.455          43.750  
G22  23695334.107       43414.317         830.284          48.500  
G28  21415744.164       19200.664         384.655          47.500  
> 2018  4 22 11 21 55.1688020  0  7                     
G 1  23532703.702      121085.368        2014.648          48.250  
G 3  22130984.142      -48040.680        -793.236          38.000  
G11  24194665.527      115527.052        2022.635          45.000  
G17  21826488.237     -126812.093       -2309.604          50.500  
G19  22245772.993     -170388.515       -3163.336          43.500  
G22  23697181.406       43497.259         828.750          48.500  
G28  21417582.082       19239.006         383.174          47.500  
> 2018  4 22 11 21 55.2688020  0  7                     
G 1  23534574.091      121286.797        2014.229          48.250  
G 3  22132800.052      -48120.078        -794.536          37.500  
G11  24196535.364      115729.274        2021.433          44.750  
G17  21828276.046     -127043.078       -2310.246          50.500  
G19  22247545.287     -170704.906       -3164.667          43.500  
G22  23699028.762       43580.133         828.529          48.250  
G28  21419421.127       19277.279         382.290          47.500  
> 2018  4 22 11 21 55.3688020  0  7                     
G 1  23536444.127      121488.241        2014.522          47.750  
G 3  22134617.234      -48199.441        -792.864          38.500  
G11  24198404.635      115931.488        2022.271          44.750  
G17  21830063.527     -127274.049       -2309.644          50.500  
G19  22249316.899     -171021.271       -3163.722          43.500  
G22  23700876.626       43663.018         829.231          48.500  
G28  21421260.927       19315.562         382.782          47.500  
> 2018  4 22 11 21 55.4688020  0  7                     
G 1  23538313.412      121689.751        2015.747          48.250  
G 3  22136432.494      -48278.798        -793.472          38.250  
G11  24200274.483      116133.774        2022.264          44.500  
G17  21831851.198     -127504.956       -2308.960          50.500  
G19  22251087.815     -171337.578       -3163.561          43.500  
G22  23702723.425       43745.974         828.993          48.500  
G28  21423097.789       19353.913         383.415          47.500  
> 2018  4 22 11 21 55.5688020  0  7                     
G 1  23540182.837      121891.259        2015.678          48.000  
G 3  22138248.953      -48358.080        -793.404          38.750  
G11  24202143.893      116336.059        2022.705          44.750  
G17  21833638.902     -127735.859       -2309.220          50.500  
G19  22252860.865     -171653.870       -3162.599          43.750  
G22  23704569.925       43828.932         829.806          48.500  
G28  21424938.392       19392.277         383.867          47.750  
> 2018  4 22 11 21 55.6688020  0  7                     
G 1  23542052.667      122092.858        2016.674          48.250  
G 3  22140065.054      -48437.285        -792.309          38.250  
G11  24204014.079      116538.440        2023.505          45.000  
G17  21835426.199     -127966.661       -2307.875          50.750  
G19  22254632.042     -171970.075       -3161.876          43.750  
G22  23706417.396       43911.992         831.327          48.500  
G28  21426776.758       19430.734         385.827          47.250  
> 2018  4 22 11 21 55.7688020  0  7                     
G 1  23543922.746      122294.522        2016.579          48.250  
G 3  22141881.343      -48516.463        -791.924          38.250  
G11  24205884.992      116740.894        2023.919          44.750  
G17  21837213.880     -128197.414       -2308.310          50.750  
G19  22256404.390     -172286.230       -3162.535          43.500  
G22  23708265.175       43995.109         830.643          48.500  
G28  21428615.266       19469.255         384.692          47.750  
> 2018  4 22 11 21 55.8688020  0  7                     
G 1  23545793.009      122496.148        2016.885          48.250  
G 3  22143699.066      -48595.618        -790.576          38.000  
G11  24207755.367      116943.306        2024.229          45.000  
G17  21839001.270     -128428.195       -2308.110          50.250  
G19  22258175.810     -172602.408       -3162.076          43.750  
G22  23710112.712       44078.206         831.303          48.250  
G28  21430455.382       19507.737         384.854          47.500  
> 2018  4 22 11 21 55.9688020  0  7                     
G 1  23547663.014      122697.807        2017.065          48.000  
G 3  22145515.600      -48674.764        -791.512          38.250  
G11  24209626.101      117145.743        2025.016          44.500  
G17  21840789.505     -128658.944       -2307.473          50.500  
G19  22259947.081     -172918.542       -3160.774          43.250  
G22  23711960.635       44161.332         831.282          48.500  
G28  21432292.590       19546.270         385.250          47.250  
> 2018  4 22 11 21 56.0688020  0  7                     
G 1  23549532.702      122899.414        2016.109          48.250  
G 3  22147333.639      -48753.951        -791.855          38.500  
G11  24211495.365      117348.131        2024.249          44.500  
G17  21842577.022     -128889.735       -2308.301          50.500  
G19  22261720.038     -173234.741       -3163.162          43.750  
G22  23713808.149       44244.414         830.978          48.500  
G28  21434133.075       19584.758         385.202          47.500  
> 2018  4 22 11 21 56.1688020  0  7                     
G 1  23551402.246      123100.976        2016.292          48.250  
G 3  22149148.839      -48833.165        -790.686          37.750  
G11  24213364.958      117550.466        2023.202          45.000  
G17  21844364.542     -129120.581       -2308.564          50.500  
G19  22263491.592     -173550.990       -3162.239          44.000  
G22  23715654.773       44327.455         830.307          48.750  
G28  21435972.201       19623.187         384.204          47.750  
> 2018  4 22 11 21 56.2688020  0  7                     
G 1  23553271.847      123302.524        2015.746          48.250  
G 3  22150964.743      -48912.408        -794.029          37.750  
G11  24215235.457      117752.788        2022.875          45.000  
G17  21846152.578     -129351.448       -2309.113          50.500  
G19  22265263.640     -173867.247       -3162.811          43.750  
G22  23717502.093       44410.463         830.598          48.250  
G28  21437811.001       19661.607         383.604          47.750  
> 2018  4 22 11 21 56.3688020  0  7                     
G 1  23555141.541      123503.997        2015.566          48.000  
G 3  22152781.037      -48991.696        -792.409          38.750  
G11  24217105.137      117955.042        2023.225          44.750  
G17  21847939.785     -129582.383       -2309.353          50.750  
G19  22267035.099     -174183.572       -3163.261          43.750  
G22  23719349.018       44493.418         829.304          48.500  
G28  21439650.765       19699.963         383.206          47.500  
> 2018  4 22 11 21 56.4688020  0  7                     
G 1  23557010.949      123705.454        2013.363          48.250  
G 3  22154598.485      -49071.002        -793.521          38.250  
G11  24218975.407      118157.291        2021.767          44.750  
G17  21849728.013     -129813.313       -2309.980          50.750  
G19  22268806.156     -174499.897       -3163.125          43.750  
G22  23721197.125       44576.376         829.652          48.500  
G28  21441488.049       19738.334         382.861          47.750  
> 2018  4 22 11 21 56.5688020  0  7                     
G 1  23558880.999      123906.821        2014.270          48.000  
G 3  22156413.735      -49150.395        -793.484          38.250  
G11  24220845.904      118359.431        2021.362          44.750  
G17  21851515.913     -130044.349       -2310.253          50.750  
G19  22270577.401     -174816.337       -3164.402          43.750  
G22  23723044.396       44659.226         829.395          48.500  
G28  21443327.405       19776.587         383.257          47.500  
> 2018  4 22 11 21 56.6688020  0  7                     
G 1  23560751.210      124108.140        2013.568          48.000  
G 3  22158231.700      -49229.848        -794.955          38.250  
G11  24222715.063      118561.514        2020.037          44.750  
G17  21853303.828     -130275.439       -2310.909          50.750  
G19  22272349.608     -175132.830       -3165.909          43.500  
G22  23724892.609       44742.038         827.868          48.500  
G28  21445165.094       19814.794         382.592          47.250  
> 2018  4 22 11 21 56.7688020  0  7                     
G 1  23562621.331      124309.400        2012.441          48.250  
G 3  22160047.421      -49309.343        -794.995          39.000  
G11  24224584.440      118763.560        2019.763          44.750  
G17  21855091.619     -130506.577       -2311.402          50.750  
G19  22274122.427     -175449.361       -3166.456          43.750  
G22  23726740.271       44824.792         826.850          48.500  
G28  21447003.859       19852.955         381.406          47.750  
> 2018  4 22 11 21 56.8688020  0  7                     
G 1  23564491.606      124510.587        2010.856          48.250  
G 3  22161863.693      -49388.905        -796.538          38.500  
G11  24226454.254      118965.509        2018.649          44.750  
G17  21856879.287     -130737.796       -2313.176          50.750  
G19  22275892.033     -175765.977       -3167.095          43.750  
G22  23728587.449       44907.482         825.983          48.750  
G28  21448843.998       19891.043         380.435          47.750  
> 2018  4 22 11 21 56.9688020  0  7                     
G 1  23566361.744      124711.719        2011.239          48.250  
G 3  22163681.055      -49468.502        -794.543          38.750  
G11  24228325.138      119167.438        2019.270          44.750  
G17  21858666.353     -130969.054       -2311.847          50.750  
G19  22277663.625     -176082.645       -3166.712          43.750  
G22  23730433.886       44990.118         827.212          48.750  
G28  21450681.546       19929.089         379.851          47.500  
> 2018  4 22 11 21 57.0688020  0  7                     
G 1  23568232.240      124912.840        2012.159          48.250  
G 3  22165497.047      -49548.129        -795.669          39.000  
G11  24230195.010      119369.319        2019.176          44.750  
G17  21860454.019     -131200.352       -2313.220          50.750  
G19  22279433.910     -176399.316       -3167.299          44.000  
G22  23732281.647       45072.734         826.435          48.750  
G28  21452521.722       19967.106         380.444          47.750  
> 2018  4 22 11 21 57.1688020  0  7                     
G 1  23570102.353      125113.857        2009.176          48.000  
G 3  22167312.198      -49627.846        -796.801          39.250  
G11  24232065.248      119571.140        2017.803          44.500  
G17  21862241.350     -131431.719       -2314.125          50.750  
G19  22281205.029     -176716.098       -3167.591          44.000  
G22  23734128.860       45155.274         825.072          48.750  
G28  21454360.066       20005.052         379.590          47.500  
> 2018  4 22 11 21 57.2688020  0  7                     
G 1  23571972.484      125314.870        2009.878          48.250  
G 3  22169130.220      -49707.550        -797.764          38.750  
G11  24233935.091      119772.902        2016.511          44.500  
G17  21864029.539     -131663.110       -2314.528          50.750  
G19  22282976.148     -177032.889       -3168.821          44.000  
G22  23735976.691       45237.800         824.336          48.500  
G28  21456198.428       20042.980         378.572          47.500  
> 2018  4 22 11 21 57.3688020  0  7                     
G 1  23573841.992      125515.847        2009.251          48.000  
G 3  22170948.673      -49787.311        -799.778          38.250  
G11  24235804.895      119974.669        2018.085          44.750  
G17  21865816.868     -131894.523       -2314.232          50.750  
G19  22284748.179     -177349.675       -3168.875          43.500  
G22  23737823.752       45320.298         824.843          48.750  
G28  21458038.378       20080.897         378.473          47.500  
> 2018  4 22 11 21 57.4688020  0  7                     
G 1  23575711.465      125716.773        2009.227          48.250  
G 3  22172766.066      -49867.074        -797.378          38.250  
G11  24237674.492      120176.366        2017.701          44.250  
G17  21867604.967     -132125.997       -2314.905          50.750  
G19  22286518.377     -177666.545       -3168.308          44.250  
G22  23739671.460       45402.742         823.954          48.750  
G28  21459875.272       20118.753         378.287          47.750  
> 2018  4 22 11 21 57.5688020  0  7                     
G 1  23577581.575      125917.699        2009.304          48.500  
G 3  22174581.450      -49946.857        -798.990          38.500  
G11  24239544.434      120378.057        2017.207          44.500  
G17  21869392.563     -132357.476       -2315.435          50.750  
G19  22288291.512     -177983.439       -3168.921          44.250  
G22  23741518.385       45485.199         824.672          48.750  
G28  21461714.987       20156.594         378.459          47.750  
> 2018  4 22 11 21 57.6688020  0  7                     
G 1  23579450.925      126118.605        2008.948          48.250  
G 3  22176396.971      -50026.644        -796.978          38.000  
G11  24241414.981      120579.743        2016.534          44.500  
G17  21871180.066     -132588.956       -2315.211          50.500  
G19  22290062.116     -178300.299       -3168.850          44.000  
G22  23743365.973       45567.633         824.324          48.250  
G28  21463553.712       20194.442         378.790          47.500  
> 2018  4 22 11 21 57.7688020  0  7                     
G 1  23581320.872      126319.531        2009.374          47.750  
G 3  22178213.212      -50106.424        -797.061          38.500  
G11  24243286.236      120781.456        2016.647          44.000  
G17  21872968.107     -132820.408       -2314.791          50.500  
G19  22291833.522     -178617.166       -3169.157          43.500  
G22  23745213.004       45650.108         824.829          48.250  
G28  21465392.844       20232.324         378.502          47.250  
> 2018  4 22 11 21 57.8688020  0  7                     
G 1  23583190.598      126520.477        2010.293          48.000  
G 3  22180029.382      -50186.184        -797.910          38.500  
G11  24245155.111      120983.170        2017.276          44.500  
G17  21874755.905     -133051.862       -2313.908          50.750  
G19  22293605.518     -178933.998       -3169.073          43.500  
G22  23747060.278       45732.574         825.655          48.500  
G28  21467232.966       20270.212         379.963          47.500  
> 2018  4 22 11 21 57.9688020  0  7                     
G 1  23585060.608      126721.432        2010.400          48.250  
G 3  22181847.107      -50265.890        -796.488          38.500  
G11  24247025.931      121184.889        2017.453          44.750  
G17  21876544.036     -133283.301       -2314.051          51.000  
G19  22295375.954     -179250.837       -3168.434          44.000  
G22  23748907.647       45815.069         825.082          48.750  
G28  21469069.393       20308.124         379.613          47.750  
> 2018  4 22 11 21 58.0688020  0  7                     
G 1  23586930.387      126922.420        2010.139          48.250  
G 3  22183663.178      -50345.591        -797.675          38.500  
G11  24248895.500      121386.667        2017.469          44.500  
G17  21878331.291     -133514.702       -2314.137          51.000  
G19  22297147.753     -179567.620       -3167.707          43.750  
G22  23750755.126       45897.606         824.651          48.750  
G28  21470908.600       20346.068         379.128          47.750  
> 2018  4 22 11 21 58.1688020  0  7                     
G 1  23588799.820      127123.462        2011.312          48.250  
G 3  22185479.359      -50425.208        -795.653          38.500  
G11  24250765.571      121588.483        2018.224          44.750  
G17  21880118.323     -133746.054       -2313.259          50.750  
G19  22298917.917     -179884.377       -3167.478          44.250  
G22  23752602.876       45980.205         826.595          48.750  
G28  21472748.737       20384.060         380.460          47.500  
> 2018  4 22 11 21 58.2688020  0  7                     
G 1  23590669.358      127324.518        2011.418          48.250  
G 3  22187295.239      -50504.837        -795.007          38.750  
G11  24252636.225      121790.313        2019.123          44.500  
G17  21881905.868     -133977.385       -2313.421          51.000  
G19  22300689.304     -180201.099       -3167.804          44.000  
G22  23754449.366       46062.803         826.792          48.750  
G28  21474586.970       20422.084         380.707          47.750  
> 2018  4 22 11 21 58.3688020  0  7                     
G 1  23592539.768      127525.634        2012.042          48.250  
G 3  22189112.110      -50584.390        -794.519          38.500  
G11  24254506.670      121992.196        2018.945          44.500  
G17  21883693.203     -134208.663       -2312.720          51.000  
G19  22302460.839     -180517.772       -3165.937          44.000  
G22  23756296.662       46145.479         827.046          48.500  
G28  21476426.816       20460.162         381.106          47.750  
> 2018  4 22 11 21 58.4688020  0  7                     
G 1  23594409.628      127726.841        2012.520          48.000  
G 3  22190930.912      -50663.833        -794.108          38.250  
G11  24256375.947      122194.179        2019.890          44.500  
G17  21885481.365     -134439.836       -2311.615          50.750  
G19  22304232.354     -180834.339       -3165.975          44.250  
G22  23758143.815       46228.245         828.323          48.250  
G28  21478263.550       20498.348         383.053          47.250  
> 2018  4 22 11 21 58.5688020  0  7                     
G 1  23596279.247      127928.135        2013.389          47.750  
G 3  22192745.528      -50743.175        -793.571          38.500  
G11  24258245.606      122396.263        2021.846          44.500  
G17  21887268.955     -134670.926       -2310.682          50.750  
G19  22306003.946     -181150.809       -3164.392          44.000  
G22  23759990.775       46311.108         829.376          48.500  
G28  21480103.145       20536.619         383.347          47.500  
> 2018  4 22 11 21 58.6688020  0  7                     
G 1  23598149.026      128129.496        2013.445          48.000  
G 3  22194562.357      -50822.467        -794.055          38.000  
G11  24260114.864      122598.388        2021.987          44.500  
G17  21889056.273     -134901.958       -2310.407          50.750  
G19  22307775.500     -181467.252       -3165.163          43.750  
G22  23761838.334       46394.029         829.182          48.750  
G28  21481942.813       20574.941         383.272          47.250  
> 2018  4 22 11 21 58.7688020  0  7                     
G 1  23600018.819      128330.886        2014.489          48.250  
G 3  22196378.509      -50901.721        -791.880          38.750  
G11  24261984.955      122800.556        2022.355          44.750  
G17  21890844.355     -135132.949       -2309.253          51.000  
G19  22309546.677     -181783.622       -3163.866          44.000  
G22  23763686.026       46477.005         830.783          48.750  
G28  21483780.697       20613.334         383.991          47.750  
> 2018  4 22 11 21 58.8688020  0  7                     
G 1  23601888.362      128532.343        2014.548          48.250  
G 3  22198195.621      -50980.886        -790.947          38.500  
G11  24263855.017      123002.783        2022.537          44.750  
G17  21892631.776     -135363.879       -2309.750          51.000  
G19  22311318.473     -182099.954       -3163.327          44.000  
G22  23765533.951       46560.020         830.139          48.750  
G28  21485621.700       20651.778         384.202          47.500  
> 2018  4 22 11 21 58.9688020  0  7                     
G 1  23603758.230      128733.851        2015.372          48.000  
G 3  22200010.828      -51060.019        -791.888          38.500  
G11  24265724.081      123205.069        2022.453          44.750  
G17  21894419.221     -135594.749       -2308.577          50.750  
G19  22313089.047     -182416.217       -3162.228          44.250  
G22  23767382.456       46643.112         831.027          48.500  
G28  21487458.991       20690.282         385.819          47.500  
> 2018  4 22 11 21 59.0688020  0  7                     
G 1  23605628.193      128935.404        2015.351          47.750  
G 3  22201824.954      -51139.098        -790.823          38.250  
G11  24267594.050      123407.366        2022.120          44.250  
G17  21896206.754     -135825.594       -2308.860          50.750  
G19  22314859.679     -182732.450       -3163.107          44.000  
G22  23769228.256       46726.241         831.223          48.500  
G28  21489298.867       20728.815         384.610          47.500  
> 2018  4 22 11 21 59.1688020  0  7                     
G 1  23607497.592      129136.894        2014.982          48.000  
G 3  22203642.048      -51218.220        -792.531          38.250  
G11  24269464.336      123609.641        2022.504          44.500  
G17  21897993.683     -136056.477       -2309.087          51.000  
G19  22316632.059     -183048.728       -3163.180          44.250  
G22  23771075.853       46809.316         830.653          48.750  
G28  21491137.239       20767.311         384.374          47.750  
> 2018  4 22 11 21 59.2688020  0  7                     
G 1  23609367.575      129338.294        2013.855          48.000  
G 3  22205455.954      -51297.428        -792.431          38.500  
G11  24271334.310      123811.817        2021.337          44.500  
G17  21899781.414     -136287.453       -2310.130          50.750  
G19  22318403.840     -183365.091       -3164.029          44.500  
G22  23772922.137       46892.312         830.050          48.750  
G28  21492975.065       20805.729         384.143          47.750  
> 2018  4 22 11 21 59.3688020  0  7                     
G 1  23611237.688      129539.647        2013.198          48.000  
G 3  22207271.788      -51376.705        -794.006          38.500  
G11  24273204.349      124013.921        2021.058          44.500  
G17  21901569.089     -136518.494       -2310.494          51.000  
G19  22320175.611     -183681.526       -3163.678          44.000  
G22  23774769.761       46975.249         829.561          48.500  
G28  21494816.342       20844.072         383.440          47.750  
> 2018  4 22 11 21 59.4688020  0  7                     
G 1  23613107.554      129740.976        2014.119          47.750  
G 3  22209087.824      -51455.962        -792.603          38.750  
G11  24275075.029      124216.038        2021.898          44.500  
G17  21903357.249     -136749.544       -2310.323          50.750  
G19  22321946.785     -183997.960       -3164.905          44.000  
G22  23776617.539       47058.174         829.501          48.500  
G28  21496652.446       20882.424         384.005          47.250  
> 2018  4 22 11 21 59.5688020  0  7                     
G 1  23614977.223      129942.325        2014.483          47.750  
G 3  22210902.936      -51535.223        -792.071          38.500  
G11  24276945.863      124418.156        2022.302          44.750  
G17  21905145.185     -136980.565       -2310.083          51.000  
G19  22323719.059     -184314.380       -3164.259          44.000  
G22  23778465.281       47141.130         830.330          48.750  
G28  21498491.268       20920.790         384.635          47.750  
> 2018  4 22 11 21 59.6688020  0  7                     
G 1  23616847.663      130143.746        2014.070          48.000  
G 3  22212721.002      -51614.365        -790.865          38.250  
G11  24278815.615      124620.344        2021.233          44.500  
G17  21906933.088     -137211.534       -2310.327          51.000  
G19  22325490.583     -184630.733       -3164.383          44.250  
G22  23780312.694       47224.150         829.875          48.500  
G28  21500331.022       20959.223         383.636          47.500  
> 2018  4 22 11 21 59.7688020  0  7                     
G 1  23618717.051      130345.125        2014.025          47.750  
G 3  22214538.589      -51693.584        -792.823          38.500  
G11  24280685.010      124822.521        2022.500          44.500  
G17  21908721.367     -137442.517       -2310.552          50.750  
G19  22327261.047     -184947.107       -3163.489          44.250  
G22  23782159.801       47307.147         830.338          48.750  
G28  21502168.948       20997.642         384.174          47.500  
> 2018  4 22 11 21 59.8688020  0  7                     
G 1  23620586.413      130546.507        2013.735          48.250  
G 3  22216355.080      -51772.787        -792.593          38.250  
G11  24282556.219      125024.648        2021.379          44.500  
G17  21910509.280     -137673.529       -2309.716          51.000  
G19  22329032.969     -185263.526       -3163.081          44.500  
G22  23784006.800       47390.128         830.340          48.500  
G28  21504010.166       21036.035         384.074          47.750  
> 2018  4 22 11 21 59.9688020  0  7                     
G 1  23622456.344      130747.879        2013.620          48.000  
G 3  22218172.376      -51851.982        -791.738          38.500  
G11  24284426.959      125226.786        2020.360          44.750  
G17  21912296.937     -137904.528       -2310.421          51.000  
G19  22330804.708     -185579.911       -3165.253          43.750  
G22  23785853.573       47473.107         830.036          48.750  
G28  21505847.255       21074.452         384.041          47.500  
> 2018  4 22 11 22  0.0688020  0  7                     
G 1  23624326.275      130949.241        2012.896          48.000  
G 3  22219988.820      -51931.194        -792.883          38.500  
G11  24286297.100      125428.732        2019.228          44.750  
G17  21914084.277     -138135.539       -2310.022          51.250  
G19  22332575.843     -185896.317       -3165.018          44.500  
G22  23787701.043       47556.098         829.709          48.750  
G28  21507686.240       21112.847         383.783          47.750  
> 2018  4 22 11 22  0.1688020  0  7                     
G 1  23626196.386      131150.615        2012.542          48.000  
G 3  22221807.998      -52010.382        -793.262          38.500  
G11  24288167.637      125631.296        2051.558          44.500  
G17  21915871.265     -138366.544       -2310.487          51.250  
G19  22334346.209     -186212.688       -3164.406          44.500  
G22  23789548.790       47639.081         829.040          48.750  
G28  21509525.675       21151.264         383.853          47.750  
> 2018  4 22 11 22  0.2688020  0  7                     
G 1  23628065.987      131351.964        2013.288          48.000  
G 3  22223624.541      -52089.552        -790.762          38.500  
G11  24290036.760      125833.196        2021.619          44.500  
G17  21917658.942     -138597.562       -2310.903          51.250  
G19  22336117.634     -186529.126       -3165.217          44.500  
G22  23791397.017       47722.074         829.091          48.750  
G28  21511364.120       21189.673         383.321          47.750  
> 2018  4 22 11 22  0.3688020  0  7                     
G 1  23629935.875      131553.316        2013.930          47.750  
G 3  22225441.330      -52168.776        -792.161          38.250  
G11  24291906.760      126035.302        2021.522          44.500  
G17  21919446.376     -138828.585       -2309.777          51.000  
G19  22337889.058     -186845.530       -3164.517          44.000  
G22  23793244.856       47805.055         830.625          48.750  
G28  21513205.263       21228.059         383.616          47.500  
> 2018  4 22 11 22  0.4688020  0  7                     
G 1  23631805.269      131754.684        2012.502          48.000  
G 3  22227257.360      -52247.925        -791.149          38.250  
G11  24293775.760      126237.449        2021.273          44.500  
G17  21921233.797     -139059.587       -2310.992          51.000  
G19  22339659.369     -187161.908       -3164.333          44.250  
G22  23795092.086       47888.058         829.163          48.750  
G28  21515042.381       21266.496         383.467          47.750  
> 2018  4 22 11 22  0.5688020  0  7                     
G 1  23633674.805      131956.042        2014.752          47.750  
G 3  22229070.842      -52327.146        -791.601          39.000  
G11  24295645.551      126439.565        2021.006          44.500  
G17  21923021.579     -139290.609       -2310.186          51.250  
G19  22341430.736     -187478.323       -3163.329          44.250  
G22  23796938.123       47971.053         830.142          48.750  
G28  21516881.251       21304.901         384.886          47.750  
> 2018  4 22 11 22  0.6688020  0  7                     
G 1  23635544.957      132157.403        2014.039          48.000  
G 3  22230886.320      -52406.323        -791.450          38.000  
G11  24297514.663      126641.702        2021.935          44.250  
G17  21924809.130     -139521.622       -2309.362          51.250  
G19  22343202.102     -187794.724       -3163.991          44.000  
G22  23798784.965       48054.034         830.278          48.500  
G28  21518720.584       21343.326         384.874          47.750  
> 2018  4 22 11 22  0.7688020  0  7                     
G 1  23637415.780      132358.801        2014.129          47.750  
G 3  22232703.492      -52485.439        -791.451          38.000  
G11  24299385.484      126843.877        2022.227          44.000  
G17  21926597.136     -139752.585       -2310.054          50.500  
G19  22344973.880     -188111.068       -3163.399          44.000  
G22  23800632.482       48137.083         829.452          48.500  
G28  21520559.292       21381.805         384.677          47.250  
> 2018  4 22 11 22  0.8688020  0  7                     
G 1  23639285.385      132560.166        2014.088          47.750  
G 3  22234520.595      -52564.612        -792.344          38.750  
G11  24301255.309      127046.007        2021.990          44.250  
G17  21928384.904     -139983.593       -2309.992          51.250  
G19  22346745.496     -188427.476       -3163.866          43.750  
G22  23802480.325       48220.101         830.332          48.750  
G28  21522399.874       21420.241         384.927          47.500  
> 2018  4 22 11 22  0.9688020  0  7                     
G 1  23641155.525      132761.526        2013.422          47.750  
G 3  22236335.712      -52643.759        -791.945          39.000  
G11  24303124.795      127248.129        2021.267          44.500  
G17  21930172.657     -140214.601       -2310.464          51.250  
G19  22348517.985     -188743.874       -3164.677          44.250  
G22  23804327.911       48303.115         830.137          48.750  
G28  21524236.887       21458.673         383.926          47.750  
> 2018  4 22 11 22  1.0688020  0  7                     
G 1  23643025.375      132962.881        2014.009          48.000  
G 3  22238152.375      -52722.904        -791.230          38.500  
G11  24304995.372      127450.238        2020.793          44.500  
G17  21931960.520     -140445.614       -2310.123          51.250  
G19  22350290.002     -189060.276       -3163.941          44.250  
G22  23806176.316       48386.126         830.360          48.750  
G28  21526075.799       21497.097         384.320          47.500  
> 2018  4 22 11 22  1.1688020  0  7                     
G 1  23644896.224      133164.271        2013.630          48.000  
G 3  22239969.648      -52802.030        -791.766          38.750  
G11  24306865.112      127652.399        2021.455          44.500  
G17  21933747.955     -140676.588       -2310.096          51.250  
G19  22352061.953     -189376.641       -3163.362          44.500  
G22  23808023.124       48469.183         830.324          49.000  
G28  21527915.867       21535.571         384.214          47.750  
> 2018  4 22 11 22  1.2688020  0  7                     
G 1  23646766.089      133365.646        2014.011          48.000  
G 3  22241786.213      -52881.159        -791.305          38.750  
G11  24308735.509      127854.546        2021.556          44.750  
G17  21935536.112     -140907.576       -2309.921          51.000  
G19  22353832.823     -189693.008       -3163.114          44.500  
G22  23809870.361       48552.221         831.010          49.000  
G28  21529753.327       21574.041         384.987          47.750  
> 2018  4 22 11 22  1.3688020  0  7                     
G 1  23648634.950      133567.020        2013.199          48.000  
G 3  22243604.859      -52960.263        -790.971          38.500  
G11  24310605.344      128056.694        2021.070          44.500  
G17  21937323.579     -141138.569       -2310.608          51.250  
G19  22355605.110     -190009.402       -3164.218          44.250  
G22  23811717.539       48635.257         830.365          48.750  
G28  21531593.335       21612.502         383.998          47.750  
> 2018  4 22 11 22  1.4688020  0  7                     
G 1  23650504.400      133768.403        2014.340          48.000  
G 3  22245421.901      -53039.380        -791.232          38.500  
G11  24312475.105      128258.838        2020.646          44.250  
G17  21939111.037     -141369.553       -2310.130          51.000  
G19  22357375.186     -190325.762       -3164.509          44.250  
G22  23813565.331       48718.308         830.786          48.750  
G28  21533430.917       21650.985         384.289          47.750  
> 2018  4 22 11 22  1.5688020  0  7                     
G 1  23652373.887      133969.752        2013.631          47.750  
G 3  22247239.892      -53118.510        -791.554          38.750  
G11  24314345.624      128460.949        2020.096          44.500  
G17  21940898.584     -141600.565       -2310.321          51.250  
G19  22359146.810     -190642.177       -3164.217          44.250  
G22  23815412.450       48801.334         830.364          48.750  
G28  21535270.240       21689.437         384.591          47.500  
> 2018  4 22 11 22  1.6688020  0  7                     
G 1  23654243.910      134171.120        2013.702          47.750  
G 3  22249057.839      -53197.613        -790.422          38.500  
G11  24316215.739      128663.088        2021.817          44.500  
G17  21942685.566     -141831.564       -2309.898          51.000  
G19  22360919.201     -190958.548       -3163.966          44.250  
G22  23817260.074       48884.369         830.662          48.750  
G28  21537109.275       21727.901         385.391          47.500  
> 2018  4 22 11 22  1.7688020  0  7                     
G 1  23656115.108      134372.500        2013.661          48.000  
G 3  22250874.275      -53276.716        -789.614          38.250  
G11  24318085.744      128865.235        2020.985          44.000  
G17  21944473.461     -142062.537       -2309.764          51.000  
G19  22362690.457     -191274.921       -3164.255          44.500  
G22  23819107.748       48967.443         830.127          48.500  
G28  21538947.948       21766.408         384.564          47.500  
> 2018  4 22 11 22  1.8688020  0  7                     
G 1  23657984.817      134573.905        2014.111          47.500  
G 3  22252690.330      -53355.775        -789.121          38.750  
G11  24319955.832      129067.415        2022.695          44.000  
G17  21946260.762     -142293.492       -2309.385          51.000  
G19  22364461.083     -191591.250       -3163.105          43.750  
G22  23820955.023       49050.541         831.253          48.750  
G28  21540788.790       21804.927         385.636          47.500  
> 2018  4 22 11 22  1.9688020  0  7                     
G 1  23659854.410      134775.347        2014.814          47.750  
G 3  22254505.269      -53434.788        -790.394          38.500  
G11  24321827.057      129269.621        2022.852          44.250  
G17  21948048.141     -142524.413       -2309.015          51.000  
G19  22366232.041     -191907.572       -3163.338          44.250  
G22  23822801.607       49133.665         831.221          48.750  
G28  21542626.203       21843.483         385.573          47.500  
> 2018  4 22 11 22  2.0688020  0  7                     
G 1  23661724.145      134976.862        2015.098          47.750  
G 3  22256322.167      -53513.739        -790.418          38.750  
G11  24323696.634      129471.889        2022.609          44.250  
G17  21949836.656     -142755.268       -2308.910          51.250  
G19  22368003.944     -192223.793       -3162.711          44.250  
G22  23824648.233       49216.877         832.155          48.750  
G28  21544465.957       21882.114         386.037          47.750  
> 2018  4 22 11 22  2.1688020  0  7                     
G 1  23663594.210      135178.318        2015.403          48.000  
G 3  22258138.486      -53592.724        -788.225          38.500  
G11  24325565.940      129674.106        2023.479          44.500  
G17  21951624.361     -142986.178       -2308.838          51.250  
G19  22369774.680     -192540.080       -3162.495          44.000  
G22  23826496.080       49300.018         832.010          49.000  
G28  21546304.460       21920.681         386.124          47.750  
> 2018  4 22 11 22  2.2688020  0  7                     
G 1  23665463.972      135379.780        2014.914          48.000  
G 3  22259954.801      -53671.731        -790.065          38.500  
G11  24327436.420      129876.346        2022.699          44.000  
G17  21953412.738     -143217.063       -2308.762          51.000  
G19  22371546.615     -192856.379       -3162.934          44.500  
G22  23828343.455       49383.187         832.370          48.500  
G28  21548142.871       21959.295         386.322          47.500  
> 2018  4 22 11 22  2.3688020  0  7                     
G 1  23667334.349      135581.283        2014.586          47.750  
G 3  22261770.449      -53750.660        -789.559          38.750  
G11  24329306.372      130078.611        2023.553          44.000  
G17  21955199.916     -143447.911       -2308.749          51.000  
G19  22373319.201     -193172.598       -3163.096          43.750  
G22  23830190.967       49466.397         832.282          48.750  
G28  21549983.315       21997.924         386.362          47.250  
> 2018  4 22 11 22  2.4688020  0  7                     
G 1  23669204.308      135782.768        2015.136          48.000  
G 3  22263588.649      -53829.582        -788.826          39.000  
G11  24331176.458      130280.861        2023.438          44.000  
G17  21956987.250     -143678.782       -2309.375          51.250  
G19  22375088.564     -193488.853       -3162.979          44.500  
G22  23832038.840       49549.589         831.831          49.000  
G28  21551820.038       22036.558         385.854          47.500  
> 2018  4 22 11 22  2.5688020  0  7                     
G 1  23671074.623      135984.311        2015.524          48.000  
G 3  22265404.532      -53908.483        -787.413          38.500  
G11  24333046.462      130483.169        2024.088          44.000  
G17  21958775.438     -143909.596       -2308.153          51.000  
G19  22376860.473     -193805.054       -3162.287          44.000  
G22  23833886.668       49632.842         832.224          48.250  
G28  21553658.967       22075.225         386.708          47.750  
> 2018  4 22 11 22  2.6688020  0  7                     
G 1  23672944.594      136185.841        2015.443          47.500  
G 3  22267221.150      -53987.367        -787.062          39.000  
G11  24334916.286      130685.460        2023.155          44.000  
G17  21960563.040     -144140.414       -2308.060          51.000  
G19  22378631.804     -194121.250       -3161.813          44.000  
G22  23835733.008       49716.097         832.852          48.750  
G28  21555498.088       22113.919         387.045          47.250  
> 2018  4 22 11 22  2.7688020  0  7                     
G 1  23674814.139      136387.435        2016.553          48.000  
G 3  22269037.183      -54066.187        -787.653          38.750  
G11  24336786.207      130887.816        2024.195          44.000  
G17  21962351.207     -144371.180       -2306.862          51.250  
G19  22380402.404     -194437.417       -3161.636          44.500  
G22  23837580.485       49799.394         833.676          48.750  
G28  21557336.119       22152.663         388.387          47.500  
> 2018  4 22 11 22  2.8688020  0  7                     
G 1  23676684.595      136589.040        2016.238          48.000  
G 3  22270853.117      -54145.000        -788.590          38.750  
G11  24338656.221      131090.187        2024.614          44.000  
G17  21964138.940     -144601.923       -2307.581          51.250  
G19  22382174.734     -194753.537       -3161.743          44.500  
G22  23839427.576       49882.730         833.363          48.750  
G28  21559176.284       22191.421         387.594          47.750  
> 2018  4 22 11 22  2.9688020  0  7                     
G 1  23678554.638      136790.625        2016.351          48.000  
G 3  22272670.114      -54223.820        -787.377          38.750  
G11  24340526.887      131292.533        2023.254          44.250  
G17  21965926.839     -144832.694       -2307.549          51.000  
G19  22383946.439     -195069.685       -3161.510          44.500  
G22  23841275.273       49966.038         833.504          48.500  
G28  21561014.021       22230.169         388.108          47.750  
> 2018  4 22 11 22  3.0688020  0  7                     
G 1  23680424.062      136992.242        2015.401          47.750  
G 3  22274487.670      -54302.597        -787.996          38.750  
G11  24342397.978      131494.905        2023.447          43.500  
G17  21967714.582     -145063.430       -2307.816          51.000  
G19  22385717.739     -195385.819       -3161.175          44.250  
G22  23843122.894       50049.389         833.293          48.750  
G28  21562853.081       22268.939         387.471          47.500  
> 2018  4 22 11 22  3.1688020  0  7                     
G 1  23682293.519      137193.836        2015.825          48.000  
G 3  22276304.090      -54381.395        -787.492          38.750  
G11  24344267.454      131697.258        2023.067          44.250  
G17  21969502.024     -145294.193       -2307.736          51.250  
G19  22387487.781     -195701.965       -3161.444          44.250  
G22  23844971.304       50132.702         832.823          48.750  
G28  21564692.956       22307.695         387.904          48.000  
> 2018  4 22 11 22  3.2688020  0  7                     
G 1  23684163.383      137395.376        2015.919          48.000  
G 3  22278121.483      -54460.253        -788.527          38.750  
G11  24346138.460      131899.568        2023.430          44.250  
G17  21971289.750     -145524.995       -2307.811          51.250  
G19  22389259.138     -196018.146       -3161.630          44.250  
G22  23846819.380       50216.000         832.729          48.750  
G28  21566531.351       22346.426         387.957          47.750  
> 2018  4 22 11 22  3.3688020  0  7                     
G 1  23686033.327      137596.849        2014.783          48.000  
G 3  22279937.575      -54539.148        -788.468          39.250  
G11  24348008.719      132101.813        2022.514          44.000  
G17  21973077.115     -145755.875       -2309.129          51.250  
G19  22391031.172     -196334.409       -3163.651          44.250  
G22  23848667.905       50299.213         832.108          49.000  
G28  21568371.294       22385.066         386.377          47.750  
> 2018  4 22 11 22  3.4688020  0  7                     
G 1  23687903.214      137798.307        2014.809          48.000  
G 3  22281754.561      -54618.079        -788.214          39.250  
G11  24349879.288      132304.013        2021.677          44.000  
G17  21974864.594     -145986.763       -2309.129          51.250  
G19  22392801.392     -196650.686       -3162.621          44.500  
G22  23850514.618       50382.420         832.108          48.750  
G28  21570209.145       22423.713         386.305          47.750  
> 2018  4 22 11 22  3.5688020  0  7                     
G 1  23689772.918      137999.788        2015.195          48.000  
G 3  22283571.686      -54696.982        -789.085          38.500  
G11  24351748.774      132506.258        2022.870          44.250  
G17  21976652.447     -146217.632       -2308.246          51.250  
G19  22394574.471     -196966.934       -3162.670          44.250  
G22  23852360.054       50465.643         832.682          48.750  
G28  21572049.069       22462.367         386.890          47.500  
> 2018  4 22 11 22  3.6688020  0  7                     
G 1  23691643.397      138201.227        2014.812          48.000  
G 3  22285389.628      -54775.890        -788.771          39.000  
G11  24353619.672      132708.458        2022.396          44.000  
G17  21978439.970     -146448.547       -2309.002          51.250  
G19  22396344.924     -197283.222       -3161.924          44.500  
G22  23854207.313       50548.834         832.626          49.000  
G28  21573888.011       22500.989         386.991          47.500  
> 2018  4 22 11 22  3.7688020  0  7                     
G 1  23693513.162      138402.705        2015.472          48.000  
G 3  22287205.524      -54854.785        -789.018          38.750  
G11  24355488.874      132910.710        2023.322          44.000  
G17  21980228.442     -146679.403       -2308.430          51.500  
G19  22398117.731     -197599.477       -3161.970          44.500  
G22  23856054.713       50632.072         832.834          48.750  
G28  21575726.431       22539.673         386.832          47.750  
> 2018  4 22 11 22  3.8688020  0  7                     
G 1  23695382.785      138604.245        2016.213          48.000  
G 3  22289021.137      -54933.594        -786.347          39.000  
G11  24357358.402      133112.996        2023.471          44.000  
G17  21982016.004     -146910.216       -2307.598          51.250  
G19  22399889.924     -197915.671       -3161.563          44.500  
G22  23857902.520       50715.362         833.690          49.000  
G28  21577567.385       22578.397         387.631          47.750  
> 2018  4 22 11 22  3.9688020  0  7                     
G 1  23697252.522      138805.874        2016.948          48.000  
G 3  22290836.847      -55012.300        -786.473          38.750  
G11  24359228.024      133315.390        2024.649          43.750  
G17  21983803.379     -147140.933       -2306.952          51.250  
G19  22401660.946     -198231.771       -3160.810          44.500  
G22  23859750.562       50798.769         834.398          48.500  
G28  21579404.796       22617.233         388.276          47.500  
> 2018  4 22 11 22  4.0688020  0  7                     
G 1  23699123.132      139007.566        2016.806          47.750  
G 3  22292652.536      -55090.966        -787.285          38.750  
G11  24361096.768      133517.844        2025.170          43.750  
G17  21985590.965     -147371.585       -2306.238          51.000  
G19  22403433.537     -198547.802       -3161.174          44.000  
G22  23861598.651       50882.224         834.644          48.750  
G28  21581244.771       22656.130         389.031          47.500  
> 2018  4 22 11 22  4.1688020  0  7                     
G 1  23700992.666      139209.323        2018.811          47.500  
G 3  22294469.668      -55169.561        -785.487          38.750  
G11  24362967.123      133720.365        2025.300          43.750  
G17  21987378.389     -147602.164       -2305.412          51.250  
G19  22405204.066     -198863.771       -3159.556          44.250  
G22  23863445.692       50965.761         836.623          48.750  
G28  21583083.615       22695.095         390.401          47.250  
> 2018  4 22 11 22  4.2688020  0  7                     
G 1  23702863.123      139411.191        2019.267          47.750  
G 3  22296286.512      -55247.978        -782.529          39.250  
G11  24364837.199      133922.990        2026.029          43.750  
G17  21989166.099     -147832.630       -2304.544          51.250  
G19  22406974.856     -199179.622       -3159.654          44.250  
G22  23865292.365       51049.402         836.326          49.000  
G28  21584922.522       22734.191         390.931          47.500  
> 2018  4 22 11 22  4.3688020  0  7                     
G 1  23704732.686      139613.098        2018.684          48.000  
G 3  22298103.564      -55326.432        -784.307          38.500  
G11  24366706.802      134125.662        2026.958          43.750  
G17  21990954.082     -148063.070       -2304.733          51.250  
G19  22408746.732     -199495.444       -3158.520          44.500  
G22  23867139.812       51133.094         837.188          48.500  
G28  21586762.338       22773.321         391.787          47.500  
> 2018  4 22 11 22  4.4688020  0  7                     
G 1  23706603.926      139815.080        2020.651          47.500  
G 3  22299920.464      -55404.759        -782.656          38.500  
G11  24368575.685      134328.402        2027.610          43.000  
G17  21992741.852     -148293.425       -2302.801          51.000  
G19  22410518.378     -199811.161       -3156.866          44.000  
G22  23868987.178       51216.852         838.613          48.500  
G28  21588599.283       22812.523         392.909          47.250  
> 2018  4 22 11 22  4.5688020  0  7                     
G 1  23708473.967      140017.129        2021.074          47.750  
G 3  22301736.818      -55483.026        -782.929          38.250  
G11  24370446.261      134531.200        2027.919          43.500  
G17  21994529.797     -148523.718       -2302.848          51.000  
G19  22412289.270     -200126.846       -3156.287          44.250  
G22  23870834.803       51300.690         838.291          48.500  
G28  21590439.201       22851.795         392.737          47.500  
> 2018  4 22 11 22  4.6688020  0  7                     
G 1  23710344.623      140219.198        2020.508          47.750  
G 3  22303552.414      -55561.278        -781.944          39.000  
G11  24372316.523      134734.026        2028.610          43.750  
G17  21996317.433     -148754.000       -2303.366          51.500  
G19  22414060.281     -200442.487       -3156.790          43.750  
G22  23872682.896       51384.540         838.565          48.750  
G28  21592277.575       22891.081         392.781          47.500  
> 2018  4 22 11 22  4.7688020  0  7                     
G 1  23712214.964      140421.286        2021.367          47.500  
G 3  22305368.564      -55639.495        -781.087          38.750  
G11  24374188.142      134936.868        2027.534          43.500  
G17  21998105.329     -148984.251       -2302.870          51.000  
G19  22415831.556     -200758.138       -3157.104          44.250  
G22  23874530.581       51468.422         838.832          48.500  
G28  21594116.713       22930.395         392.596          47.250  
> 2018  4 22 11 22  4.8688020  0  7                     
G 1  23714084.611      140623.363        2020.697          47.750  
G 3  22307186.356      -55717.701        -782.846          39.500  
G11  24376057.926      135139.718        2028.227          43.750  
G17  21999893.049     -149214.503       -2302.981          51.500  
G19  22417602.481     -201073.761       -3156.760          43.750  
G22  23876378.682       51552.302         838.855          49.000  
G28  21595956.936       22969.729         392.802          47.250  
> 2018  4 22 11 22  4.9688020  0  7                     
G 1  23715954.611      140825.462        2021.240          48.000  
G 3  22309002.847      -55795.896        -781.672          39.250  
G11  24377927.805      135342.580        2028.894          43.750  
G17  22001680.280     -149444.739       -2302.616          51.500  
G19  22419374.620     -201389.387       -3156.456          44.750  
G22  23878225.563       51636.207         839.297          49.000  
G28  21597795.091       23009.072         392.918          47.750  
> 2018  4 22 11 22  5.0688020  0  7                     
G 1  23717824.803      141027.497        2020.024          47.750  
G 3  22310819.436      -55874.161        -783.626          39.000  
G11  24379797.686      135545.365        2027.790          43.500  
G17  22003467.983     -149675.037       -2303.198          51.500  
G19  22421146.336     -201705.056       -3157.480          44.250  
G22  23880073.054       51720.037         838.259          48.750  
G28  21599636.005       23048.347         392.428          47.750  
> 2018  4 22 11 22  5.1688020  0  7                     
G 1  23719693.981      141229.489        2019.377          48.000  
G 3  22312636.721      -55952.445        -783.715          38.250  
G11  24381667.789      135748.111        2026.893          43.750  
G17  22005255.506     -149905.385       -2304.282          51.000  
G19  22422918.758     -202020.785       -3157.412          44.000  
G22  23881919.814       51803.838         837.428          48.250  
G28  21601473.627       23087.603         392.148          47.750  
> 2018  4 22 11 22  5.2688020  0  7                     
G 1  23721563.757      141431.420        2019.912          47.500  
G 3  22314455.480      -56030.794        -782.766          38.750  
G11  24383538.461      135950.793        2026.773          43.500  
G17  22007043.432     -150135.798       -2303.944          51.000  
G19  22424690.413     -202336.581       -3158.012          43.750  
G22  23883767.642       51887.579         837.991          48.750  
G28  21603313.132       23126.773         392.651          47.250  
> 2018  4 22 11 22  5.3688020  0  7                     
G 1  23723433.682      141633.372        2020.037          48.000  
G 3  22316271.284      -56109.095        -782.439          39.500  
G11  24385409.179      136153.524        2027.984          43.500  
G17  22008831.279     -150366.157       -2303.399          51.500  
G19  22426460.756     -202652.320       -3157.115          44.250  
G22  23885615.475       51971.362         838.622          49.000  
G28  21605152.465       23166.007         392.747          47.500  
> 2018  4 22 11 22  5.4688020  0  7                     
G 1  23725303.758      141835.375        2020.394          47.750  
G 3  22318086.134      -56187.360        -781.618          39.250  
G11  24387279.106      136356.267        2027.610          43.500  
G17  22010618.631     -150596.501       -2303.364          51.500  
G19  22428233.652     -202968.042       -3157.347          44.250  
G22  23887463.443       52055.174         838.466          49.000  
G28  21606990.707       23205.259         392.728          47.750  
> 2018  4 22 11 22  5.5688020  0  7                     
G 1  23727173.812      142037.355        2019.531          47.750  
G 3  22319901.624      -56265.634        -782.966          38.750  
G11  24389149.092      136559.031        2027.660          43.500  
G17  22012406.786     -150826.840       -2303.258          51.500  
G19  22430005.022     -203283.768       -3157.825          44.500  
G22  23889310.798       52138.986         837.586          48.750  
G28  21608830.845       23244.516         392.367          47.750  
> 2018  4 22 11 22  5.6688020  0  7                     
G 1  23729043.646      142239.264        2019.043          48.000  
G 3  22321718.493      -56343.987        -783.632          39.500  
G11  24391018.951      136761.677        2027.037          43.750  
G17  22014194.291     -151057.271       -2304.600          51.500  
G19  22431776.409     -203599.580       -3157.780          44.250  
G22  23891157.998       52222.717         837.196          49.000  
G28  21610668.684       23283.692         391.538          47.750  
> 2018  4 22 11 22  5.7688020  0  7                     
G 1  23730913.686      142441.112        2018.767          48.000  
G 3  22323534.952      -56422.394        -783.950          39.250  
G11  24392888.583      136964.275        2026.271          43.750  
G17  22015982.504     -151287.757       -2305.097          51.500  
G19  22433546.527     -203915.429       -3158.704          44.500  
G22  23893005.635       52306.394         836.911          49.000  
G28  21612508.573       23322.820         391.487          47.750  
> 2018  4 22 11 22  5.8688020  0  7                     
G 1  23732783.860      142642.908        2018.350          48.000  
G 3  22325351.060      -56500.831        -785.077          39.000  
G11  24394758.940      137166.834        2025.858          43.500  
G17  22017770.573     -151518.290       -2305.236          51.500  
G19  22435317.656     -204231.345       -3159.481          44.000  
G22  23894853.351       52390.027         836.810          48.750  
G28  21614347.468       23361.892         390.722          47.750  
> 2018  4 22 11 22  5.9688020  0  7                     
G 1  23734654.012      142844.756        2018.861          47.750  
G 3  22327168.437      -56579.244        -784.893          38.500  
G11  24396629.403      137369.441        2027.240          43.000  
G17  22019558.134     -151748.766       -2304.515          51.250  
G19  22437089.416     -204547.208       -3157.969          44.500  
G22  23896700.690       52473.723         837.619          48.750  
G28  21616185.897       23401.040         392.483          47.500  
> 2018  4 22 11 22  6.0688020  0  9                     
G 1  23736524.130      143046.715        2019.722          47.500  
G 3  22328984.665      -56657.504        -783.077          39.000  
G 6  22937125.527     -122306.589       -3541.133          40.250  
G11  24398499.394      137572.146        2026.423          43.500  
G17  22021346.668     -151979.140       -2303.826          51.250  
G18  25839061.506       56749.672        2511.908          38.750  
G19  22438859.587     -204862.951       -3158.260          44.000  
G22  23898547.524       52555.510         579.398          48.750  
G28  21618026.176       23440.272         392.232          47.250  
> 2018  4 22 11 22  6.3688020  0  9                     
G 1  23742134.411      143652.853        2020.059          47.500  
G 3  22334435.034      -56891.994        -780.860          39.250  
G 6  22942419.783     -123368.728       -3541.679          39.750  
G11  24404110.577      138180.556        2027.906          43.000  
G17  22026710.091     -152669.981       -2303.066          51.250  
G18  25844697.981       57490.424        2467.244          38.000  
G19  22444174.915     -205809.929       -3157.236          44.000  
G22  23904091.272       52809.213         838.654          48.500  
G28  21623541.697       23558.303         392.806          47.250  
> 2018  4 22 11 22  6.4688020  0  9                     
G 1  23744004.452      143854.907        2020.063          48.000  
G 3  22336250.807      -56970.173        -782.138          39.500  
G 6  22944185.207     -123722.773       -3540.746          40.250  
G11  24405981.222      138383.352        2027.045          43.500  
G17  22028497.868     -152900.260       -2303.137          51.500  
G18  25846576.899       57737.166        2467.836          38.500  
G19  22445945.546     -206125.575       -3157.736          44.000  
G22  23905938.131       52893.107         839.116          49.250  
G28  21625380.334       23597.662         393.126          47.750  
> 2018  4 22 11 22  6.5688020  0  9                     
G 1  23745874.230      144057.059        2024.403          47.750  
G 3  22338067.411      -57048.214        -778.298          37.750  
G 6  22945949.488     -124076.709       -3537.008          39.750  
G11  24407852.086      138586.268        2032.256          43.250  
G17  22030285.963     -153130.424       -2298.906          50.750  
G18  25848455.688       57984.058        2471.164          38.500  
G19  22447717.118     -206441.134       -3152.367          42.500  
G22  23907785.920       52977.132         843.290          48.000  
G28  21627221.355       23637.134         397.387          47.500  
> 2018  4 22 11 22  6.6688020  0  9                     
G 1  23747744.517      144259.842        2029.652          46.750  
G 3  22339883.904      -57125.640        -773.168          38.750  
G 6  22947714.394     -124429.995       -3531.831          39.750  
G11  24409722.189      138789.804        2037.163          42.250  
G17  22032074.217     -153359.968       -2293.810          50.750  
G18  25850332.195       58231.549        2476.891          37.250  
G19  22449489.234     -206756.033       -3147.564          44.250  
G22  23909633.616       53061.774         848.460          48.500  
G28  21629058.855       23677.235         402.576          46.500  
> 2018  4 22 11 22  6.7688020  0  9                     
G 1  23749614.550      144462.786        2029.029          47.750  
G 3  22341701.286      -57202.910        -774.690          38.750  
G 6  22949478.133     -124783.130       -3531.291          40.500  
G11  24411592.813      138993.495        2036.004          43.250  
G17  22033861.622     -153589.348       -2294.848          51.500  
G18  25852210.489       58479.195        2475.361          38.750  
G19  22451261.678     -207070.810       -3148.941          44.250  
G22  23911480.844       53146.584         847.055          48.750  
G28  21630899.113       23717.491         401.949          47.750  
> 2018  4 22 11 22  6.8688020  0  9                     
G 1  23751484.268      144665.357        2024.063          47.500  
G 3  22343519.400      -57280.487        -777.538          38.500  
G 6  22951241.605     -125136.648       -3536.694          40.000  
G11  24413463.187      139196.816        2031.689          43.000  
G17  22035650.095     -153819.094       -2299.126          50.750  
G18  25854090.340       58726.476        2471.390          38.000  
G19  22453032.791     -207385.930       -3153.665          43.750  
G22  23913329.112       53231.029         842.972          48.250  
G28  21632737.894       23757.380         396.750          47.000  
> 2018  4 22 11 22  6.9688020  0  9                     
G 1  23753354.652      144867.774        2025.735          47.250  
G 3  22345336.446      -57358.252        -776.806          39.250  
G 6  22953005.643     -125490.304       -3534.307          40.250  
G11  24415333.783      139399.983        2033.089          43.000  
G17  22037437.436     -154049.008       -2297.846          51.500  
G18  25855968.103       58973.587        2471.668          38.000  
G19  22454804.862     -207701.216       -3150.689          43.750  
G22  23915176.823       53315.316         844.086          49.000  
G28  21634576.348       23797.119         398.708          47.250  
> 2018  4 22 11 22  7.0688020  0  9                     
G 1  23755224.133      145070.295        2024.093          48.000  
G 3  22347151.675      -57435.932        -777.031          38.500  
G 6  22954769.735     -125843.859       -3536.386          40.500  
G11  24417204.120      139603.249        2031.600          43.500  
G17  22039225.643     -154278.809       -2298.994          51.500  
G18  25857844.980       59220.835        2471.603          38.500  
G19  22456575.582     -208016.398       -3152.802          44.250  
G22  23917024.577       53399.717         843.124          49.000  
G28  21636416.654       23836.971         397.335          47.750  
> 2018  4 22 11 22  7.1688020  0  9                     
G 1  23757093.861      145272.541        2020.730          47.750  
G 3  22348968.029      -57513.835        -779.999          39.000  
G 6  22956533.416     -126197.685       -3539.741          40.250  
G11  24419073.865      139806.252        2027.972          43.000  
G17  22041013.173     -154508.876       -2302.228          51.500  
G18  25859725.417       59467.788        2468.631          38.250  
G19  22458346.797     -208331.852       -3157.016          44.000  
G22  23918872.722       53483.857         840.421          48.750  
G28  21638254.162       23876.551         394.304          47.500  
> 2018  4 22 11 22  7.2688020  0  9                     
G 1  23758963.196      145474.550        2018.672          47.750  
G 3  22350786.105      -57591.996        -781.377          39.000  
G 6  22958298.225     -126551.747       -3541.263          39.500  
G11  24420943.037      140009.027        2026.852          43.250  
G17  22042800.942     -154739.193       -2305.129          51.250  
G18  25861603.065       59714.478        2465.573          38.500  
G19  22460117.640     -208647.522       -3157.949          44.000  
G22  23920720.521       53567.753         837.698          48.500  
G28  21640094.326       23915.903         392.726          47.750  
> 2018  4 22 11 22  7.3688020  0  9                     
G 1  23760833.696      145676.317        2017.581          47.250  
G 3  22352602.585      -57670.395        -784.281          38.750  
G 6  22960062.149     -126906.058       -3544.428          40.000  
G11  24422812.813      140211.525        2024.208          42.500  
G17  22044588.667     -154969.748       -2305.927          51.250  
G18  25863480.087       59960.962        2465.866          37.750  
G19  22461891.202     -208963.461       -3159.718          43.750  
G22  23922567.375       53651.404         836.273          48.750  
G28  21641932.608       23955.015         391.340          47.000  
> 2018  4 22 11 22  7.4688020  0  9                     
G 1  23762703.513      145878.105        2019.286          47.250  
G 3  22354419.201      -57748.751        -783.750          39.250  
G 6  22961825.452     -127260.327       -3542.123          40.000  
G11  24424682.714      140414.092        2026.784          42.750  
G17  22046375.638     -155200.266       -2304.425          51.250  
G18  25865356.466       60207.465        2465.838          38.000  
G19  22463661.767     -209279.339       -3157.924          44.500  
G22  23924414.517       53735.096         837.873          49.000  
G28  21643770.856       23994.156         392.878          47.500  
> 2018  4 22 11 22  7.5688020  0  9                     
G 1  23764573.109      146080.054        2019.652          47.750  
G 3  22356235.933      -57826.935        -781.030          39.000  
G 6  22963589.059     -127614.459       -3542.579          40.250  
G11  24426553.293      140616.791        2027.735          43.250  
G17  22048163.533     -155430.640       -2303.677          51.750  
G18  25867236.105       60454.094        2466.525          38.250  
G19  22465432.437     -209595.090       -3157.685          44.750  
G22  23926262.171       53818.933         838.581          49.250  
G28  21645610.533       24033.450         393.537          47.750  
> 2018  4 22 11 22  7.6688020  0  9                     
G 1  23766443.026      146282.060        2021.513          48.000  
G 3  22358052.503      -57905.098        -781.051          39.000  
G 6  22965353.819     -127968.497       -3540.174          40.000  
G11  24428422.212      140819.534        2029.273          43.250  
G17  22049951.856     -155660.945       -2301.854          51.750  
G18  25869114.605       60700.784        2466.819          38.500  
G19  22467204.398     -209910.775       -3156.105          43.750  
G22  23928110.664       53902.849         840.402          49.000  
G28  21647448.557       24072.807         394.978          47.750  
> 2018  4 22 11 22  7.7688020  0  9                     
G 1  23768312.816      146484.405        2024.826          47.750  
G 3  22359870.236      -57982.870        -776.235          39.000  
G 6  22967118.160     -128322.228       -3536.909          39.750  
G11  24430292.583      141022.634        2032.595          43.000  
G17  22051739.711     -155890.920       -2298.430          51.250  
G18  25870993.607       60947.845        2471.322          38.000  
G19  22468975.606     -210226.139       -3154.096          44.250  
G22  23929958.477       53987.101         844.277          48.750  
G28  21649288.865       24112.510         397.963          47.500  
> 2018  4 22 11 22  7.8688020  0  9                     
G 1  23770183.341      146686.860        2024.117          48.000  
G 3  22361686.798      -58060.552        -777.263          39.250  
G 6  22968882.301     -128675.815       -3537.401          40.250  
G11  24432163.410      141225.838        2030.898          43.250  
G17  22053528.004     -156120.786       -2299.924          51.750  
G18  25872874.099       61194.996        2469.878          38.500  
G19  22470748.035     -210541.370       -3152.640          44.000  
G22  23931806.399       54071.465         842.535          49.000  
G28  21651127.140       24152.339         397.324          47.500  
> 2018  4 22 11 22  7.9688020  0  9                     
G 1  23772053.606      146889.063        2020.545          47.250  
G 3  22363503.476      -58138.476        -782.323          38.750  
G 6  22970645.971     -129029.678       -3540.315          39.500  
G11  24434033.573      141428.780        2027.173          42.500  
G17  22055315.511     -156350.898       -2302.923          51.000  
G18  25874753.110       61441.900        2467.018          38.000  
G19  22472521.545     -210856.856       -3156.365          43.750  
G22  23933653.933       54155.570         839.512          48.500  
G28  21652966.920       24191.903         393.431          47.250  
> 2018  4 22 11 22  8.0688020  0  9                     
G 1  23773923.572      147090.888        2017.799          47.250  
G 3  22365319.410      -58216.763        -784.238          38.750  
G 6  22972410.019     -129383.907       -3543.668          40.000  
G11  24435903.067      141631.360        2025.192          42.750  
G17  22057103.078     -156581.380       -2306.063          51.500  
G18  25876633.176       61688.411        2464.877          38.000  
G19  22474293.153     -211172.730       -3160.474          44.250  
G22  23935501.956       54239.322         837.261          49.000  
G28  21654806.520       24231.104         391.572          47.500  
> 2018  4 22 11 22  8.1688020  0  9                     
G 1  23775793.955      147292.605        2016.655          48.000  
G 3  22367135.505      -58295.163        -784.188          38.750  
G 6  22974175.285     -129738.253       -3543.578          40.000  
G11  24437773.874      141833.816        2023.951          43.000  
G17  22058891.148     -156811.983       -2306.680          51.750  
G18  25878511.709       61934.820        2462.994          38.500  
G19  22476063.827     -211488.679       -3160.723          44.750  
G22  23937349.125       54322.949         835.755          49.000  
G28  21656645.149       24270.189         389.999          47.750  
