     3.02           OBSERVATION DATA    M: Mixed            RINEX VERSION / TYPE
GNSS-SDRLIB v1.1                        20180429 101509 UTC PGM / RUN BY / DATE 
                                                            MARKER NAME         
                                                            MARKER NUMBER       
                                                            MARKER TYPE         
                                                            OBSERVER / AGENCY   
GNSS-SDRLIB         GNSS-SDRLIB         1.1                 REC # / TYPE / VERS 
                                                            ANT # / TYPE        
        0.0000        0.0000        0.0000                  APPROX POSITION XYZ 
        0.0000        0.0000        0.0000                  ANTENNA: DELTA H/E/N
G    4 C1C L1C D1C S1C                                      SYS / # / OBS TYPES 
R    4 C1C L1C D1C S1C                                      SYS / # / OBS TYPES 
E    4 C1C L1C D1C S1C                                      SYS / # / OBS TYPES 
J    4 C1C L1C D1C S1C                                      SYS / # / OBS TYPES 
S    4 C1C L1C D1C S1C                                      SYS / # / OBS TYPES 
C    4 C1C L1C D1C S1C                                      SYS / # / OBS TYPES 
  1970     1     1     0     0    0.0000000     GPS         TIME OF FIRST OBS   
  1970     1     1     0     0    0.0000000     GPS         TIME OF LAST OBS    
G                                                           SYS / PHASE SHIFT   
R                                                           SYS / PHASE SHIFT   
E                                                           SYS / PHASE SHIFT   
J                                                           SYS / PHASE SHIFT   
S                                                           SYS / PHASE SHIFT   
C                                                           SYS / PHASE SHIFT   
  0                                                         GLONASS SLOT / FRQ #
 C1C    0.000 C1P    0.000 C2C    0.000 C2P    0.000        GLONASS COD/PHS/BIS 
                                                            END OF HEADER       
> 2018  4 22 11 21  6.0688020  0  1                     
G28  20625059.279        3265.449         352.530          48.500  
> 2018  4 22 11 21  6.1688020  0  1                     
G28  20626915.714        3300.677         353.090          48.000  
> 2018  4 22 11 21  6.0688020  0  2                     
G17  21059048.142      -23043.569       -2314.746          51.750  
G28  20625059.279        3265.449         352.530          48.000  
> 2018  4 22 11 21  6.1688020  0  2                     
G17  21060853.698      -23276.180       -2336.401          51.750  
G28  20626915.714        3300.677         353.090          48.000  
> 2018  4 22 11 21  6.0688020  0  3                     
G 3  21349491.514       -8743.604        -794.633          42.750  
G17  21059048.142      -23043.720       -2324.050          51.750  
G28  20625059.279        3265.449         352.530          48.000  
> 2018  4 22 11 21  6.1688020  0  3                     
G 3  21351325.606       -8834.493        -845.003          42.500  
G17  21060853.698      -23276.054       -2323.824          51.750  
G28  20626915.714        3300.677         353.090          48.000  
> 2018  4 22 11 21  6.0688020  0  4                     
G 1  22724837.661       22077.248        1994.438          48.750  
G 3  21349491.514       -8751.669        -830.684          42.500  
G17  21059048.142      -23043.720       -2324.050          51.750  
G28  20625059.279        3265.449         352.530          48.000  
> 2018  4 22 11 21  6.1688020  0  4                     
G 1  22726725.697       22277.895        2008.852          49.000  
G 3  21351325.606       -8834.313        -830.802          42.500  
G17  21060853.698      -23276.054       -2323.824          51.750  
G28  20626915.714        3300.677         353.090          48.000  
> 2018  4 22 11 21  6.0688020  0  5                     
G 1  22724837.661       22077.335        2004.250          49.000  
G 3  21349491.514       -8751.669        -830.684          42.500  
G17  21059048.142      -23043.720       -2324.050          51.750  
G22  22900473.531        7691.042         785.709          46.250  
G28  20625059.279        3265.449         352.530          48.000  
> 2018  4 22 11 21  6.1688020  0  5                     
G 1  22726725.697       22277.790        2004.207          49.000  
G 3  21351325.606       -8834.313        -830.802          42.500  
G17  21060853.698      -23276.054       -2323.824          51.750  
G22  22902337.539        7771.231         798.998          46.500  
G28  20626915.714        3300.677         353.090          48.000  
> 2018  4 22 11 21  6.0688020  0  6                     
G 1  22724837.661       22077.335        2004.250          49.000  
G 3  21349491.514       -8751.669        -830.684          42.500  
G11  23386715.876       20488.512        2029.158          44.250  
G17  21059048.142      -23043.720       -2324.050          51.750  
G22  22900473.531        7691.223         800.926          46.500  
G28  20625059.279        3265.449         352.530          48.000  
> 2018  4 22 11 21  6.1688020  0  6                     
G 1  22726725.697       22277.790        2004.207          49.000  
G 3  21351325.606       -8834.313        -830.802          42.500  
G11  23388604.424       20689.553        2012.344          44.500  
G17  21060853.698      -23276.054       -2323.824          51.750  
G22  22902337.539        7771.287         801.390          46.500  
G28  20626915.714        3300.677         353.090          48.000  
> 2018  4 22 11 21  6.2688020  0  6                     
G 1  22728595.282       22478.288        2005.248          49.000  
G 3  21353142.416       -8917.404        -830.847          42.500  
G11  23390475.334       20891.096        2014.182          44.250  
G17  21062641.691      -23508.342       -2322.585          51.750  
G22  22904184.874        7851.395         801.434          46.500  
G28  20628755.266        3335.978         353.018          48.250  
> 2018  4 22 11 21  6.3688020  0  6                     
G 1  22730465.281       22678.888        2006.155          48.750  
G 3  21354957.208       -9000.365        -830.131          42.750  
G11  23392345.346       21092.598        2015.187          44.250  
G17  21064429.016      -23740.516       -2322.536          51.750  
G22  22906032.116        7931.626         802.140          46.500  
G28  20630591.193        3371.383         354.289          48.250  
> 2018  4 22 11 21  6.4688020  0  6                     
G 1  22732335.782       22879.542        2007.373          49.000  
G 3  21356772.492       -9083.272        -828.075          42.500  
G11  23394215.028       21294.146        2016.015          44.250  
G17  21066216.682      -23972.660       -2320.948          51.500  
G22  22907879.142        8011.887         803.286          46.250  
G28  20632430.235        3406.837         354.426          48.500  
> 2018  4 22 11 21  6.5688020  0  6                     
G 1  22734205.549       23080.236        2006.998          49.000  
G 3  21358589.685       -9166.138        -828.557          42.750  
G11  23396084.277       21495.738        2015.718          44.250  
G17  21068004.738      -24204.746       -2320.750          51.750  
G22  22909725.179        8092.211         803.118          46.250  
G28  20634269.756        3442.341         355.526          48.250  
> 2018  4 22 11 21  6.6688020  0  6                     
G 1  22736075.321       23280.954        2008.092          49.000  
G 3  21360405.259       -9248.965        -828.301          42.250  
G11  23397955.246       21697.379        2017.196          44.250  
G17  21069792.229      -24436.803       -2320.367          51.750  
G22  22911571.949        8172.563         804.247          46.500  
G28  20636106.887        3477.880         356.043          48.250  
> 2018  4 22 11 21  6.7688020  0  6                     
G 1  22737945.585       23481.788        2008.752          49.000  
G 3  21362221.074       -9331.669        -825.874          42.500  
G11  23399825.514       21899.100        2017.704          44.250  
G17  21071579.690      -24668.749       -2319.374          51.500  
G22  22913419.703        8253.029         805.769          46.500  
G28  20637946.712        3513.525         356.693          48.500  
> 2018  4 22 11 21  6.8688020  0  6                     
G 1  22739815.342       23682.660        2008.243          49.000  
G 3  21364037.072       -9414.354        -826.398          42.500  
G11  23401695.350       22100.875        2017.245          44.500  
G17  21073366.711      -24900.658       -2319.282          51.750  
G22  22915266.681        8333.542         805.831          46.750  
G28  20639784.208        3549.208         356.827          48.250  
> 2018  4 22 11 21  6.9688020  0  6                     
G 1  22741684.526       23883.585        2009.628          49.000  
G 3  21365851.540       -9496.947        -825.920          42.750  
G11  23403565.659       22302.698        2018.478          44.000  
G17  21075154.375      -25132.510       -2318.366          51.500  
G22  22917113.390        8414.111         805.645          46.500  
G28  20641621.669        3584.951         357.888          48.250  
> 2018  4 22 11 21  7.0688020  0  6                     
G 1  22743554.218       24084.521        2009.247          48.750  
G 3  21367666.957       -9579.582        -826.021          42.250  
G11  23405436.365       22504.530        2018.424          44.000  
G17  21076941.869      -25364.356       -2318.377          51.750  
G22  22918960.906        8494.695         806.587          46.250  
G28  20643461.145        3620.716         358.108          48.250  
> 2018  4 22 11 21  7.1688020  0  6                     
G 1  22745423.847       24285.478        2009.030          49.000  
G 3  21369483.890       -9662.136        -825.694          42.000  
G11  23407305.994       22706.393        2019.133          44.000  
G17  21078729.655      -25596.186       -2318.977          51.750  
G22  22920808.320        8575.285         806.116          46.250  
G28  20645298.510        3656.507         357.853          48.250  
> 2018  4 22 11 21  7.2688020  0  6                     
G 1  22747294.008       24486.400        2008.838          49.000  
G 3  21371300.041       -9744.722        -825.861          42.000  
G11  23409176.056       22908.204        2017.665          44.000  
G17  21080517.325      -25828.033       -2318.177          51.750  
G22  22922655.631        8655.870         804.978          46.500  
G28  20647137.006        3692.268         357.234          48.250  
> 2018  4 22 11 21  7.3688020  0  6                     
G 1  22749163.529       24687.299        2008.446          49.250  
G 3  21373115.356       -9827.337        -826.749          42.500  
G11  23411046.483       23110.005        2017.070          44.000  
G17  21082304.209      -26059.910       -2319.300          51.750  
G22  22924502.242        8736.429         806.444          46.250  
G28  20648976.480        3728.009         357.427          48.250  
> 2018  4 22 11 21  7.4688020  0  6                     
G 1  22751033.583       24888.207        2009.954          49.000  
G 3  21374930.928       -9909.944        -825.919          42.250  
G11  23412916.606       23311.827        2019.298          44.000  
G17  21084091.550      -26291.765       -2318.090          51.750  
G22  22926347.239        8816.988         806.160          46.250  
G28  20650812.417        3763.774         358.457          48.000  
> 2018  4 22 11 21  7.5688020  0  6                     
G 1  22752903.690       25089.169        2009.507          49.000  
G 3  21376747.012       -9992.487        -825.668          42.500  
G11  23414785.584       23513.679        2018.258          44.250  
G17  21085879.119      -26523.593       -2318.117          51.750  
G22  22928194.511        8897.610         806.343          46.250  
G28  20652651.475        3799.568         357.742          48.250  
> 2018  4 22 11 21  7.6688020  0  6                     
G 1  22754773.814       25290.112        2009.257          49.000  
G 3  21378562.444      -10075.049        -826.502          42.750  
G11  23416655.695       23715.502        2019.009          44.250  
G17  21087666.299      -26755.432       -2318.766          51.750  
G22  22930041.929        8978.214         805.677          46.500  
G28  20654490.509        3835.356         358.290          48.000  
> 2018  4 22 11 21  7.7688020  0  6                     
G 1  22756644.465       25491.013        2009.767          48.750  
G 3  21380378.854      -10157.638        -825.669          42.500  
G11  23418525.437       23917.305        2018.075          44.250  
G17  21089453.667      -26987.301       -2318.947          51.750  
G22  22931889.726        9058.794         806.103          46.250  
G28  20656327.474        3871.124         357.648          48.250  
> 2018  4 22 11 21  7.8688020  0  6                     
G 1  22758514.331       25691.896        2008.582          49.000  
G 3  21382194.803      -10240.250        -827.287          42.750  
G11  23420395.268       24119.087        2017.139          44.000  
G17  21091240.594      -27219.182       -2319.125          51.750  
G22  22933736.483        9139.352         805.482          46.250  
G28  20658166.644        3906.862         357.227          48.250  
> 2018  4 22 11 21  7.9688020  0  6                     
G 1  22760384.710       25892.774        2009.057          48.750  
G 3  21384010.593      -10322.839        -825.326          43.000  
G11  23422266.776       24320.854        2017.359          44.000  
G17  21093028.444      -27451.078       -2318.993          51.750  
G22  22935583.694        9219.902         805.728          46.750  
G28  20660005.051        3942.618         357.860          48.250  
> 2018  4 22 11 21  8.0688020  0  6                     
G 1  22762254.306       26093.635        2008.270          49.000  
G 3  21385826.157      -10405.433        -826.380          42.500  
G11  23424136.668       24522.643        2017.626          44.250  
G17  21094815.866      -27682.978       -2319.703          52.000  
G22  22937430.263        9300.458         805.137          46.500  
G28  20661843.750        3978.353         357.527          48.250  
> 2018  4 22 11 21  8.1688020  0  6                     
G 1  22764123.736       26294.491        2009.110          49.000  
G 3  21387641.506      -10488.049        -825.768          42.750  
G11  23426006.346       24724.384        2017.200          44.000  
G17  21096603.075      -27914.891       -2318.799          52.000  
G22  22939277.623        9380.993         806.146          46.250  
G28  20663684.120        4014.081         358.254          48.000  
> 2018  4 22 11 21  8.2688020  0  6                     
G 1  22765992.991       26495.366        2009.191          49.000  
G 3  21389457.455      -10570.648        -824.746          42.750  
G11  23427876.888       24926.146        2018.021          44.000  
G17  21098390.666      -28146.793       -2318.542          51.750  
G22  22941125.205        9461.556         806.486          46.500  
G28  20665520.106        4049.829         358.233          48.000  
> 2018  4 22 11 21  8.3688020  0  6                     
G 1  22767862.594       26696.285        2009.419          49.000  
G 3  21391273.097      -10653.169        -824.747          43.000  
G11  23429745.830       25127.975        2018.597          44.500  
G17  21100178.222      -28378.642       -2318.631          51.750  
G22  22942972.860        9542.179         806.583          46.500  
G28  20667358.089        4085.632         358.941          48.250  
> 2018  4 22 11 21  8.4688020  0  6                     
G 1  22769732.079       26897.162        2009.039          49.000  
G 3  21393089.363      -10735.755        -825.908          42.750  
G11  23431615.390       25329.749        2017.956          44.250  
G17  21101965.971      -28610.542       -2318.689          51.750  
G22  22944819.253        9622.753         806.130          46.250  
G28  20669197.315        4121.396         358.399          48.250  
> 2018  4 22 11 21  8.5688020  0  6                     
G 1  22771602.176       27098.077        2009.935          49.250  
G 3  21394905.184      -10818.270        -824.674          42.500  
G11  23433485.576       25531.556        2018.376          44.000  
G17  21103753.316      -28842.391       -2318.480          51.750  
G22  22946666.353        9703.357         806.482          46.000  
G28  20671034.308        4157.197         358.430          48.250  
> 2018  4 22 11 21  8.6688020  0  6                     
G 1  22773471.276       27298.985        2009.154          49.000  
G 3  21396722.226      -10900.788        -825.169          42.000  
G11  23435356.325       25733.375        2018.627          44.500  
G17  21105541.337      -29074.232       -2318.703          51.750  
G22  22948511.831        9783.999         806.720          46.250  
G28  20672874.567        4193.014         357.466          48.250  
> 2018  4 22 11 21  8.7688020  0  6                     
G 1  22775340.639       27499.859        2008.618          49.000  
G 3  21398537.148      -10983.377        -826.370          42.000  
G11  23437227.560       25935.117        2017.119          44.500  
G17  21107328.478      -29306.141       -2319.669          51.750  
G22  22950358.662        9864.559         805.309          46.250  
G28  20674712.416        4228.769         357.393          48.250  
> 2018  4 22 11 21  8.8688020  0  6                     
G 1  22777210.763       27700.670        2008.612          49.000  
G 3  21400352.445      -11066.001        -825.427          42.000  
G11  23439096.954       26136.838        2017.672          44.500  
G17  21109115.943      -29538.079       -2319.732          52.000  
G22  22952206.183        9945.093         805.297          46.250  
G28  20676550.157        4264.495         356.608          48.500  
> 2018  4 22 11 21  8.9688020  0  6                     
G 1  22779080.616       27901.503        2008.171          49.000  
G 3  21402167.964      -11148.619        -827.044          42.500  
G11  23440967.116       26338.569        2017.251          44.250  
G17  21110903.295      -29770.026       -2319.372          51.750  
G22  22954053.382       10025.628         805.315          46.500  
G28  20678389.798        4300.221         357.130          48.000  
> 2018  4 22 11 21  9.0688020  0  6                     
G 1  22780950.776       28102.349        2008.327          49.000  
G 3  21403983.344      -11231.143        -824.654          42.500  
G11  23442836.540       26540.314        2016.635          44.250  
G17  21112690.531      -30001.932       -2319.268          51.750  
G22  22955900.380       10106.215         805.439          46.000  
G28  20680227.152        4335.999         357.960          47.750  
> 2018  4 22 11 21  9.1688020  0  6                     
G 1  22782820.971       28303.203        2008.497          48.750  
G 3  21405799.624      -11313.724        -825.887          43.000  
G11  23444705.674       26742.061        2016.727          44.250  
G17  21114478.457      -30233.839       -2319.126          51.750  
G22  22957746.449       10186.779         805.991          46.250  
G28  20682064.897        4371.763         357.764          48.000  
> 2018  4 22 11 21  9.2688020  0  6                     
G 1  22784690.470       28504.041        2008.200          48.750  
G 3  21407616.077      -11396.285        -826.568          42.750  
G11  23446576.061       26943.812        2017.122          44.250  
G17  21116265.759      -30465.758       -2319.427          51.750  
G22  22959592.602       10267.349         805.147          46.250  
G28  20683904.986        4407.524         357.076          48.000  
> 2018  4 22 11 21  9.3688020  0  6                     
G 1  22786559.902       28704.859        2008.815          49.000  
G 3  21409431.640      -11478.862        -825.799          42.250  
G11  23448445.837       27145.512        2016.821          44.500  
G17  21118053.163      -30697.713       -2319.609          51.750  
G22  22961440.024       10347.889         805.953          46.250  
G28  20685741.556        4443.264         357.331          48.000  
> 2018  4 22 11 21  9.4688020  0  6                     
G 1  22788429.478       28905.686        2008.114          49.250  
G 3  21411247.320      -11561.403        -825.237          41.750  
G11  23450316.166       27347.222        2017.616          44.250  
G17  21119841.177      -30929.630       -2318.883          51.750  
G22  22963288.369       10428.451         805.613          46.500  
G28  20687580.673        4479.021         358.320          48.000  
> 2018  4 22 11 21  9.5688020  0  6                     
G 1  22790299.255       29106.466        2008.370          49.000  
G 3  21413063.720      -11644.048        -825.989          41.000  
G11  23452186.038       27548.892        2017.116          44.000  
G17  21121628.446      -31161.624       -2319.830          52.000  
G22  22965135.846       10508.973         805.244          46.500  
G28  20689418.438        4514.729         357.521          48.000  
> 2018  4 22 11 21  9.6688020  0  6                     
G 1  22792169.122       29307.147        2006.518          49.000  
G 3  21414880.090      -11726.772        -827.829          41.750  
G11  23454056.388       27750.482        2015.441          44.250  
G17  21123416.361      -31393.689       -2321.203          51.750  
G22  22966982.582       10589.404         803.067          46.500  
G28  20691255.742        4550.354         355.636          47.750  
> 2018  4 22 11 21  9.7688020  0  6                     
G 1  22794038.262       29507.798        2006.222          49.000  
G 3  21416695.328      -11809.512        -828.019          42.750  
G11  23455926.127       27952.015        2014.814          44.500  
G17  21125203.515      -31625.809       -2321.570          52.000  
G22  22968829.568       10669.797         803.583          46.500  
G28  20693095.073        4585.943         355.467          48.000  
> 2018  4 22 11 21  9.8688020  0  6                     
G 1  22795908.053       29708.420        2006.500          49.250  
G 3  21418511.617      -11892.234        -828.051          43.250  
G11  23457795.884       28153.546        2015.343          44.750  
G17  21126990.983      -31857.942       -2321.938          51.750  
G22  22970677.135       10750.159         803.894          46.250  
G28  20694933.152        4621.515         355.294          48.000  
> 2018  4 22 11 21  9.9688020  0  6                     
G 1  22797778.083       29908.994        2005.841          48.750  
G 3  21420328.729      -11975.008        -828.264          42.500  
G11  23459666.773       28355.003        2014.780          44.000  
G17  21128778.448      -32090.131       -2322.123          51.750  
G22  22972523.708       10830.501         803.474          46.000  
G28  20696770.782        4657.036         354.953          47.750  
> 2018  4 22 11 21 10.0688020  0  6                     
G 1  22799648.117       30109.515        2004.787          49.000  
G 3  21422144.435      -12057.852        -829.286          42.500  
G11  23461537.046       28556.411        2014.040          44.500  
G17  21130565.328      -32322.346       -2322.708          52.000  
G22  22974370.125       10910.776         803.145          46.500  
G28  20698610.733        4692.517         354.366          48.000  
> 2018  4 22 11 21 10.1688020  0  6                     
G 1  22801518.246       30310.000        2004.753          49.000  
G 3  21423959.752      -12140.738        -829.416          42.000  
G11  23463406.303       28757.793        2013.865          44.000  
G17  21132353.218      -32554.629       -2323.036          51.750  
G22  22976217.232       10991.020         802.816          46.250  
G28  20700447.875        4727.956         354.382          48.000  
> 2018  4 22 11 21 10.2688020  0  6                     
G 1  22803387.870       30510.413        2003.560          49.000  
G 3  21425774.649      -12223.683        -829.089          42.500  
G11  23465276.241       28959.090        2012.738          44.000  
G17  21134140.486      -32786.968       -2324.403          51.750  
G22  22978064.199       11071.194         801.287          46.500  
G28  20702287.023        4763.333         353.019          48.250  
> 2018  4 22 11 21 10.3688020  0  6                     
G 1  22805257.885       30710.813        2004.075          49.000  
G 3  21427591.406      -12306.617        -828.379          43.000  
G11  23467145.996       29160.394        2013.710          44.250  
G17  21135927.704      -33019.319       -2323.154          52.000  
G22  22979911.372       11151.377         802.229          46.500  
G28  20704125.568        4798.698         354.375          48.250  
> 2018  4 22 11 21 10.4688020  0  6                     
G 1  22807127.430       30911.260        2004.367          49.000  
G 3  21429407.701      -12389.499        -828.321          43.500  
G11  23469015.477       29361.733        2014.224          44.250  
G17  21137715.293      -33251.625       -2323.391          51.750  
G22  22981757.199       11231.582         802.078          46.500  
G28  20705962.610        4834.124         354.089          48.000  
> 2018  4 22 11 21 10.5688020  0  6                     
G 1  22808996.940       31111.691        2004.339          49.250  
G 3  21431223.145      -12472.394        -829.130          43.000  
G11  23470884.295       29563.058        2013.248          44.250  
G17  21139502.541      -33483.952       -2323.054          52.000  
G22  22983603.153       11311.792         801.924          46.500  
G28  20707801.630        4869.526         354.040          48.000  
> 2018  4 22 11 21 10.6688020  0  6                     
G 1  22810866.735       31312.160        2005.032          49.000  
G 3  21433038.094      -12555.281        -827.227          41.000  
G11  23472754.935       29764.401        2014.649          44.250  
G17  21141290.876      -33716.242       -2322.976          52.000  
G22  22985450.009       11392.041         803.031          46.500  
G28  20709639.682        4904.957         355.158          48.000  
> 2018  4 22 11 21 10.7688020  0  6                     
G 1  22812736.352       31512.628        2004.543          49.250  
G 3  21434853.185      -12638.155        -829.420          42.000  
G11  23474624.792       29965.762        2013.223          44.250  
G17  21143077.846      -33948.534       -2323.100          51.750  
G22  22987296.823       11472.278         802.236          46.250  
G28  20711476.987        4940.410         354.331          48.250  
> 2018  4 22 11 21 10.8688020  0  6                     
G 1  22814606.248       31713.152        2028.731          49.250  
G 3  21436670.855      -12720.975        -828.161          42.750  
G11  23476494.763       30167.120        2013.221          44.250  
G17  21144865.208      -34180.793       -2322.811          51.750  
G22  22989144.337       11552.557         802.757          46.250  
G28  20713317.031        4975.868         354.436          48.000  
> 2018  4 22 11 21 10.9688020  0  6                     
G 1  22816476.123       31913.696        2021.495          49.250  
G 3  21438487.641      -12803.778        -828.019          42.750  
G11  23478365.486       30368.529        2013.911          44.250  
G17  21146652.741      -34413.029       -2322.672          51.750  
G22  22990991.537       11632.851         802.592          46.250  
G28  20715154.050        5011.373         355.307          48.000  
> 2018  4 22 11 21 11.0688020  0  6                     
G 1  22818346.129       32114.093        2004.908          49.250  
G 3  21440302.418      -12886.622        -828.598          42.500  
G11  23480234.042       30569.885        2013.194          44.000  
G17  21148439.449      -34645.302       -2322.856          52.000  
G22  22992836.519       11713.126         803.000          46.500  
G28  20716991.954        5046.842         354.446          48.000  
> 2018  4 22 11 21 11.1688020  0  6                     
G 1  22820215.764       32314.592        2005.202          49.250  
G 3  21442117.576      -12969.392        -826.294          42.250  
G11  23482102.691       30771.278        2013.714          43.750  
G17  21150226.828      -34877.546       -2322.492          52.000  
G22  22994683.553       11793.409         802.860          46.250  
G28  20718832.260        5082.338         354.520          47.750  
> 2018  4 22 11 21 11.2688020  0  6                     
G 1  22822084.907       32515.111        2005.407          49.000  
G 3  21443933.684      -13052.190        -827.377          42.000  
G11  23483972.889       30972.682        2014.803          44.000  
G17  21152013.811      -35109.775       -2322.549          51.750  
G22  22996530.942       11873.738         803.886          46.250  
G28  20720668.076        5117.862         355.370          48.000  
> 2018  4 22 11 21 11.3688020  0  6                     
G 1  22823954.444       32715.614        2005.414          49.000  
G 3  21445750.133      -13134.992        -828.493          42.750  
G11  23485841.645       31174.082        2014.018          44.000  
G17  21153801.535      -35342.021       -2322.371          51.750  
G22  22998378.439       11954.038         802.861          46.500  
G28  20722506.587        5153.372         354.680          48.000  
> 2018  4 22 11 21 11.4688020  0  6                     
G 1  22825824.422       32916.091        2004.853          49.000  
G 3  21447565.473      -13217.796        -828.893          42.250  
G11  23487711.379       31375.449        2013.362          43.750  
G17  21155588.911      -35574.287       -2322.703          51.750  
G22  23000226.076       12034.326         803.103          46.250  
G28  20724346.219        5188.857         354.882          47.750  
> 2018  4 22 11 21 11.5688020  0  6                     
G 1  22827694.871       33116.577        2005.069          48.750  
G 3  21449380.642      -13300.583        -828.419          42.750  
G11  23489581.797       31576.813        2014.027          43.750  
G17  21157376.183      -35806.542       -2322.191          51.750  
G22  23002072.230       12114.612         803.979          46.250  
G28  20726183.658        5224.369         355.650          48.000  
> 2018  4 22 11 21 11.6688020  0  6                     
G 1  22829563.984       33317.071        2005.538          49.000  
G 3  21451196.536      -13383.363        -827.887          42.500  
G11  23491451.105       31778.189        2014.384          44.000  
G17  21159163.857      -36038.786       -2322.032          52.000  
G22  23003919.109       12194.928         803.052          46.250  
G28  20728023.194        5259.866         355.354          47.750  
> 2018  4 22 11 21 11.7688020  0  6                     
G 1  22831433.225       33517.570        2005.247          49.000  
G 3  21453013.585      -13466.117        -827.720          42.750  
G11  23493321.400       31979.596        2014.564          44.000  
G17  21160951.145      -36271.031       -2322.265          52.000  
G22  23005766.062       12275.250         803.820          46.500  
G28  20729860.619        5295.397         355.500          48.000  
> 2018  4 22 11 21 11.8688020  0  6                     
G 1  22833302.938       33718.077        2005.514          49.250  
G 3  21454828.352      -13548.894        -827.063          42.250  
G11  23495191.276       32180.986        2014.885          44.250  
G17  21162738.844      -36503.258       -2321.953          52.000  
G22  23007613.222       12355.582         803.882          46.500  
G28  20731698.648        5330.950         356.279          48.000  
> 2018  4 22 11 21 11.9688020  0  6                     
G 1  22835172.701       33918.641        2005.856          49.000  
G 3  21456644.099      -13631.579        -826.302          42.750  
G11  23497061.028       32382.449        2015.271          44.250  
G17  21164526.269      -36735.427       -2321.271          52.000  
G22  23009459.834       12435.983         804.689          46.250  
G28  20733538.845        5366.543         356.347          48.000  
> 2018  4 22 11 21 12.0688020  0  6                     
G 1  22837042.752       34119.248        2007.152          49.250  
G 3  21458461.008      -13714.218        -825.872          42.500  
G11  23498931.726       32584.145        2027.576          44.000  
G17  21166313.626      -36967.569       -2320.870          52.250  
G22  23011306.836       12516.418         805.690          46.250  
G28  20735375.960        5402.188         357.899          48.250  
> 2018  4 22 11 21 12.1688020  0  6                     
G 1  22838912.687       34320.006        2007.891          49.250  
G 3  21460276.291      -13796.694        -825.232          42.500  
G11  23500801.944       32785.525        1987.239          44.250  
G17  21168101.632      -37199.537       -2319.608          52.000  
G22  23013152.795       12597.005         805.543          46.250  
G28  20737215.291        5437.980         358.789          48.250  
> 2018  4 22 11 21 12.2688020  0  6                     
G 1  22840782.900       34520.742        2007.538          49.250  
G 3  21462093.089      -13879.214        -825.503          42.500  
G11  23502672.472       32987.204        2015.772          44.250  
G17  21169888.835      -37431.543       -2320.543          52.000  
G22  23015000.260       12677.584         806.107          46.250  
G28  20739053.604        5473.771         357.604          48.000  
> 2018  4 22 11 21 12.3688020  0  6                     
G 1  22842653.494       34721.597        2009.566          49.000  
G 3  21463909.004      -13961.593        -822.990          42.500  
G11  23504542.741       33188.930        2017.087          44.000  
G17  21171676.435      -37663.435       -2318.571          52.000  
G22  23016846.565       12758.275         807.390          46.250  
G28  20740890.201        5509.650         360.158          48.250  
> 2018  4 22 11 21 12.4688020  0  6                     
G 1  22844522.596       34922.496        2008.688          49.000  
G 3  21465724.162      -14043.919        -821.981          42.750  
G11  23506412.444       33390.735        2018.933          43.750  
G17  21173463.575      -37895.256       -2318.212          52.000  
G22  23018694.671       12839.027         808.353          46.250  
G28  20742729.548        5545.628         360.086          48.000  
> 2018  4 22 11 21 12.5688020  0  6                     
G 1  22846391.908       35123.465        2009.403          49.000  
G 3  21467539.402      -14126.183        -822.190          42.500  
G11  23508281.819       33592.581        2018.889          44.000  
G17  21175251.060      -38127.035       -2318.006          52.000  
G22  23020541.942       12919.835         807.973          46.500  
G28  20744568.386        5581.641         360.451          47.750  
> 2018  4 22 11 21 12.6688020  0  6                     
G 1  22848261.602       35324.468        2010.849          49.000  
G 3  21469355.610      -14208.373        -821.583          42.250  
G11  23510151.246       33794.482        2019.614          44.000  
G17  21177038.869      -38358.758       -2316.981          52.000  
G22  23022389.569       13000.706         808.726          46.250  
G28  20746406.476        5617.703         360.410          48.000  
> 2018  4 22 11 21 12.7688020  0  6                     
G 1  22850131.180       35525.576        2011.358          49.250  
G 3  21471171.496      -14290.507        -821.003          42.250  
G11  23512021.380       33996.444        2019.523          44.000  
G17  21178826.780      -38590.387       -2315.875          52.000  
G22  23024236.097       13081.664         809.940          46.250  
G28  20748246.600        5653.871         362.128          47.750  
> 2018  4 22 11 21 12.8688020  0  6                     
G 1  22852001.654       35726.846        2013.524          48.500  
G 3  21472987.549      -14372.431        -817.761          42.250  
G11  23513890.307       34198.617        2022.938          43.750  
G17  21180614.371      -38821.849       -2313.756          51.750  
G22  23026082.957       13162.794         812.729          46.250  
G28  20750084.135        5690.222         364.509          47.750  
> 2018  4 22 11 21 12.9688020  0  6                     
G 1  22853872.012       35928.326        2015.401          49.000  
G 3  21474804.251      -14454.157        -816.333          42.500  
G11  23515761.217       34400.961        2024.292          43.750  
G17  21182401.212      -39053.114       -2312.442          51.750  
G22  23027929.553       13244.133         814.516          46.500  
G28  20751923.340        5726.743         365.689          47.750  
> 2018  4 22 11 21 13.0688020  0  6                     
G 1  22855742.020       36129.966        2016.839          49.250  
G 3  21476619.459      -14535.727        -814.785          42.000  
G11  23517631.723       34603.477        2025.704          44.000  
G17  21184188.662      -39284.213       -2310.059          52.000  
G22  23029776.483       13325.629         815.704          46.750  
G28  20753762.446        5763.468         367.836          48.000  
> 2018  4 22 11 21 13.1688020  0  6                     
G 1  22857611.761       36331.710        2017.915          49.250  
G 3  21478436.569      -14617.181        -814.065          42.250  
G11  23519501.776       34806.122        2026.463          44.000  
G17  21185975.971      -39515.198       -2309.783          52.000  
G22  23031623.852       13407.249         816.790          46.000  
G28  20755600.443        5800.299         369.071          48.000  
> 2018  4 22 11 21 13.2688020  0  6                     
G 1  22859481.938       36533.500        2018.267          49.250  
G 3  21480252.919      -14698.564        -813.182          42.750  
G11  23521372.162       35008.791        2026.581          43.750  
G17  21187763.500      -39746.140       -2309.579          52.000  
G22  23033471.605       13488.912         816.282          46.500  
G28  20757440.346        5837.169         368.732          48.000  
> 2018  4 22 11 21 13.3688020  0  6                     
G 1  22861351.492       36735.314        2017.519          49.250  
G 3  21482068.727      -14779.916        -814.051          42.500  
G11  23523242.380       35211.490        2025.636          44.000  
G17  21189551.310      -39977.046       -2309.609          52.000  
G22  23035318.344       13570.625         816.436          46.000  
G28  20759277.003        5874.080         368.105          47.750  
> 2018  4 22 11 21 13.4688020  0  6                     
G 1  22863221.064       36937.076        2016.640          49.000  
G 3  21483885.357      -14861.326        -814.664          42.500  
G11  23525111.317       35414.132        2024.894          44.000  
G17  21191338.359      -40208.022       -2310.713          51.750  
G22  23037164.818       13652.252         815.850          46.000  
G28  20761115.028        5910.933         367.142          47.750  
> 2018  4 22 11 21 13.5688020  0  6                     
G 1  22865091.652       37138.690        2015.684          49.000  
G 3  21485701.285      -14942.873        -815.214          42.250  
G11  23526981.896       35616.642        2025.485          44.000  
G17  21193126.071      -40439.126       -2311.206          52.000  
G22  23039010.854       13733.761         814.542          46.250  
G28  20762955.250        5947.659         366.888          48.000  
> 2018  4 22 11 21 13.6688020  0  6                     
G 1  22866961.656       37340.276        2015.942          49.000  
G 3  21487516.999      -15024.464        -816.008          42.250  
G11  23528852.347       35819.095        2024.187          44.250  
G17  21194914.000      -40670.276       -2311.829          52.000  
G22  23040858.009       13815.216         813.871          46.250  
G28  20764791.237        5984.342         367.063          47.750  
> 2018  4 22 11 21 13.7688020  0  6                     
G 1  22868831.154       37541.785        2015.063          48.750  
G 3  21489332.802      -15106.105        -816.803          42.500  
G11  23530721.983       36021.519        2024.642          43.750  
G17  21196701.979      -40901.481       -2312.116          52.000  
G22  23042704.477       13896.650         813.934          46.250  
G28  20766629.435        6020.961         365.559          48.000  
> 2018  4 22 11 21 13.8688020  0  6                     
G 1  22870701.201       37743.274        2014.843          49.000  
G 3  21491148.559      -15187.770        -816.541          43.000  
G11  23532592.338       36223.862        2023.931          43.750  
G17  21198489.833      -41132.731       -2312.500          52.000  
G22  23044552.125       13978.024         813.844          46.500  
G28  20768469.103        6057.557         366.120          48.000  
> 2018  4 22 11 21 13.9688020  0  6                     
G 1  22872571.229       37944.736        2014.724          49.000  
G 3  21492964.365      -15269.451        -817.376          42.250  
G11  23534462.731       36426.222        2024.187          44.250  
G17  21200277.023      -41363.981       -2312.588          52.000  
G22  23046399.760       14059.394         813.012          46.250  
G28  20770306.620        6094.140         365.829          48.250  
> 2018  4 22 11 21 14.0688020  0  6                     
G 1  22874440.672       38146.146        2013.535          49.250  
G 3  21494781.051      -15351.202        -817.506          43.000  
G11  23536333.075       36628.509        2022.778          44.000  
G17  21202065.076      -41595.305       -2313.472          52.000  
G22  23048246.750       14140.713         813.594          46.250  
G28  20772146.548        6130.670         365.417          48.000  
> 2018  4 22 11 21 14.1688020  0  6                     
G 1  22876310.512       38347.550        2014.087          49.000  
G 3  21496597.637      -15432.918        -817.816          42.500  
G11  23538202.192       36830.799        2023.513          43.750  
G17  21203852.620      -41826.613       -2313.121          52.000  
G22  23050092.851       14222.028         813.172          46.500  
G28  20773984.068        6167.193         365.949          48.000  
> 2018  4 22 11 21 14.2688020  0  6                     
G 1  22878180.380       38548.980        2014.225          49.250  
G 3  21498413.436      -15514.614        -816.630          42.250  
G11  23540071.737       37033.101        2022.670          43.750  
G17  21205640.152      -42057.917       -2313.459          52.000  
G22  23051940.721       14303.356         812.671          46.500  
G28  20775821.816        6203.748         364.977          48.000  
> 2018  4 22 11 21 14.3688020  0  6                     
G 1  22880050.092       38750.341        2013.611          49.000  
G 3  21500228.830      -15596.373        -817.880          42.250  
G11  23541942.103       37235.357        2022.630          43.750  
G17  21207427.843      -42289.267       -2313.932          52.250  
G22  23053787.471       14384.644         812.451          46.250  
G28  20777662.636        6240.242         364.672          48.000  
> 2018  4 22 11 21 14.4688020  0  6                     
G 1  22881919.987       38951.736        2013.949          49.250  
G 3  21502044.653      -15678.098        -817.807          42.500  
G11  23543811.477       37437.623        2022.425          44.000  
G17  21209215.441      -42520.603       -2313.818          52.000  
G22  23055635.571       14465.952         812.869          46.500  
G28  20779500.078        6276.768         364.893          48.000  
> 2018  4 22 11 21 14.5688020  0  6                     
G 1  22883789.530       39153.088        2013.673          49.250  
G 3  21503859.979      -15759.860        -817.463          42.250  
G11  23545681.349       37639.861        2022.281          44.000  
G17  21211003.197      -42751.974       -2314.120          52.000  
G22  23057483.185       14547.228         812.602          46.250  
G28  20781339.118        6313.255         364.678          47.750  
> 2018  4 22 11 21 14.6688020  0  6                     
G 1  22885659.918       39354.367        2013.582          49.250  
G 3  21505675.932      -15841.699        -818.627          42.500  
G11  23547551.651       37842.010        2022.840          43.750  
G17  21212790.287      -42983.429       -2314.690          52.000  
G22  23059329.487       14628.419         811.966          46.500  
G28  20783177.696        6349.671         364.334          47.750  
> 2018  4 22 11 21 14.7688020  0  6                     
G 1  22887529.437       39555.632        2012.664          49.000  
G 3  21507493.137      -15923.526        -819.379          42.250  
G11  23549423.644       38044.157        2021.013          44.000  
G17  21214577.702      -43214.869       -2314.753          52.000  
G22  23061175.877       14709.640         811.863          46.500  
G28  20785015.129        6386.097         363.742          47.750  
> 2018  4 22 11 21 14.8688020  0  6                     
G 1  22889399.935       39756.860        2012.042          49.000  
G 3  21509309.012      -16005.372        -819.239          42.500  
G11  23551293.672       38246.264        2020.313          44.000  
G17  21216365.395      -43446.355       -2315.156          52.000  
G22  23063023.642       14790.791         811.679          46.500  
G28  20786854.459        6422.474         364.290          47.750  
> 2018  4 22 11 21 14.9688020  0  6                     
G 1  22891270.310       39958.071        2012.901          49.250  
G 3  21511124.869      -16087.264        -818.558          42.250  
G11  23553164.186       38448.370        2022.811          44.000  
G17  21218153.044      -43677.854       -2314.460          52.000  
G22  23064870.065       14871.944         812.454          46.500  
G28  20788692.015        6458.853         365.083          47.750  
> 2018  4 22 11 21 15.0688020  0  6                     
G 1  22893139.997       40159.382        2012.998          49.000  
G 3  21512940.456      -16169.045        -818.256          42.250  
G11  23555033.931       38650.544        2021.700          43.750  
G17  21219940.538      -43909.268       -2314.247          52.000  
G22  23066717.404       14953.206         812.811          46.500  
G28  20790529.943        6495.315         364.890          47.750  
> 2018  4 22 11 21 15.1688020  0  6                     
G 1  22895009.742       40360.713        2013.453          49.250  
G 3  21514755.576      -16250.784        -817.658          42.250  
G11  23556904.024       38852.759        2022.111          44.250  
G17  21221727.704      -44140.653       -2314.055          52.000  
G22  23068565.078       15034.472         812.742          46.250  
G28  20792370.135        6531.806         365.317          47.750  
> 2018  4 22 11 21 15.2688020  0  6                     
G 1  22896880.373       40562.110        2014.534          49.250  
G 3  21516570.552      -16332.474        -816.423          42.250  
G11  23558774.588       39055.047        2022.455          44.000  
G17  21223515.001      -44371.963       -2312.603          51.750  
G22  23070412.422       15115.838         813.955          46.750  
G28  20794207.093        6568.386         365.516          47.750  
> 2018  4 22 11 21 15.3688020  0  6                     
G 1  22898750.294       40763.578        2015.697          49.250  
G 3  21518388.324      -16414.069        -815.356          42.250  
G11  23560643.962       39257.369        2023.528          44.000  
G17  21225302.947      -44603.226       -2312.717          52.000  
G22  23072258.953       15197.239         814.113          46.000  
G28  20796045.989        6605.017         366.477          47.500  
> 2018  4 22 11 21 15.4688020  0  6                     
G 1  22900620.123       40965.077        2015.574          49.250  
G 3  21520205.141      -16495.635        -815.646          42.250  
G11  23562514.560       39459.753        2023.299          43.500  
G17  21227090.112      -44834.441       -2312.312          52.000  
G22  23074106.447       15278.708         815.235          46.250  
G28  20797884.902        6641.694         366.455          47.750  
> 2018  4 22 11 21 15.5688020  0  6                     
G 1  22902490.381       41166.570        2015.434          49.000  
G 3  21522021.373      -16577.204        -815.758          42.250  
G11  23564385.161       39662.124        2022.829          44.250  
G17  21228877.947      -45065.663       -2312.557          52.000  
G22  23075953.202       15360.151         813.807          46.250  
G28  20799722.223        6678.366         366.759          47.500  
> 2018  4 22 11 21 15.6688020  0  6                     
G 1  22904360.516       41368.081        2015.391          49.000  
G 3  21523837.393      -16658.735        -815.701          42.000  
G11  23566255.894       39864.512        2023.134          44.250  
G17  21230665.941      -45296.867       -2312.224          52.000  
G22  23077799.188       15441.631         814.797          46.500  
G28  20801562.034        6715.066         367.005          47.750  
> 2018  4 22 11 21 15.7688020  0  6                     
G 1  22906230.547       41569.603        2016.379          49.250  
G 3  21525652.885      -16740.261        -814.683          42.500  
G11  23568126.267       40066.902        2024.491          44.000  
G17  21232453.435      -45528.068       -2311.883          52.000  
G22  23079647.113       15523.111         814.594          46.250  
G28  20803400.072        6751.763         367.584          47.500  
> 2018  4 22 11 21 15.8688020  0  6                     
G 1  22908100.423       41771.093        2015.843          49.000  
G 3  21527467.503      -16821.807        -815.512          42.000  
G11  23569995.848       40269.283        2024.113          44.000  
G17  21234241.058      -45759.274       -2312.130          52.000  
G22  23081494.999       15604.596         814.912          46.250  
G28  20805238.568        6788.462         366.236          47.750  
> 2018  4 22 11 21 15.9688020  0  6                     
G 1  22909970.106       41972.544        2014.401          49.000  
G 3  21529285.076      -16903.388        -816.047          42.250  
G11  23571865.707       40471.620        2023.340          44.000  
G17  21236028.873      -45990.531       -2312.872          52.000  
G22  23083341.546       15686.015         814.111          46.500  
G28  20807077.788        6825.114         366.340          47.750  
> 2018  4 22 11 21 16.0688020  0  6                     
G 1  22911840.420       42173.976        2014.442          49.000  
G 3  21531101.392      -16984.983        -815.773          42.000  
G11  23573735.223       40673.929        2023.611          44.000  
G17  21237816.342      -46221.816       -2312.244          52.000  
G22  23085188.326       15767.427         813.976          46.250  
G28  20808914.377        6861.747         366.743          47.750  
> 2018  4 22 11 21 16.1688020  0  6                     
G 1  22913710.221       42375.428        2014.631          49.000  
G 3  21532918.326      -17066.548        -815.643          42.250  
G11  23575605.179       40876.261        2023.598          44.250  
G17  21239604.234      -46453.061       -2312.149          52.000  
G22  23087035.305       15848.879         815.680          46.500  
G28  20810754.617        6898.406         367.068          47.750  
> 2018  4 22 11 21 16.2688020  0  6                     
G 1  22915579.503       42576.916        2014.490          49.000  
G 3  21534733.956      -17148.078        -815.434          42.250  
G11  23577475.172       41078.622        2023.226          44.250  
G17  21241391.706      -46684.284       -2312.890          52.000  
G22  23088882.723       15930.350         814.268          46.500  
G28  20812593.213        6935.103         366.234          47.750  
> 2018  4 22 11 21 16.3688020  0  6                     
G 1  22917448.988       42778.364        2014.949          49.000  
G 3  21536549.063      -17229.655        -814.907          42.000  
G11  23579345.146       41280.944        2023.720          44.250  
G17  21243179.411      -46915.555       -2312.547          52.000  
G22  23090729.425       16011.767         814.146          46.500  
G28  20814430.713        6971.760         366.932          47.750  
> 2018  4 22 11 21 16.4688020  0  6                     
G 1  22919318.714       42979.750        2013.479          49.000  
G 3  21538364.926      -17311.265        -816.327          42.250  
G11  23581215.314       41483.200        2021.065          44.250  
G17  21244966.448      -47146.866       -2313.830          52.000  
G22  23092576.733       16093.165         812.614          46.500  
G28  20816271.625        7008.370         365.264          47.500  
> 2018  4 22 11 21 16.5688020  0  6                     
G 1  22921189.051       43181.090        2013.560          49.000  
G 3  21540180.590      -17392.944        -817.295          42.000  
G11  23583086.014       41685.425        2021.557          44.500  
G17  21246754.113      -47378.243       -2314.202          52.000  
G22  23094424.696       16174.495         813.160          46.500  
G28  20818108.546        7044.931         365.166          47.750  
> 2018  4 22 11 21 16.6688020  0  6                     
G 1  22923057.901       43382.400        2013.099          49.000  
G 3  21541996.697      -17474.627        -817.486          42.250  
G11  23584956.672       41887.603        2022.412          44.000  
G17  21248541.694      -47609.642       -2314.234          52.000  
G22  23096271.958       16255.807         812.877          46.250  
G28  20819947.256        7081.464         365.360          47.500  
> 2018  4 22 11 21 16.7688020  0  6                     
G 1  22924927.971       43583.691        2013.714          48.750  
G 3  21543813.565      -17556.317        -817.157          42.500  
G11  23586826.423       42089.788        2022.716          44.000  
G17  21250329.249      -47841.041       -2313.180          52.000  
G22  23098118.021       16337.101         813.146          46.500  
G28  20821786.819        7117.994         365.491          47.750  
> 2018  4 22 11 21 16.8688020  0  6                     
G 1  22926797.839       43785.016        2012.642          49.000  
G 3  21545627.787      -17637.956        -818.187          41.750  
G11  23588696.448       42291.974        2021.940          44.000  
G17  21252117.066      -48072.421       -2314.406          52.000  
G22  23099964.887       16418.447         812.783          46.250  
G28  20823624.225        7154.563         365.146          47.500  
> 2018  4 22 11 21 16.9688020  0  6                     
G 1  22928667.927       43986.320        2013.115          49.250  
G 3  21547443.242      -17719.659        -816.698          42.000  
G11  23590565.672       42494.143        2021.457          44.250  
G17  21253904.020      -48303.831       -2314.215          52.000  
G22  23101811.076       16499.757         813.287          46.250  
G28  20825464.305        7191.093         365.029          47.750  
> 2018  4 22 11 21 17.0688020  0  6                     
G 1  22930538.087       44187.587        2013.461          49.250  
G 3  21549258.889      -17801.365        -817.586          42.250  
G11  23592435.995       42696.291        2021.497          44.000  
G17  21255691.908      -48535.269       -2314.401          52.000  
G22  23103658.095       16581.032         812.408          46.250  
G28  20827302.064        7227.604         365.745          47.750  
> 2018  4 22 11 21 17.1688020  0  6                     
G 1  22932408.076       44388.870        2013.597          49.250  
G 3  21551074.319      -17883.037        -816.977          42.000  
G11  23594306.330       42898.456        2022.533          44.000  
G17  21257479.062      -48766.684       -2313.333          52.000  
G22  23105505.699       16662.340         812.966          46.750  
G28  20829140.153        7264.143         366.308          47.750  
> 2018  4 22 11 21 17.2688020  0  6                     
G 1  22934278.036       44590.244        2014.527          49.250  
G 3  21552890.782      -17964.620        -815.765          42.000  
G11  23596176.085       43100.695        2021.836          44.000  
G17  21259266.416      -48998.013       -2313.311          52.000  
G22  23107353.072       16743.741         814.138          46.500  
G28  20830980.346        7300.764         366.588          47.750  
> 2018  4 22 11 21 17.3688020  0  6                     
G 1  22936147.532       44791.692        2015.005          48.750  
G 3  21554708.455      -18046.131        -814.167          42.250  
G11  23598046.032       43303.010        2023.998          44.250  
G17  21261054.452      -49229.270       -2312.307          52.000  
G22  23109201.159       16825.209         814.906          46.500  
G28  20832817.509        7337.466         367.268          48.000  
> 2018  4 22 11 21 17.4688020  0  6                     
G 1  22938017.490       44993.206        2015.921          49.250  
G 3  21556526.169      -18127.577        -814.550          42.250  
G11  23599917.140       43505.383        2024.335          44.250  
G17  21262841.838      -49460.461       -2311.830          52.000  
G22  23111047.267       16906.769         817.027          46.500  
G28  20834656.804        7374.241         368.854          47.750  
> 2018  4 22 11 21 17.5688020  0  6                     
G 1  22939887.192       45194.777        2016.392          49.250  
G 3  21558341.603      -18208.944        -813.238          42.000  
G11  23601787.010       43707.847        2024.881          44.250  
G17  21264629.658      -49691.584       -2310.789          52.000  
G22  23112893.718       16988.366         817.116          46.250  
G28  20836495.589        7411.076         369.278          47.750  
> 2018  4 22 11 21 17.6688020  0  6                     
G 1  22941756.702       45396.431        2017.140          49.250  
G 3  21560157.496      -18290.215        -811.924          42.000  
G11  23603656.976       43910.373        2025.693          44.000  
G17  21266417.605      -49922.628       -2310.219          51.750  
G22  23114740.077       17070.064         817.275          46.250  
G28  20838333.339        7448.004         369.339          47.500  
> 2018  4 22 11 21 17.7688020  0  6                     
G 1  22943626.272       45598.103        2017.440          49.000  
G 3  21561973.904      -18371.493        -812.791          42.250  
G11  23605527.845       44112.913        2026.514          43.750  
G17  21268205.005      -50153.661       -2310.156          51.750  
G22  23116588.179       17151.763         817.127          46.750  
G28  20840174.094        7484.932         369.219          47.750  
> 2018  4 22 11 21 17.8688020  0  6                     
G 1  22945496.664       45799.788        2017.225          49.000  
G 3  21563789.049      -18452.730        -811.420          41.500  
G11  23607398.142       44315.478        2026.401          44.000  
G17  21269992.742      -50384.660       -2310.301          51.750  
G22  23118435.836       17233.505         817.030          46.000  
G28  20842010.830        7521.908         369.579          47.750  
> 2018  4 22 11 21 17.9688020  0  6                     
G 1  22947366.709       46001.504        2017.540          49.000  
G 3  21565605.735      -18533.947        -812.224          42.000  
G11  23609268.216       44518.053        2025.914          44.250  
G17  21271780.153      -50615.645       -2309.716          52.000  
G22  23120282.140       17315.271         817.878          46.250  
G28  20843849.613        7558.899         369.838          47.750  
> 2018  4 22 11 21 18.0688020  0  6                     
G 1  22949237.282       46203.196        2016.715          49.000  
G 3  21567422.696      -18615.166        -813.052          41.750  
G11  23611136.563       44720.552        1972.484          43.750  
G17  21273568.084      -50846.651       -2310.622          52.000  
G22  23122129.265       17397.025         817.743          46.750  
G28  20845688.488        7595.876         369.022          47.750  
> 2018  4 22 11 21 18.3688020  0  6                     
G 1  22954846.163       46808.200        2015.483          49.000  
G 3  21572868.525      -18858.877        -813.869          42.250  
G11  23616745.259       45328.251        2024.637          44.000  
G17  21278931.020      -51539.721       -2311.147          52.000  
G22  23127670.966       17642.216         816.827          46.250  
G28  20851204.607        7706.773         368.782          47.750  
> 2018  4 22 11 21 18.4688020  0  6                     
G 1  22956715.877       47009.778        2015.237          49.000  
G 3  21574684.684      -18940.187        -812.769          42.000  
G11  23618615.598       45530.699        2024.089          44.250  
G17  21280718.279      -51770.834       -2311.584          52.000  
G22  23129517.724       17723.873         816.576          46.250  
G28  20853042.734        7743.666         368.714          47.750  
> 2018  4 22 11 21 18.5688020  0  6                     
G 1  22958585.366       47211.316        2014.827          49.000  
G 3  21576499.778      -19021.540        -814.465          41.500  
G11  23620487.219       45733.109        2023.678          43.750  
G17  21282506.094      -52001.987       -2312.240          52.000  
G22  23131363.999       17805.463         814.814          46.250  
G28  20854882.529        7780.510         367.830          48.000  
> 2018  4 22 11 21 18.6688020  0  6                     
G 1  22960455.966       47412.751        2013.770          49.000  
G 3  21578316.523      -19102.972        -815.044          42.000  
G11  23622357.829       45935.401        2022.624          43.500  
G17  21284293.385      -52233.250       -2313.082          52.000  
G22  23133211.244       17886.974         813.836          46.500  
G28  20856719.328        7817.244         366.567          48.000  
> 2018  4 22 11 21 18.7688020  0  6                     
G 1  22962325.451       47614.103        2013.945          49.000  
G 3  21580133.885      -19184.511        -815.513          42.000  
G11  23624227.716       46137.626        2021.805          43.750  
G17  21286080.683      -52464.576       -2313.114          51.750  
G22  23135058.680       17968.416         814.651          46.250  
G28  20858558.753        7853.914         366.566          48.000  
> 2018  4 22 11 21 18.8688020  0  6                     
G 1  22964195.552       47815.438        2012.896          48.750  
G 3  21581950.507      -19266.052        -816.633          42.500  
G11  23626097.317       46339.839        2022.192          43.750  
G17  21287868.553      -52695.928       -2313.581          51.750  
G22  23136905.886       18049.835         814.464          46.250  
G28  20860396.904        7890.567         366.092          47.750  
> 2018  4 22 11 21 18.9688020  0  6                     
G 1  22966065.382       48016.743        2012.721          49.000  
G 3  21583766.726      -19347.625        -815.360          41.500  
G11  23627967.226       46541.996        2021.895          43.500  
G17  21289655.909      -52927.322       -2314.020          52.000  
G22  23138753.384       18131.211         813.604          46.250  
G28  20862235.007        7927.188         366.214          47.750  
> 2018  4 22 11 21 19.0688020  0  6                     
G 1  22967935.397       48217.984        2012.152          48.750  
G 3  21585582.195      -19429.230        -815.669          41.750  
G11  23629836.957       46744.116        2020.036          43.500  
G17  21291443.693      -53158.768       -2314.897          51.750  
G22  23140600.733       18212.547         812.680          46.750  
G28  20864074.977        7963.763         365.927          47.750  
> 2018  4 22 11 21 19.1688020  0  6                     
G 1  22969805.457       48419.168        2011.626          49.000  
G 3  21587397.221      -19510.900        -817.331          41.250  
G11  23631705.829       46946.162        2021.094          43.750  
G17  21293231.300      -53390.285       -2315.886          52.000  
G22  23142448.365       18293.822         811.866          46.500  
G28  20865911.803        8000.264         364.858          47.750  
> 2018  4 22 11 21 19.2688020  0  6                     
G 1  22971675.143       48620.312        2011.325          49.000  
G 3  21589212.359      -19592.621        -817.740          42.250  
G11  23633576.223       47148.177        2020.562          43.750  
G17  21295018.801      -53621.830       -2316.161          52.250  
G22  23144294.586       18375.073         812.300          46.750  
G28  20867750.371        8036.750         364.822          47.750  
> 2018  4 22 11 21 19.3688020  0  6                     
G 1  22973544.765       48821.462        2011.888          48.750  
G 3  21591028.588      -19674.297        -817.299          42.000  
G11  23635446.019       47350.196        2020.341          43.750  
G17  21296806.081      -53853.346       -2314.877          52.250  
G22  23146142.284       18456.324         813.212          46.500  
G28  20869590.154        8073.248         365.349          47.750  
> 2018  4 22 11 21 19.4688020  0  6                     
G 1  22975414.573       49022.719        2012.832          49.000  
G 3  21592846.109      -19755.880        -815.713          42.000  
G11  23637316.608       47552.331        2022.015          44.000  
G17  21298593.027      -54084.777       -2314.177          51.750  
G22  23147988.549       18537.680         813.578          46.250  
G28  20871427.183        8109.849         366.433          48.000  
> 2018  4 22 11 21 19.5688020  0  6                     
G 1  22977284.383       49224.031        2013.266          49.000  
G 3  21594662.731      -19837.389        -816.169          41.250  
G11  23639185.981       47754.511        2021.946          44.000  
G17  21300380.796      -54316.146       -2313.678          51.750  
G22  23149835.190       18619.108         814.234          46.500  
G28  20873266.776        8146.504         366.117          48.000  
> 2018  4 22 11 21 19.6688020  0  6                     
G 1  22979154.091       49425.489        2014.714          48.750  
G 3  21596478.246      -19918.767        -813.392          41.250  
G11  23641056.410       47956.833        2024.327          43.750  
G17  21302168.428      -54547.376       -2312.066          51.750  
G22  23151683.079       18700.670         815.941          46.500  
G28  20875104.358        8183.312         368.282          47.750  
> 2018  4 22 11 21 19.7688020  0  6                     
G 1  22981023.422       49626.947        2014.797          48.750  
G 3  21598293.965      -20000.138        -813.495          42.000  
G11  23642925.853       48159.169        2023.143          44.000  
G17  21303956.258      -54778.598       -2312.180          52.250  
G22  23153529.990       18782.255         815.145          46.500  
G28  20876941.947        8220.134         367.959          47.750  
> 2018  4 22 11 21 19.8688020  0  6                     
G 1  22982893.868       49828.485        2015.347          48.750  
G 3  21600109.655      -20081.428        -812.933          41.750  
G11  23644797.335       48361.552        2023.968          44.250  
G17  21305744.000      -55009.744       -2311.510          52.000  
G22  23155377.673       18863.918         816.470          46.500  
G28  20878782.902        8257.022         368.730          48.000  
> 2018  4 22 11 21 19.9688020  0  6                     
G 1  22984763.932       50030.038        2015.616          48.750  
G 3  21601925.581      -20162.681        -812.936          41.750  
G11  23646667.003       48563.979        2025.126          43.750  
G17  21307531.521      -55240.876       -2311.235          52.000  
G22  23157224.720       18945.591         816.905          46.500  
G28  20880620.379        8293.951         369.499          48.000  
> 2018  4 22 11 21 20.0688020  0  6                     
G 1  22986633.894       50231.560        2015.356          49.000  
G 3  21603742.766      -20243.961        -813.488          42.000  
G11  23648537.866       48766.373        2023.584          44.000  
G17  21309319.449      -55472.034       -2311.653          52.000  
G22  23159071.163       19027.237         816.838          46.750  
G28  20882460.022        8330.843         368.921          48.000  
> 2018  4 22 11 21 20.1688020  0  6                     
G 1  22988503.528       50433.085        2015.220          49.000  
G 3  21605559.558      -20325.229        -814.247          41.500  
G11  23650407.995       48968.755        2024.448          43.750  
G17  21311106.777      -55703.197       -2312.324          52.000  
G22  23160918.922       19108.882         816.074          46.000  
G28  20884298.938        8367.728         369.380          47.750  
> 2018  4 22 11 21 20.2688020  0  6                     
G 1  22990374.129       50634.566        2014.992          48.250  
G 3  21607374.676      -20406.539        -812.853          41.750  
G11  23652278.493       49171.106        2024.096          43.500  
G17  21312894.266      -55934.380       -2311.997          51.500  
G22  23162765.899       19190.505         816.039          46.750  
G28  20886136.788        8404.591         368.944          47.750  
> 2018  4 22 11 21 20.3688020  0  6                     
G 1  22992243.704       50836.023        2014.627          48.750  
G 3  21609191.519      -20487.903        -814.400          42.000  
G11  23654147.836       49373.437        2023.018          43.750  
G17  21314682.311      -56165.612       -2311.816          51.750  
G22  23164614.070       19272.099         816.242          46.750  
G28  20887977.329        8441.426         368.231          47.750  
> 2018  4 22 11 21 20.4688020  0  6                     
G 1  22994112.587       51037.460        2014.259          48.750  
G 3  21611007.438      -20569.234        -813.346          41.500  
G11  23656017.955       49575.734        2023.248          44.250  
G17  21316469.501      -56396.847       -2312.814          52.000  
G22  23166462.063       19353.692         815.370          46.500  
G28  20889815.154        8478.265         367.846          48.000  
> 2018  4 22 11 21 20.5688020  0  6                     
G 1  22995983.015       51238.861        2013.827          48.750  
G 3  21612825.545      -20650.598        -814.310          41.750  
G11  23657888.183       49778.004        2022.418          44.000  
G17  21318257.252      -56628.119       -2313.355          52.000  
G22  23168308.104       19435.244         815.533          46.250  
G28  20891653.605        8515.049         367.017          47.750  
> 2018  4 22 11 21 20.6688020  0  6                     
G 1  22997852.763       51440.219        2013.322          48.750  
G 3  21614642.550      -20731.997        -814.193          41.750  
G11  23659758.450       49980.229        2022.323          43.750  
G17  21320044.723      -56859.446       -2313.310          51.750  
G22  23170154.599       19516.750         814.143          46.750  
G28  20893492.516        8551.804         367.209          48.000  
> 2018  4 22 11 21 20.7688020  0  6                     
G 1  22999722.499       51641.472        2012.116          48.750  
G 3  21616457.877      -20813.520        -816.184          41.500  
G11  23661627.858       50182.352        2022.703          43.750  
G17  21321831.891      -57090.861       -2314.120          52.000  
G22  23172001.376       19598.160         814.487          46.750  
G28  20895328.767        8588.457         366.478          48.000  
> 2018  4 22 11 21 20.8688020  0  6                     
G 1  23001592.803       51842.798        2013.471          49.000  
G 3  21618274.298      -20894.944        -813.899          42.000  
G11  23663497.600       50384.530        2022.368          43.750  
G17  21323620.090      -57322.212       -2313.612          52.000  
G22  23173848.588       19679.639         814.963          46.500  
G28  20897168.157        8625.186         367.813          47.750  
> 2018  4 22 11 21 20.9688020  0  6                     
G 1  23003463.128       52044.153        2013.932          48.750  
G 3  21620089.938      -20976.366        -814.816          42.000  
G11  23665367.691       50586.761        2022.589          43.500  
G17  21325407.851      -57553.531       -2313.026          52.000  
G22  23175695.804       19761.152         815.687          46.500  
G28  20899007.408        8661.940         367.594          48.000  
> 2018  4 22 11 21 21.0688020  0  6                     
G 1  23005332.917       52245.591        2015.133          48.750  
G 3  21621905.193      -21057.668        -812.216          41.750  
G11  23667237.977       50789.056        2023.799          43.750  
G17  21327195.477      -57784.758       -2311.543          52.000  
G22  23177542.291       19842.763         816.629          46.750  
G28  20900846.081        8698.793         369.198          48.000  
> 2018  4 22 11 21 21.1688020  0  6                     
G 1  23007202.346       52447.072        2015.380          48.750  
G 3  21623721.901      -21138.947        -812.990          41.750  
G11  23669109.046       50991.404        2024.137          43.750  
G17  21328982.642      -58015.961       -2311.498          52.000  
G22  23179390.097       19924.413         816.516          46.750  
G28  20902686.298        8735.692         370.143          48.000  
> 2018  4 22 11 21 21.2688020  0  6                     
G 1  23009072.995       52648.630        2016.451          48.750  
G 3  21625537.360      -21220.117        -811.356          41.750  
G11  23670978.278       51193.835        2024.883          43.750  
G17  21330770.191      -58247.070       -2310.971          51.750  
G22  23181236.833       20006.145         817.808          46.750  
G28  20904522.963        8772.676         370.403          47.750  
> 2018  4 22 11 21 21.3688020  0  6                     
G 1  23010943.023       52850.227        2016.060          48.500  
G 3  21627354.004      -21301.243        -810.998          41.500  
G11  23672848.948       51396.297        2025.038          43.750  
G17  21332557.806      -58478.139       -2310.795          51.750  
G22  23183083.465       20087.921         817.618          46.500  
G28  20906362.157        8809.700         371.145          48.000  
> 2018  4 22 11 21 21.4688020  0  6                     
G 1  23012812.803       53051.856        2016.211          48.750  
G 3  21629170.486      -21382.343        -811.280          41.000  
G11  23674718.003       51598.789        2025.627          43.750  
G17  21334345.250      -58709.178       -2310.064          52.000  
G22  23184930.110       20169.741         818.426          47.000  
G28  20908200.206        8846.757         371.608          47.750  
> 2018  4 22 11 21 21.5688020  0  6                     
G 1  23014682.827       53253.532        2017.078          48.750  
G 3  21630985.921      -21463.394        -811.327          41.500  
G11  23676588.100       51801.326        2026.100          43.750  
G17  21336133.192      -58940.174       -2309.686          51.750  
G22  23186777.733       20251.594         818.130          46.750  
G28  20910037.541        8883.866         371.907          47.750  
> 2018  4 22 11 21 21.6688020  0  6                     
G 1  23016552.456       53455.273        2017.532          48.500  
G 3  21632802.563      -21544.373        -809.990          41.750  
G11  23678459.610       52003.926        2026.453          43.500  
G17  21337920.609      -59171.108       -2309.332          51.750  
G22  23188625.137       20333.521         819.803          46.750  
G28  20911877.394        8921.022         371.262          47.750  
> 2018  4 22 11 21 21.7688020  0  6                     
G 1  23018422.559       53656.988        2017.231          48.500  
G 3  21634617.503      -21625.340        -809.074          41.500  
G11  23680329.128       52206.512        2025.608          43.750  
G17  21339708.306      -59402.058       -2309.348          51.750  
G22  23190472.810       20415.435         819.323          46.750  
G28  20913714.891        8958.192         372.299          48.000  
> 2018  4 22 11 21 21.8688020  0  6                     
G 1  23020293.133       53858.732        2017.608          48.750  
G 3  21636433.615      -21706.313        -808.862          41.500  
G11  23682199.225       52409.119        2026.482          43.500  
G17  21341495.448      -59632.988       -2309.079          51.750  
G22  23192319.954       20497.368         819.742          46.500  
G28  20915553.078        8995.372         372.188          48.000  
> 2018  4 22 11 21 21.9688020  0  6                     
G 1  23022162.659       54060.448        2017.038          48.750  
G 3  21638250.118      -21787.312        -810.341          41.750  
G11  23684068.936       52611.688        2026.346          43.750  
G17  21343282.757      -59863.938       -2309.545          51.500  
G22  23194167.557       20579.286         819.066          46.500  
G28  20917393.723        9032.545         371.764          48.000  
> 2018  4 22 11 21 22.0688020  0  6                     
G 1  23024032.794       54262.191        2018.086          48.750  
G 3  21640066.636      -21868.265        -810.650          42.000  
G11  23685939.494       52814.305        2026.911          43.750  
G17  21345070.736      -60094.863       -2309.452          51.750  
G22  23196015.312       20661.226         819.127          46.750  
G28  20919230.221        9069.744         372.352          48.000  
> 2018  4 22 11 21 22.1688020  0  6                     
G 1  23025903.249       54463.922        2017.431          49.000  
G 3  21641882.812      -21949.212        -810.244          41.750  
G11  23687809.662       53016.888        2026.150          43.500  
G17  21346858.935      -60325.792       -2309.811          51.750  
G22  23197862.481       20743.172         819.868          46.750  
G28  20921069.543        9106.945         371.807          47.750  
> 2018  4 22 11 21 22.2688020  0  6                     
G 1  23027773.353       54665.660        2017.939          48.750  
G 3  21643698.548      -22030.177        -810.206          41.500  
G11  23689679.960       53219.487        2026.737          43.500  
G17  21348646.653      -60556.728       -2309.346          51.750  
G22  23199708.543       20825.118         819.617          46.750  
G28  20922908.734        9144.124         371.860          47.500  
> 2018  4 22 11 21 22.3688020  0  6                     
G 1  23029643.611       54867.374        2017.538          48.750  
G 3  21645514.425      -22111.125        -809.806          41.250  
G11  23691549.926       53422.053        2026.498          43.250  
G17  21350433.978      -60787.674       -2309.653          51.750  
G22  23201555.661       20907.039         819.416          46.500  
G28  20924746.643        9181.308         371.452          47.750  
> 2018  4 22 11 21 22.4688020  0  6                     
G 1  23031512.980       55069.034        2016.143          48.500  
G 3  21647329.664      -22192.140        -810.474          41.000  
G11  23693419.239       53624.588        2025.199          43.250  
G17  21352221.373      -61018.669       -2310.063          51.750  
G22  23203402.028       20988.931         819.929          46.500  
G28  20926587.737        9218.429         370.751          47.750  
> 2018  4 22 11 21 22.5688020  0  6                     
G 1  23033383.081       55270.635        2016.018          48.750  
G 3  21649145.693      -22273.194        -810.637          40.750  
G11  23695290.460       53827.043        2025.077          43.500  
G17  21354009.199      -61249.744       -2310.979          51.750  
G22  23205248.741       21070.748         818.499          46.500  
G28  20928424.298        9255.512         370.935          48.000  
> 2018  4 22 11 21 22.6688020  0  6                     
G 1  23035252.566       55472.215        2016.211          48.750  
G 3  21650962.447      -22354.267        -809.869          41.250  
G11  23697159.655       54029.486        2025.880          43.750  
G17  21355796.648      -61480.823       -2310.777          51.500  
G22  23207095.798       21152.558         819.424          46.250  
G28  20930263.328        9292.562         371.203          47.750  
> 2018  4 22 11 21 22.7688020  0  6                     
G 1  23037122.924       55673.757        2015.099          48.750  
G 3  21652778.362      -22435.372        -811.743          41.500  
G11  23699030.241       54231.904        2024.543          43.750  
G17  21357584.221      -61711.932       -2311.552          51.750  
G22  23208943.257       21234.343         817.524          46.500  
G28  20932101.885        9329.605         369.437          47.750  
> 2018  4 22 11 21 22.8688020  0  6                     
G 1  23038992.838       55875.321        2015.928          48.750  
G 3  21654594.438      -22516.468        -811.222          41.250  
G11  23700899.921       54434.318        2024.932          43.250  
G17  21359371.666      -61943.031       -2311.463          51.500  
G22  23210790.817       21316.126         818.049          46.750  
G28  20933939.934        9366.654         370.821          47.750  
> 2018  4 22 11 21 22.9688020  0  6                     
G 1  23040863.152       56076.869        2016.207          48.750  
G 3  21656409.599      -22597.547        -809.283          41.500  
G11  23702770.239       54636.717        2025.675          43.500  
G17  21361158.930      -62174.141       -2310.573          51.750  
G22  23212637.955       21397.901         817.946          46.750  
G28  20935779.779        9403.687         371.264          47.750  
> 2018  4 22 11 21 23.0688020  0  6                     
G 1  23042732.875       56278.475        2016.964          48.750  
G 3  21658225.778      -22678.592        -808.672          41.250  
G11  23704640.152       54839.198        2026.366          43.250  
G17  21362946.633      -62405.192       -2310.417          51.750  
G22  23214486.427       21479.752         819.368          46.500  
G28  20937616.825        9440.793         372.135          47.750  
> 2018  4 22 11 21 23.1688020  0  6                     
G 1  23044603.110       56480.147        2016.825          48.500  
G 3  21660041.657      -22759.565        -810.625          41.750  
G11  23706512.257       55041.694        2024.853          43.750  
G17  21364733.721      -62636.191       -2310.777          51.750  
G22  23216334.446       21561.656         818.413          46.750  
G28  20939455.122        9477.946         371.496          47.750  
> 2018  4 22 11 21 23.2688020  0  6                     
G 1  23046472.530       56681.821        2017.058          48.500  
G 3  21661858.454      -22840.504        -809.498          42.000  
G11  23708382.930       55244.244        2026.079          43.500  
G17  21366521.221      -62867.167       -2310.053          51.500  
G22  23218181.734       21643.589         819.238          46.750  
G28  20941295.956        9515.132         372.345          47.750  
> 2018  4 22 11 21 23.3688020  0  6                     
G 1  23048342.104       56883.579        2017.514          48.750  
G 3  21663674.884      -22921.396        -808.901          41.500  
G11  23710252.927       55446.858        2026.618          43.500  
G17  21368308.787      -63098.071       -2309.313          51.750  
G22  23220028.656       21725.598         820.194          46.500  
G28  20943132.693        9552.396         372.941          48.000  
> 2018  4 22 11 21 23.4688020  0  6                     
G 1  23050212.625       57085.339        2017.964          48.750  
G 3  21665492.044      -23002.241        -808.807          41.250  
G11  23712123.342       55649.476        2026.682          43.500  
G17  21370096.466      -63328.964       -2308.593          51.750  
G22  23221876.211       21807.607         819.444          47.000  
G28  20944972.170        9589.664         372.995          47.750  
> 2018  4 22 11 21 23.5688020  0  6                     
G 1  23052082.291       57287.108        2018.730          49.000  
G 3  21667306.735      -23083.055        -807.191          41.250  
G11  23713992.661       55852.113        2026.712          43.500  
G17  21371884.152      -63559.844       -2308.368          51.750  
G22  23223723.594       21889.636         820.046          47.250  
G28  20946810.932        9626.953         372.952          47.750  
> 2018  4 22 11 21 23.6688020  0  6                     
G 1  23053952.212       57488.911        2018.167          49.000  
G 3  21669122.512      -23163.859        -808.160          41.000  
G11  23715862.672       56054.774        2026.460          43.000  
G17  21373671.783      -63790.689       -2308.845          51.750  
G22  23225570.651       21971.697         820.575          46.750  
G28  20948649.322        9664.280         373.386          48.000  
> 2018  4 22 11 21 23.7688020  0  6                     
G 1  23055821.980       57690.720        2018.010          48.750  
G 3  21670937.006      -23244.668        -808.165          40.750  
G11  23717733.349       56257.442        2026.531          43.500  
G17  21375459.422      -64021.546       -2308.707          51.750  
G22  23227417.389       22053.777         821.147          46.500  
G28  20950490.432        9701.606         373.090          48.250  
> 2018  4 22 11 21 23.8688020  0  6                     
G 1  23057692.166       57892.520        2018.318          48.750  
G 3  21672753.291      -23325.446        -808.312          40.500  
G11  23719602.599       56460.100        2027.688          43.250  
G17  21377247.441      -64252.386       -2308.322          52.000  
G22  23229264.472       22135.861         820.742          46.750  
G28  20952326.791        9738.949         373.619          48.000  
> 2018  4 22 11 21 23.9688020  0  6                     
G 1  23059562.457       58094.364        2018.468          48.750  
G 3  21674569.788      -23406.200        -809.299          40.500  
G11  23721471.617       56662.783        2026.563          43.500  
G17  21379034.645      -64483.199       -2308.089          51.750  
G22  23231110.814       22217.981         821.044          46.750  
G28  20954165.953        9776.326         373.605          47.750  
> 2018  4 22 11 21 24.0688020  0  6                     
G 1  23061432.272       58296.236        2019.398          48.750  
G 3  21676385.883      -23486.905        -806.305          40.750  
G11  23723340.583       56865.473        2007.569          42.750  
G17  21380822.287      -64713.985       -2308.063          51.500  
G22  23232957.713       22300.116         821.737          47.000  
G28  20956004.585        9813.721         374.584          48.000  
> 2018  4 22 11 21 24.1688020  0  6                     
G 1  23063302.918       58498.139        2019.138          48.750  
G 3  21678201.629      -23567.573        -807.122          40.750  
G11  23725210.823       57068.259        2018.254          43.000  
G17  21382609.566      -64944.729       -2307.886          51.500  
G22  23234804.470       22382.310         821.349          47.000  
G28  20957842.388        9851.170         374.855          48.000  
> 2018  4 22 11 21 24.2688020  0  6                     
G 1  23065172.173       58700.018        2019.107          48.750  
G 3  21680018.055      -23648.262        -806.798          41.250  
G11  23727081.339       57271.029        2028.105          43.000  
G17  21384397.001      -65175.499       -2307.833          51.750  
G22  23236653.179       22464.472         821.862          47.000  
G28  20959682.401        9888.600         373.822          48.000  
> 2018  4 22 11 21 24.3688020  0  6                     
G 1  23067041.845       58901.908        2018.772          48.750  
G 3  21681834.922      -23728.941        -807.084          41.500  
G11  23728951.536       57473.773        2028.503          43.500  
G17  21386185.008      -65406.263       -2308.160          51.750  
G22  23238500.858       22546.653         822.320          46.750  
G28  20961519.736        9926.035         374.354          47.250  
> 2018  4 22 11 21 24.4688020  0  6                     
G 1  23068912.529       59103.768        2018.428          48.750  
G 3  21683652.042      -23809.647        -808.039          41.250  
G11  23730821.597       57676.503        2028.201          43.250  
G17  21387972.683      -65637.049       -2308.021          51.750  
G22  23240348.398       22628.804         821.707          46.750  
G28  20963358.585        9963.442         373.762          47.500  
> 2018  4 22 11 21 24.5688020  0  6                     
G 1  23070782.552       59305.591        2018.120          49.000  
G 3  21685467.774      -23890.383        -807.845          41.500  
G11  23732691.578       57879.167        2026.729          43.250  
G17  21389760.275      -65867.878       -2308.647          51.500  
G22  23242196.388       22710.921         821.162          46.750  
G28  20965199.071       10000.822         373.502          48.250  
> 2018  4 22 11 21 24.6688020  0  6                     
G 1  23072652.173       59507.404        2018.381          49.000  
G 3  21687283.952      -23971.099        -807.902          41.250  
G11  23734563.296       58081.844        2026.398          43.500  
G17  21391547.813      -66098.705       -2308.655          51.750  
G22  23244042.007       22793.040         821.479          46.500  
G28  20967035.774       10038.209         373.430          48.250  
> 2018  4 22 11 21 24.7688020  0  6                     
G 1  23074521.781       59709.193        2017.822          48.750  
G 3  21689099.479      -24051.861        -807.250          41.500  
G11  23736432.644       58284.484        2026.531          43.500  
G17  21393335.723      -66329.555       -2308.683          51.750  
G22  23245889.462       22875.129         820.456          46.500  
G28  20968875.168       10075.579         373.538          47.750  
> 2018  4 22 11 21 24.8688020  0  6                     
G 1  23076391.439       59910.944        2017.387          48.750  
G 3  21690914.961      -24132.652        -808.136          41.250  
G11  23738302.690       58487.091        2026.397          43.500  
G17  21395123.211      -66560.457       -2309.675          51.750  
G22  23247736.331       22957.188         820.218          46.750  
G28  20970713.471       10112.880         372.605          47.250  
> 2018  4 22 11 21 24.9688020  0  6                     
G 1  23078261.628       60112.678        2017.209          49.000  
G 3  21692731.077      -24213.446        -807.487          41.250  
G11  23740172.388       58689.673        2025.807          43.250  
G17  21396910.802      -66791.366       -2309.458          51.500  
G22  23249583.744       23039.241         820.461          46.750  
G28  20972551.585       10150.176         372.884          47.500  
> 2018  4 22 11 21 25.0688020  0  6                     
G 1  23080132.003       60314.423        2018.243          49.000  
G 3  21694547.818      -24294.239        -807.621          41.000  
G11  23742041.716       58892.269        2026.039          43.000  
G17  21398698.794      -67022.272       -2309.278          51.500  
G22  23251431.568       23121.299         821.307          46.750  
G28  20974392.682       10187.500         373.737          48.250  
> 2018  4 22 11 21 25.1688020  0  6                     
G 1  23082002.002       60516.152        2016.987          48.750  
G 3  21696365.720      -24375.030        -808.901          41.000  
G11  23743912.676       59094.866        2025.528          43.250  
G17  21400486.146      -67253.174       -2309.646          51.500  
G22  23253278.824       23203.341         819.935          46.750  
G28  20976230.128       10224.826         372.473          48.000  
> 2018  4 22 11 21 25.2688020  0  6                     
G 1  23083871.835       60717.818        2015.554          48.750  
G 3  21698181.877      -24455.874        -809.082          41.000  
G11  23745782.379       59297.386        2025.192          43.000  
G17  21402273.690      -67484.155       -2310.599          51.750  
G22  23255126.345       23285.335         819.018          46.750  
G28  20978070.090       10262.084         372.444          47.500  
> 2018  4 22 11 21 25.3688020  0  6                     
G 1  23085742.304       60919.453        2016.552          49.000  
G 3  21699996.249      -24536.753        -808.260          40.500  
G11  23747652.157       59499.871        2025.917          43.000  
G17  21404061.193      -67715.166       -2310.204          51.500  
G22  23256973.561       23367.295         819.834          47.000  
G28  20979908.213       10299.290         372.449          47.500  
> 2018  4 22 11 21 25.4688020  0  6                     
G 1  23087613.032       61121.071        2016.959          49.000  
G 3  21701812.481      -24617.636        -809.548          40.250  
G11  23749522.610       59702.349        2025.616          43.250  
G17  21405848.615      -67946.190       -2309.937          51.500  
G22  23258820.921       23449.235         819.951          46.750  
G28  20981746.162       10336.509         372.551          48.000  
> 2018  4 22 11 21 25.5688020  0  6                     
G 1  23089482.810       61322.659        2015.730          49.000  
G 3  21703628.584      -24698.557        -810.040          40.500  
G11  23751393.167       59904.798        2023.769          43.250  
G17  21407636.544      -68177.236       -2311.417          51.750  
G22  23260666.600       23531.174         818.773          46.750  
G28  20983586.731       10373.694         372.272          48.000  
> 2018  4 22 11 21 25.6688020  0  6                     
G 1  23091352.429       61524.266        2016.486          49.000  
G 3  21705444.245      -24779.432        -807.913          40.750  
G11  23753263.686       60107.241        2024.607          43.250  
G17  21409423.718      -68408.263       -2310.539          51.750  
G22  23262514.021       23613.104         819.548          46.750  
G28  20985423.282       10410.907         372.682          48.000  
> 2018  4 22 11 21 25.7688020  0  6                     
G 1  23093222.877       61725.781        2014.963          49.000  
G 3  21707259.536      -24860.399        -810.077          40.250  
G11  23755133.547       60309.624        2023.193          43.000  
G17  21411211.470      -68639.387       -2311.458          51.750  
G22  23264361.051       23694.959         817.918          46.750  
G28  20987262.887       10448.030         370.264          48.000  
> 2018  4 22 11 21 25.8688020  0  6                     
G 1  23095091.890       61927.259        2014.933          48.750  
G 3  21709074.929      -24941.407        -810.537          39.750  
G11  23757003.357       60511.946        2024.174          43.000  
G17  21412999.100      -68870.544       -2311.598          51.750  
G22  23266209.386       23776.792         817.546          46.750  
G28  20989102.104       10485.131         371.831          47.750  
> 2018  4 22 11 21 25.9688020  0  6                     
G 1  23096961.527       62128.743        2014.332          49.000  
G 3  21710891.254      -25022.393        -809.163          40.000  
G11  23758872.956       60714.289        2022.944          43.000  
G17  21414786.531      -69101.699       -2311.232          51.750  
G22  23268055.111       23858.626         818.480          46.500  
G28  20990940.372       10522.234         371.352          47.750  
> 2018  4 22 11 21 26.0688020  0  6                     
G 1  23098831.314       62330.320        2016.783          48.750  
G 3  21712708.302      -25103.284        -807.452          40.250  
G11  23760743.920       60916.696        2024.824          42.750  
G17  21416573.962      -69332.759       -2309.937          51.500  
G22  23269901.453       23940.547         819.884          46.500  
G28  20992779.789       10559.425         372.650          47.500  
> 2018  4 22 11 21 26.1688020  0  6                     
G 1  23100700.759       62531.963        2016.757          48.750  
G 3  21714523.714      -25184.113        -808.535          40.250  
G11  23762614.481       61119.224        2026.058          43.000  
G17  21418361.198      -69563.746       -2309.786          51.500  
G22  23271749.143       24022.540         819.968          46.500  
G28  20994616.437       10596.688         373.197          47.750  
> 2018  4 22 11 21 26.2688020  0  6                     
G 1  23102570.628       62733.699        2018.049          49.000  
G 3  21716337.813      -25264.829        -806.742          39.750  
G11  23764485.091       61321.797        2026.024          42.500  
G17  21420149.060      -69794.644       -2308.496          51.750  
G22  23273596.398       24104.654         821.822          46.750  
G28  20996455.017       10634.059         374.292          47.500  
> 2018  4 22 11 21 26.3688020  0  6                     
G 1  23104440.746       62935.509        2018.618          49.000  
G 3  21718154.732      -25345.469        -805.663          40.250  
G11  23766353.631       61524.473        2026.591          43.250  
G17  21421936.379      -70025.463       -2308.209          51.750  
G22  23275443.933       24186.821         822.083          46.750  
G28  20998294.774       10671.489         374.318          47.500  
> 2018  4 22 11 21 26.4688020  0  6                     
G 1  23106310.713       63137.338        2018.692          49.000  
G 3  21719969.842      -25426.103        -806.682          40.500  
G11  23768223.189       61727.142        2026.236          43.000  
G17  21423724.021      -70256.274       -2308.315          51.500  
G22  23277291.604       24269.009         820.951          46.750  
G28  21000131.981       10708.962         374.917          47.750  
> 2018  4 22 11 21 26.5688020  0  6                     
G 1  23108180.982       63339.109        2017.201          49.000  
G 3  21721784.993      -25506.767        -806.680          39.750  
G11  23770093.735       61929.778        2026.209          43.250  
G17  21425511.969      -70487.129       -2309.169          51.500  
G22  23279139.589       24351.155         820.872          46.750  
G28  21001971.605       10746.363         373.587          47.500  
> 2018  4 22 11 21 26.6688020  0  6                     
G 1  23110050.987       63540.852        2017.598          49.000  
G 3  21723601.305      -25587.468        -807.224          40.000  
G11  23771964.360       62132.360        2025.891          43.250  
G17  21427299.338      -70718.013       -2309.110          51.500  
G22  23280986.090       24433.280         820.866          46.750  
G28  21003809.834       10783.768         374.205          47.500  
> 2018  4 22 11 21 26.7688020  0  6                     
G 1  23111920.969       63742.552        2016.412          49.000  
G 3  21725417.888      -25668.182        -807.943          40.000  
G11  23773833.934       62334.921        2024.936          43.000  
G17  21429087.192      -70948.945       -2310.033          51.500  
G22  23282832.653       24515.350         820.753          46.750  
G28  21005648.146       10821.107         372.957          48.000  
> 2018  4 22 11 21 26.8688020  0  6                     
G 1  23113790.534       63944.239        2016.381          49.000  
G 3  21727235.479      -25748.920        -808.304          40.000  
G11  23775703.836       62537.450        2024.960          43.000  
G17  21430874.467      -71179.882       -2309.488          51.750  
G22  23284679.540       24597.423         820.300          46.750  
G28  21007488.995       10858.445         373.514          48.250  
> 2018  4 22 11 21 26.9688020  0  6                     
G 1  23115660.496       64145.916        2016.529          49.000  
G 3  21729052.499      -25829.669        -807.249          40.000  
G11  23777573.906       62739.980        2025.034          43.000  
G17  21432661.817      -71410.834       -2310.127          51.750  
G22  23286527.437       24679.494         820.799          46.750  
G28  21009326.363       10895.786         373.749          48.250  
> 2018  4 22 11 21 27.0688020  0  6                     
G 1  23117530.107       64347.557        2016.415          48.750  
G 3  21730870.049      -25910.442        -807.818          39.750  
G11  23779444.125       62942.480        2024.987          43.250  
G17  21434449.698      -71641.819       -2309.800          51.750  
G22  23288375.473       24761.525         820.917          46.750  
G28  21011166.257       10933.082         373.040          48.000  
> 2018  4 22 11 21 27.1688020  0  6                     
G 1  23119400.631       64549.258        2017.583          49.000  
G 3  21732687.080      -25991.165        -806.886          40.000  
G11  23781314.392       63145.015        2026.528          43.500  
G17  21436237.097      -71872.759       -2309.587          51.500  
G22  23290222.948       24843.601         820.967          46.750  
G28  21013004.266       10970.435         373.886          48.000  
> 2018  4 22 11 21 27.2688020  0  6                     
G 1  23121270.691       64750.926        2016.807          49.000  
G 3  21734501.875      -26071.878        -807.109          40.250  
G11  23783185.257       63347.548        2025.325          43.000  
G17  21438024.885      -72103.700       -2309.631          51.500  
G22  23292070.341       24925.683         820.471          46.750  
G28  21014843.180       11007.791         373.163          47.750  
> 2018  4 22 11 21 27.3688020  0  6                     
G 1  23123141.176       64952.607        2016.917          49.000  
G 3  21736316.988      -26152.586        -807.284          40.000  
G11  23785055.177       63550.074        2026.138          43.250  
G17  21439812.147      -72334.646       -2309.374          51.500  
G22  23293916.839       25007.762         821.263          47.000  
G28  21016683.514       11045.144         373.929          47.750  
> 2018  4 22 11 21 27.4688020  0  6                     
G 1  23125011.176       65154.304        2017.576          49.000  
G 3  21738134.022      -26233.300        -806.401          40.250  
G11  23786925.799       63752.624        2026.101          43.250  
G17  21441599.856      -72565.584       -2309.784          51.500  
G22  23295763.819       25089.852         821.026          46.750  
G28  21018520.053       11082.513         373.309          47.750  
> 2018  4 22 11 21 27.5688020  0  6                     
G 1  23126880.851       65356.004        2016.466          49.000  
G 3  21739949.177      -26313.977        -806.665          40.000  
G11  23788796.906       63955.160        2024.943          43.250  
G17  21443387.453      -72796.501       -2309.656          51.500  
G22  23297610.895       25171.965         820.816          47.000  
G28  21020359.826       11119.896         373.309          47.750  
> 2018  4 22 11 21 27.6688020  0  6                     
G 1  23128750.861       65557.667        2016.677          48.750  
G 3  21741764.323      -26394.706        -807.186          40.000  
G11  23790666.165       64157.692        2025.657          43.250  
G17  21445174.579      -73027.454       -2309.424          51.500  
G22  23299457.446       25254.036         820.881          46.750  
G28  21022198.281       11157.252         373.871          48.250  
> 2018  4 22 11 21 27.7688020  0  6                     
G 1  23130620.045       65759.254        2015.522          48.500  
G 3  21743580.365      -26475.487        -808.884          40.000  
G11  23792536.271       64360.120        2023.878          43.250  
G17  21446962.613      -73258.493       -2310.803          51.250  
G22  23301305.004       25336.054         820.231          47.000  
G28  21024035.278       11194.535         372.886          47.750  
> 2018  4 22 11 21 27.8688020  0  6                     
G 1  23132489.836       65960.829        2016.094          48.750  
G 3  21745398.619      -26556.285        -808.471          40.250  
G11  23794406.601       64562.530        2024.547          43.250  
G17  21448749.653      -73489.541       -2310.104          51.250  
G22  23303152.046       25418.046         820.549          46.750  
G28  21025875.284       11231.804         373.264          47.250  
> 2018  4 22 11 21 27.9688020  0  6                     
G 1  23134359.474       66162.450        2016.386          48.500  
G 3  21747215.157      -26637.028        -808.380          39.750  
G11  23796275.494       64764.999        2025.378          43.000  
G17  21450537.513      -73720.538       -2309.321          51.500  
G22  23304999.782       25500.090         821.152          47.000  
G28  21027712.683       11269.136         374.295          47.500  
> 2018  4 22 11 21 28.0688020  0  6                     
G 1  23136229.243       66364.156        2017.308          49.000  
G 3  21749030.260      -26717.680        -806.388          39.750  
G11  23798145.775       64967.560        2024.871          43.000  
G17  21452325.560      -73951.450       -2308.876          51.250  
G22  23306847.301       25582.213         820.965          47.250  
G28  21029552.528       11306.535         374.690          48.250  
> 2018  4 22 11 21 28.1688020  0  6                     
G 1  23138099.419       66565.877        2016.877          48.750  
G 3  21750846.574      -26798.304        -805.937          40.000  
G11  23800016.512       65170.130        2025.417          43.250  
G17  21454113.377      -74182.339       -2309.236          51.750  
G22  23308694.094       25664.373         820.840          47.000  
G28  21031391.964       11343.965         374.332          48.000  
> 2018  4 22 11 21 28.2688020  0  6                     
G 1  23139969.556       66767.551        2016.729          48.750  
G 3  21752663.978      -26878.974        -807.559          40.250  
G11  23801886.805       65372.660        2025.703          43.000  
G17  21455901.640      -74413.289       -2309.375          51.500  
G22  23310541.948       25746.482         821.300          47.250  
G28  21033229.439       11381.343         374.660          47.500  
> 2018  4 22 11 21 28.3688020  0  6                     
G 1  23141839.847       66969.288        2018.449          48.750  
G 3  21754481.342      -26959.579        -805.027          40.000  
G11  23803759.018       65575.245        2026.559          42.750  
G17  21457689.856      -74644.177       -2308.411          51.750  
G22  23312387.978       25828.653         822.940          47.000  
G28  21035069.548       11418.791         374.842          47.500  
> 2018  4 22 11 21 28.4688020  0  6                     
G 1  23143709.311       67171.146        2019.099          48.500  
G 3  21756296.482      -27040.072        -804.435          40.250  
G11  23805628.044       65777.940        2026.892          42.750  
G17  21459477.486      -74874.942       -2308.240          51.500  
G22  23314235.261       25910.953         821.872          46.750  
G28  21036907.282       11456.380         375.964          48.000  
> 2018  4 22 11 21 28.5688020  0  6                     
G 1  23145579.174       67373.011        2019.131          48.750  
G 3  21758112.289      -27120.521        -802.730          40.000  
G11  23807497.456       65980.663        2029.864          42.750  
G17  21461265.165      -75105.690       -2307.273          51.500  
G22  23316083.027       25993.249         823.448          47.000  
G28  21038745.718       11493.956         376.354          47.750  
> 2018  4 22 11 21 28.6688020  0  6                     
G 1  23147449.035       67574.862        2018.142          49.000  
G 3  21759928.615      -27200.988        -803.794          40.250  
G11  23809367.513       66183.338        2026.876          42.750  
G17  21463052.660      -75336.461       -2308.115          51.500  
G22  23317930.122       26075.547         822.720          46.750  
G28  21040585.568       11531.533         376.123          47.500  
> 2018  4 22 11 21 28.7688020  0  6                     
G 1  23149319.147       67776.672        2017.789          48.750  
G 3  21761744.750      -27281.522        -804.860          40.250  
G11  23811238.061       66385.996        2026.886          43.250  
G17  21464840.431      -75567.252       -2308.210          51.500  
G22  23319776.778       26157.827         823.368          47.000  
G28  21042422.457       11569.090         375.003          47.750  
> 2018  4 22 11 21 28.8688020  0  6                     
G 1  23151188.984       67978.450        2017.895          48.750  
G 3  21763559.869      -27362.053        -805.844          40.250  
G11  23813108.990       66588.623        2026.668          43.250  
G17  21466628.143      -75798.093       -2308.471          51.500  
G22  23321624.397       26240.054         821.779          47.000  
G28  21044262.120       11606.596         374.913          48.000  
> 2018  4 22 11 21 28.9688020  0  6                     
G 1  23153059.280       68180.230        2018.201          48.750  
G 3  21765376.675      -27442.571        -805.283          40.250  
G11  23814978.604       66791.262        2026.993          43.000  
G17  21468415.435      -76028.922       -2307.937          51.500  
G22  23323471.861       26322.303         822.499          47.250  
G28  21046100.620       11644.123         375.265          47.750  
> 2018  4 22 11 21 29.0688020  0  6                     
G 1  23154929.070       68382.017        2017.855          49.000  
G 3  21767194.811      -27523.079        -803.982          39.500  
G11  23816847.959       66993.902        2027.621          43.000  
G17  21470203.571      -76259.744       -2308.086          51.500  
G22  23325319.231       26404.554         823.192          46.750  
G28  21047939.125       11681.660         375.445          47.750  
> 2018  4 22 11 21 29.1688020  0  6                     
G 1  23156798.799       68583.798        2017.866          48.500  
G 3  21769010.574      -27603.595        -805.850          39.500  
G11  23818718.008       67196.531        2027.881          42.750  
G17  21471990.543      -76490.579       -2308.185          51.000  
G22  23327166.542       26486.791         822.511          47.250  
G28  21049779.906       11719.190         375.700          47.750  
> 2018  4 22 11 21 29.2688020  0  6                     
G 1  23158669.637       68785.578        2018.281          49.000  
G 3  21770827.027      -27684.114        -804.927          39.750  
G11  23820587.901       67399.143        2025.328          43.000  
G17  21473778.423      -76721.412       -2308.121          51.250  
G22  23329014.111       26569.047         822.598          47.000  
G28  21051617.042       11756.722         375.729          47.750  
> 2018  4 22 11 21 29.3688020  0  6                     
G 1  23160539.905       68987.372        2018.551          49.000  
G 3  21772642.287      -27764.597        -804.018          39.750  
G11  23822457.354       67601.789        2026.646          43.000  
G17  21475566.327      -76952.223       -2307.914          51.500  
G22  23330861.538       26651.325         823.058          46.750  
G28  21053456.319       11794.276         376.020          47.750  
> 2018  4 22 11 21 29.4688020  0  6                     
G 1  23162409.957       69189.193        2019.025          48.750  
G 3  21774458.159      -27845.069        -804.481          39.750  
G11  23824328.433       67804.456        2027.254          42.750  
G17  21477353.906      -77183.021       -2307.744          51.500  
G22  23332709.338       26733.629         823.685          46.750  
G28  21055295.813       11831.846         375.770          47.750  
> 2018  4 22 11 21 29.5688020  0  6                     
G 1  23164280.736       69391.035        2019.137          48.750  
G 3  21776272.470      -27925.483        -804.787          39.500  
G11  23826199.038       68007.133        2026.883          42.500  
G17  21479141.899      -77413.783       -2307.649          51.500  
G22  23334555.758       26815.945         823.364          46.750  
G28  21057134.282       11869.461         375.651          48.000  
> 2018  4 22 11 21 29.6688020  0  6                     
G 1  23166150.282       69592.913        2018.874          48.500  
G 3  21778089.534      -28005.885        -804.956          39.750  
G11  23828068.060       68209.854        2026.942          43.000  
G17  21480929.251      -77644.525       -2307.643          51.500  
G22  23336403.383       26898.300         823.355          47.000  
G28  21058974.413       11907.096         376.453          48.000  
> 2018  4 22 11 21 29.7688020  0  6                     
G 1  23168020.285       69794.850        2019.749          48.750  
G 3  21779906.869      -28086.215        -804.019          40.000  
G11  23829937.372       68412.638        2028.045          42.750  
G17  21482717.158      -77875.185       -2306.643          51.500  
G22  23338250.489       26980.723         824.776          47.250  
G28  21060810.642       11944.813         377.449          47.750  
> 2018  4 22 11 21 29.8688020  0  6                     
G 1  23169890.635       69996.756        2018.515          48.750  
G 3  21781724.557      -28166.566        -804.350          39.500  
G11  23831807.697       68615.388        2027.497          42.500  
G17  21484504.658      -78105.898       -2307.652          51.500  
G22  23340098.058       27063.132         824.214          47.000  
G28  21062650.257       11982.490         376.744          47.500  
> 2018  4 22 11 21 29.9688020  0  6                     
G 1  23171761.310       70198.628        2018.019          48.750  
G 3  21783541.809      -28246.927        -804.239          40.250  
G11  23833677.923       68818.114        2026.492          42.750  
G17  21486292.451      -78336.621       -2308.081          51.000  
G22  23341945.113       27145.501         824.339          47.250  
G28  21064488.638       12020.155         375.799          47.750  
> 2018  4 22 11 21 30.0688020  0  6                     
G 1  23173630.794       70400.458        2018.365          48.500  
G 3  21785357.758      -28327.351        -804.291          40.250  
G11  23835548.168       69020.519        1994.514          42.750  
G17  21488080.206      -78567.396       -2307.754          51.250  
G22  23343792.360       27227.837         823.212          47.000  
G28  21066325.648       12057.775         376.520          47.500  
> 2018  4 22 11 21 30.1688020  0  6                     
G 1  23175500.442       70602.300        2018.242          48.500  
G 3  21787174.993      -28407.761        -803.529          40.250  
G11  23837418.274       69223.724        2072.909          42.500  
G17  21489867.798      -78798.157       -2307.577          51.250  
G22  23345638.743       27310.183         824.056          47.000  
G28  21068165.194       12095.399         376.317          47.500  
> 2018  4 22 11 21 30.2688020  0  6                     
G 1  23177369.477       70804.069        2017.822          48.500  
G 3  21788992.406      -28488.240        -805.834          41.000  
G11  23839288.688       69426.075        2025.703          42.750  
G17  21491655.350      -79029.001       -2308.416          51.250  
G22  23347486.197       27392.455         822.852          47.000  
G28  21070003.502       12132.964         375.509          47.500  
> 2018  4 22 11 21 30.3688020  0  6                     
G 1  23179239.427       71005.811        2017.111          49.000  
G 3  21790807.665      -28568.719        -805.312          40.000  
G11  23841157.962       69628.655        2025.784          42.750  
G17  21493443.172      -79259.852       -2308.889          51.500  
G22  23349334.096       27474.721         822.700          47.250  
G28  21071841.772       12170.512         375.127          47.500  
> 2018  4 22 11 21 30.4688020  0  6                     
G 1  23181109.458       71207.558        2017.548          49.000  
G 3  21792624.267      -28649.204        -804.525          39.750  
G11  23843029.082       69831.249        2025.460          42.750  
G17  21495230.937      -79490.709       -2308.238          51.500  
G22  23351181.808       27556.982         822.906          47.250  
G28  21073681.980       12208.049         375.880          47.500  
> 2018  4 22 11 21 30.5688020  0  6                     
G 1  23182979.157       71409.281        2017.589          48.750  
G 3  21794439.819      -28729.695        -804.775          39.500  
G11  23844898.714       70033.811        2025.927          42.750  
G17  21497019.008      -79721.582       -2309.363          51.250  
G22  23353029.793       27639.218         822.638          47.250  
G28  21075518.988       12245.600         375.861          47.750  
> 2018  4 22 11 21 30.6688020  0  6                     
G 1  23184849.668       71611.086        2018.761          48.750  
G 3  21796254.944      -28810.090        -803.393          39.500  
G11  23846767.918       70236.469        2027.545          42.750  
G17  21498806.052      -79952.386       -2308.015          51.500  
G22  23354876.876       27721.537         822.835          46.500  
G28  21077358.905       12283.218         376.236          47.500  
> 2018  4 22 11 21 30.7688020  0  6                     
G 1  23186720.178       71812.909        2019.059          48.500  
G 3  21798070.868      -28890.477        -804.212          40.000  
G11  23848637.980       70439.139        2027.306          42.500  
G17  21500593.530      -80183.152       -2307.606          51.000  
G22  23356724.060       27803.911         824.070          47.000  
G28  21079197.807       12320.851         376.362          47.750  
> 2018  4 22 11 21 30.8688020  0  6                     
G 1  23188590.442       72014.779        2019.001          49.000  
G 3  21799887.063      -28970.837        -802.729          39.500  
G11  23850508.292       70641.831        2027.157          42.750  
G17  21502380.883      -80413.886       -2306.538          51.500  
G22  23358570.039       27886.297         824.460          46.750  
G28  21081036.388       12358.538         376.950          48.000  
> 2018  4 22 11 21 30.9688020  0  6                     
G 1  23190459.864       72216.640        2018.284          49.000  
G 3  21801703.372      -29051.140        -804.118          39.750  
G11  23852377.359       70844.537        2026.461          42.250  
G17  21504168.780      -80644.608       -2307.752          51.250  
G22  23360416.808       27968.707         823.821          47.250  
G28  21082876.667       12396.226         375.690          47.750  
> 2018  4 22 11 21 31.0688020  0  6                     
G 1  23192329.901       72418.483        2018.448          49.000  
G 3  21803518.333      -29131.472        -803.202          39.250  
G11  23854247.264       71047.216        2027.668          42.750  
G17  21505956.041      -80875.373       -2307.439          51.500  
G22  23362263.577       28051.076         823.974          47.250  
G28  21084713.728       12433.895         376.900          47.750  
> 2018  4 22 11 21 31.1688020  0  6                     
G 1  23194199.649       72620.310        2017.962          48.750  
G 3  21805332.593      -29211.847        -804.445          38.750  
G11  23856117.846       71249.888        2026.345          42.750  
G17  21507743.654      -81106.142       -2308.729          51.000  
G22  23364110.521       28133.437         822.818          47.250  
G28  21086553.225       12471.549         376.622          47.750  
> 2018  4 22 11 21 31.2688020  0  6                     
G 1  23196069.960       72822.102        2018.375          48.750  
G 3  21807149.447      -29292.200        -803.066          39.500  
G11  23857988.731       71452.524        2026.222          42.000  
G17  21509531.602      -81336.964       -2308.254          51.500  
G22  23365958.144       28215.777         823.438          47.000  
G28  21088392.255       12509.169         376.123          47.750  
> 2018  4 22 11 21 31.3688020  0  6                     
G 1  23197940.687       73023.888        2017.938          48.750  
G 3  21808966.621      -29372.608        -804.957          39.250  
G11  23859860.691       71655.143        2025.363          42.750  
G17  21511319.868      -81567.763       -2308.156          51.250  
G22  23367805.931       28298.116         823.491          47.000  
G28  21090229.763       12546.799         376.247          47.500  
> 2018  4 22 11 21 31.4688020  0  6                     
G 1  23199810.442       73225.565        2016.275          48.750  
G 3  21810781.714      -29453.101        -805.348          40.000  
G11  23861730.908       71857.655        2025.046          42.500  
G17  21513107.127      -81798.684       -2309.221          51.250  
G22  23369652.015       28380.350         822.221          47.250  
G28  21092070.011       12584.324         375.400          47.750  
> 2018  4 22 11 21 31.5688020  0  6                     
G 1  23201680.256       73427.240        2017.463          49.000  
G 3  21812598.906      -29533.603        -804.209          40.000  
G11  23863600.099       72060.182        2024.843          42.250  
G17  21514895.211      -82029.603       -2309.304          51.000  
G22  23371499.141       28462.572         822.526          47.250  
G28  21093906.880       12621.845         375.329          47.750  
> 2018  4 22 11 21 31.6688020  0  6                     
G 1  23203550.586       73628.904        2016.538          49.000  
G 3  21814415.724      -29614.099        -805.451          40.000  
G11  23865470.828       72262.680        2025.439          42.750  
G17  21516683.122      -82260.531       -2309.468          51.250  
G22  23373348.023       28544.795         822.015          47.000  
G28  21095745.771       12659.356         375.189          47.500  
> 2018  4 22 11 21 31.7688020  0  6                     
G 1  23205420.747       73830.528        2016.429          48.750  
G 3  21816233.761      -29694.616        -805.040          40.250  
G11  23867340.265       72465.147        2025.125          43.000  
G17  21518470.861      -82491.500       -2309.744          51.250  
G22  23375194.392       28626.993         821.856          47.000  
G28  21097585.000       12696.836         374.980          47.750  
> 2018  4 22 11 21 31.8688020  0  6                     
G 1  23207290.085       74032.155        2016.024          48.750  
G 3  21818049.667      -29775.141        -805.755          40.000  
G11  23869210.428       72667.619        2024.308          42.750  
G17  21520258.588      -82722.457       -2310.098          51.000  
G22  23377041.481       28709.201         821.752          47.250  
G28  21099422.781       12734.334         375.231          47.250  
> 2018  4 22 11 21 31.9688020  0  6                     
G 1  23209160.273       74233.740        2016.031          48.750  
G 3  21819866.579      -29855.708        -805.446          40.250  
G11  23871079.984       72870.027        2023.685          42.750  
G17  21522045.540      -82953.480       -2310.461          51.250  
G22  23378889.636       28791.341         821.143          47.250  
G28  21101262.947       12771.773         374.484          47.750  
> 2018  4 22 11 21 32.0688020  0  6                     
G 1  23211030.528       74435.251        2015.245          49.000  
G 3  21821682.837      -29936.330        -804.656          39.750  
G11  23872949.710       73072.377        2023.246          43.000  
G17  21523833.191      -83184.541       -2310.624          51.250  
G22  23380736.978       28873.434         821.036          47.000  
G28  21103100.887       12809.162         374.383          47.500  
> 2018  4 22 11 21 32.1688020  0  6                     
G 1  23212899.896       74636.765        2015.276          48.750  
G 3  21823498.494      -30016.938        -806.621          39.500  
G11  23874819.863       73274.737        2023.206          42.500  
G17  21525620.082      -83415.616       -2310.637          51.250  
G22  23382584.076       28955.534         821.243          47.000  
G28  21104938.910       12846.550         373.786          47.500  
> 2018  4 22 11 21 32.2688020  0  6                     
G 1  23214769.542       74838.310        2016.047          48.750  
G 3  21825314.913      -30097.509        -804.997          39.250  
G11  23876690.688       73477.111        2023.955          42.500  
G17  21527407.574      -83646.661       -2310.183          51.250  
G22  23384431.277       29037.662         822.370          47.250  
G28  21106778.937       12883.974         375.237          47.500  
> 2018  4 22 11 21 32.3688020  0  6                     
G 1  23216639.094       75039.955        2016.858          48.750  
G 3  21827131.730      -30177.994        -804.360          39.500  
G11  23878562.158       73679.609        2025.518          42.250  
G17  21529195.147      -83877.599       -2308.567          51.250  
G22  23386278.608       29119.891         822.941          47.250  
G28  21108616.038       12921.498         376.254          47.000  
> 2018  4 22 11 21 32.4688020  0  6                     
G 1  23218509.233       75241.625        2017.915          48.750  
G 3  21828945.869      -30258.434        -803.421          38.500  
G11  23880433.507       73882.131        2024.907          42.750  
G17  21530982.418      -84108.518       -2309.063          51.000  
G22  23388125.551       29202.155         823.369          47.250  
G28  21110455.207       12959.052         376.471          47.250  
> 2018  4 22 11 21 32.5688020  0  6                     
G 1  23220379.149       75443.415        2018.944          48.750  
G 3  21830760.735      -30338.751        -802.328          39.000  
G11  23882304.000       74084.730        2026.467          42.750  
G17  21532769.886      -84339.327       -2307.567          51.250  
G22  23389973.745       29284.529         824.042          47.250  
G28  21112293.458       12996.726         377.672          47.500  
> 2018  4 22 11 21 32.6688020  0  6                     
G 1  23222249.913       75645.258        2019.426          48.750  
G 3  21832576.942      -30418.997        -801.328          38.750  
G11  23884173.660       74287.421        2027.806          43.250  
G17  21534556.913      -84570.065       -2307.181          51.000  
G22  23391821.237       29366.979         824.857          47.250  
G28  21114131.857       13034.470         378.108          47.750  
> 2018  4 22 11 21 32.7688020  0  6                     
G 1  23224119.939       75847.136        2018.175          49.000  
G 3  21834394.122      -30499.220        -801.445          39.000  
G11  23886043.371       74490.134        2026.335          43.250  
G17  21536344.988      -84800.769       -2307.461          51.250  
G22  23393668.987       29449.463         824.625          47.250  
G28  21115971.959       13072.250         378.062          47.750  
> 2018  4 22 11 21 32.8688020  0  6                     
G 1  23225989.584       76049.021        2019.682          48.750  
G 3  21836210.993      -30579.400        -800.534          39.250  
G11  23887911.460       74692.860        2027.899          42.750  
G17  21538132.294      -85031.469       -2307.053          51.000  
G22  23395516.646       29531.959         825.585          47.250  
G28  21117810.525       13110.042         378.251          48.000  
> 2018  4 22 11 21 32.9688020  0  6                     
G 1  23227859.289       76250.983        2019.610          48.750  
G 3  21838026.801      -30659.505        -799.858          39.250  
G11  23889781.942       74895.653        2027.755          42.500  
G17  21539920.222      -85262.076       -2305.647          51.250  
G22  23397363.141       29614.531         826.391          47.000  
G28  21119650.397       13147.913         379.253          48.000  
> 2018  4 22 11 21 33.0688020  0  6                     
G 1  23229729.968       76452.956        2019.992          48.750  
G 3  21839843.065      -30739.642        -801.308          39.500  
G11  23891653.074       75098.468        2027.701          43.000  
G17  21541708.242      -85492.691       -2306.261          51.250  
G22  23399209.849       29697.110         825.384          47.250  
G28  21121489.341       13185.795         378.766          47.750  
> 2018  4 22 11 21 33.1688020  0  6                     
G 1  23231599.544       76654.932        2020.380          48.750  
G 3  21841660.475      -30819.737        -801.089          39.000  
G11  23893523.535       75301.281        2027.721          43.250  
G17  21543495.687      -85723.303       -2306.458          51.250  
G22  23401057.134       29779.692         825.643          47.250  
G28  21123327.776       13223.677         379.181          47.750  
> 2018  4 22 11 21 33.2688020  0  6                     
G 1  23233469.383       76856.937        2020.078          48.750  
G 3  21843476.861      -30899.810        -800.385          39.750  
G11  23895394.848       75504.120        2029.044          43.000  
G17  21545283.774      -85953.887       -2305.772          51.000  
G22  23402903.839       29862.322         826.603          47.250  
G28  21125167.938       13261.600         378.615          48.000  
> 2018  4 22 11 21 33.3688020  0  6                     
G 1  23235340.161       77058.900        2019.296          49.000  
G 3  21845294.078      -30979.912        -801.465          40.000  
G11  23897263.660       75706.929        2027.792          43.250  
G17  21547071.059      -86184.489       -2306.138          51.250  
G22  23404751.923       29944.921         825.460          47.500  
G28  21127005.002       13299.511         378.999          48.250  
> 2018  4 22 11 21 33.4688020  0  6                     
G 1  23237210.174       77260.886        2020.584          48.750  
G 3  21847110.668      -31059.997        -800.543          39.750  
G11  23899133.024       75909.728        2027.943          42.750  
G17  21548858.548      -86415.089       -2305.277          51.250  
G22  23406599.786       30027.516         825.742          47.250  
G28  21128844.112       13337.410         379.478          47.750  
> 2018  4 22 11 21 33.5688020  0  6                     
G 1  23239079.978       77462.884        2019.231          49.000  
G 3  21848927.070      -31140.018        -801.364          40.000  
G11  23901003.833       76112.574        2026.149          42.500  
G17  21550646.297      -86645.668       -2307.067          51.250  
G22  23408446.977       30110.152         825.745          47.250  
G28  21130683.540       13375.343         378.325          47.750  
> 2018  4 22 11 21 33.6688020  0  6                     
G 1  23240949.836       77664.833        2018.897          48.750  
G 3  21850741.552      -31220.126        -801.448          39.500  
G11  23902874.584       76315.367        2027.621          43.250  
G17  21552433.512      -86876.300       -2306.724          51.000  
G22  23410293.729       30192.749         826.250          47.500  
G28  21132521.141       13413.236         378.593          48.000  
> 2018  4 22 11 21 33.7688020  0  6                     
G 1  23242820.698       77866.794        2019.993          49.000  
G 3  21852556.641      -31300.205        -799.833          38.750  
G11  23904744.015       76518.154        2026.744          43.000  
G17  21554221.195      -87106.914       -2306.715          51.000  
G22  23412141.101       30275.338         826.150          47.500  
G28  21134362.003       13451.128         378.673          47.750  
> 2018  4 22 11 21 33.8688020  0  6                     
G 1  23244690.996       78068.767        2019.763          49.000  
G 3  21854375.376      -31380.254        -799.466          38.750  
G11  23906614.283       76720.956        2028.102          43.500  
G17  21556008.555      -87337.529       -2306.287          51.250  
G22  23413988.427       30357.951         826.471          47.250  
G28  21136199.611       13489.043         379.104          47.750  
> 2018  4 22 11 21 33.9688020  0  6                     
G 1  23246560.475       78270.720        2020.544          48.750  
G 3  21856192.800      -31460.328        -799.764          38.750  
G11  23908484.486       76923.750        2029.052          43.250  
G17  21557796.205      -87568.147       -2305.936          51.000  
G22  23415835.379       30440.543         826.128          47.250  
G28  21138039.488       13526.929         379.042          47.750  
> 2018  4 22 11 21 34.0688020  0  6                     
G 1  23248430.466       78472.659        2019.455          49.000  
G 3  21858008.967      -31540.399        -799.777          39.250  
G11  23910356.516       77126.523        2027.357          43.500  
G17  21559583.963      -87798.779       -2306.854          51.250  
G22  23417683.082       30523.142         825.840          47.250  
G28  21139877.897       13564.842         379.055          47.750  
> 2018  4 22 11 21 34.1688020  0  6                     
G 1  23250300.346       78674.577        2019.202          48.500  
G 3  21859825.418      -31620.510        -801.270          39.250  
G11  23912227.000       77329.267        2027.443          43.000  
G17  21561371.739      -88029.435       -2307.128          51.000  
G22  23419530.494       30605.717         825.982          47.250  
G28  21141715.499       13602.709         378.017          47.500  
> 2018  4 22 11 21 34.2688020  0  6                     
G 1  23252169.975       78876.402        2018.282          48.750  
G 3  21861641.671      -31700.684        -802.196          40.000  
G11  23914097.319       77531.917        2025.695          43.250  
G17  21563159.559      -88260.188       -2307.779          51.000  
G22  23421377.705       30688.196         823.667          47.500  
G28  21143556.150       13640.492         377.884          47.750  
> 2018  4 22 11 21 34.3688020  0  6                     
G 1  23254040.174       79078.144        2017.071          48.750  
G 3  21863458.713      -31780.933        -803.184          39.750  
G11  23915967.246       77734.505        2025.303          43.250  
G17  21564947.287      -88491.010       -2309.120          51.000  
G22  23423224.354       30770.617         824.481          47.250  
G28  21145392.464       13678.214         377.046          47.750  
> 2018  4 22 11 21 34.4688020  0  6                     
G 1  23255910.042       79279.881        2017.268          48.500  
G 3  21865277.661      -31861.216        -803.883          39.750  
G11  23917837.053       77937.067        2025.413          43.250  
G17  21566734.663      -88721.853       -2309.094          51.250  
G22  23425071.477       30853.005         823.569          47.750  
G28  21147231.567       13715.901         376.615          47.750  
> 2018  4 22 11 21 34.5688020  0  6                     
G 1  23257779.800       79481.603        2017.432          48.750  
G 3  21867094.786      -31941.469        -802.446          39.750  
G11  23919706.649       78139.643        2025.529          42.750  
G17  21568522.159      -88952.689       -2308.716          50.750  
G22  23426918.141       30935.391         823.539          46.750  
G28  21149071.050       13753.612         376.893          47.750  
> 2018  4 22 11 21 34.6688020  0  6                     
G 1  23259649.410       79683.338        2016.697          48.750  
G 3  21868910.633      -32021.760        -802.337          39.500  
G11  23921576.817       78342.192        2025.010          43.500  
G17  21570309.526      -89183.538       -2309.163          51.000  
G22  23428765.743       31017.789         823.328          47.500  
G28  21150908.611       13791.315         376.639          47.750  
> 2018  4 22 11 21 34.7688020  0  6                     
G 1  23261519.517       79885.038        2017.319          49.000  
G 3  21870725.649      -32102.033        -801.850          39.750  
G11  23923447.087       78544.723        2024.958          43.000  
G17  21572096.950      -89414.401       -2308.969          51.000  
G22  23430613.175       31100.171         823.620          47.250  
G28  21152748.741       13828.997         376.023          47.750  
> 2018  4 22 11 21 34.8688020  0  6                     
G 1  23263389.663       80086.791        2017.717          48.750  
G 3  21872540.954      -32182.264        -802.046          39.750  
G11  23925318.408       78747.300        2025.938          43.000  
G17  21573884.659      -89645.229       -2308.582          51.000  
G22  23432460.615       31182.607         824.036          47.750  
G28  21154587.165       13866.745         377.477          47.750  
> 2018  4 22 11 21 34.9688020  0  6                     
G 1  23265259.794       80288.575        2017.795          48.750  
G 3  21874355.855      -32262.438        -801.431          39.750  
G11  23927187.680       78949.944        2026.979          43.250  
G17  21575672.013      -89875.997       -2307.795          51.000  
G22  23434307.738       31265.078         825.189          47.750  
G28  21156425.250       13904.522         377.601          47.750  
> 2018  4 22 11 21 35.0688020  0  6                     
G 1  23267129.930       80490.434        2019.074          49.000  
G 3  21876172.463      -32342.537        -800.172          39.750  
G11  23929057.854       79152.619        2028.192          43.500  
G17  21577460.161      -90106.714       -2307.054          51.000  
G22  23436154.604       31347.630         825.784          47.250  
G28  21158264.547       13942.362         377.900          47.750  
> 2018  4 22 11 21 35.1688020  0  6                     
G 1  23268999.768       80692.358        2019.867          48.750  
G 3  21877986.975      -32422.586        -800.511          38.750  
G11  23930928.621       79355.366        2027.546          43.250  
G17  21579247.564      -90337.361       -2305.901          50.750  
G22  23438001.869       31430.226         826.770          47.000  
G28  21160100.963       13980.273         378.625          47.250  
> 2018  4 22 11 21 35.2688020  0  6                     
G 1  23270869.170       80894.313        2019.745          48.500  
G 3  21879802.762      -32502.598        -800.356          39.000  
G11  23932798.992       79558.158        2028.306          43.500  
G17  21581035.539      -90567.968       -2306.530          50.750  
G22  23439849.725       31512.896         826.585          47.250  
G28  21161940.431       14018.259         380.337          47.750  
> 2018  4 22 11 21 35.3688020  0  6                     
G 1  23272738.914       81096.331        2021.084          48.750  
G 3  21881619.801      -32582.536        -799.026          39.250  
G11  23934669.502       79761.002        2027.809          43.500  
G17  21582822.710      -90798.511       -2304.551          51.000  
G22  23441697.808       31595.599         827.662          47.250  
G28  21163779.929       14056.270         380.868          47.500  
> 2018  4 22 11 21 35.4688020  0  6                     
G 1  23274609.110       81298.407        2020.630          48.750  
G 3  21883436.963      -32662.409        -798.614          39.000  
G11  23936539.153       79963.910        2028.887          43.750  
G17  21584609.806      -91029.010       -2305.768          51.000  
G22  23443545.836       31678.383         828.006          47.500  
G28  21165618.315       14094.353         380.198          47.500  
> 2018  4 22 11 21 35.5688020  0  6                     
G 1  23276478.715       81500.407        2020.423          48.750  
G 3  21885253.158      -32742.340        -799.935          39.500  
G11  23938409.437       80166.742        2028.795          43.500  
G17  21586397.788      -91259.573       -2305.782          51.000  
G22  23445393.456       31761.086         826.705          47.500  
G28  21167458.875       14132.375         380.110          47.500  
> 2018  4 22 11 21 35.6688020  0  6                     
G 1  23278348.265       81702.417        2020.583          48.750  
G 3  21887070.554      -32822.269        -799.941          39.250  
G11  23940280.074       80369.579        2029.100          43.500  
G17  21588184.967      -91490.132       -2305.680          51.000  
G22  23447240.417       31843.805         826.993          47.250  
G28  21169295.798       14170.399         380.660          47.500  
> 2018  4 22 11 21 35.7688020  0  6                     
G 1  23280218.600       81904.424        2020.694          48.500  
G 3  21888887.691      -32902.188        -798.956          39.000  
G11  23942150.955       80572.426        2029.296          43.750  
G17  21589972.965      -91720.680       -2305.216          50.750  
G22  23449086.841       31926.523         827.766          47.250  
G28  21171134.937       14208.431         380.876          47.750  
> 2018  4 22 11 21 35.8688020  0  6                     
G 1  23282088.918       82106.400        2020.655          48.750  
G 3  21890704.152      -32982.117        -798.395          39.250  
G11  23944021.825       80775.220        2027.217          43.750  
G17  21591760.431      -91951.266       -2305.519          51.000  
G22  23450934.328       32009.205         827.398          47.250  
G28  21172974.197       14246.421         380.119          47.500  
> 2018  4 22 11 21 35.9688020  0  6                     
G 1  23283959.346       82308.410        2020.022          48.500  
G 3  21892519.486      -33062.027        -798.276          39.000  
G11  23945891.727       80978.066        2028.108          43.500  
G17  21593548.600      -92181.824       -2306.062          50.750  
G22  23452781.319       32091.944         827.550          47.250  
G28  21174812.458       14284.480         380.656          47.500  
> 2018  4 22 11 21 36.0688020  0  6                     
G 1  23285829.814       82510.428        2020.805          48.750  
G 3  21894335.748      -33141.917        -798.805          39.250  
G11  23947761.487       81181.074        2050.960          43.750  
G17  21595336.155      -92412.353       -2305.317          51.000  
G22  23454627.854       32174.698         827.525          47.500  
G28  21176653.043       14322.536         380.807          47.750  
> 2018  4 22 11 21 36.1688020  0  6                     
G 1  23287699.278       82712.486        2019.960          48.750  
G 3  21896153.395      -33221.764        -798.002          39.250  
G11  23949631.227       81383.826        2038.512          43.750  
G17  21597123.291      -92642.858       -2305.737          51.000  
G22  23456475.396       32257.481         827.867          47.500  
G28  21178490.089       14360.634         381.193          47.750  
> 2018  4 22 11 21 36.2688020  0  6                     
G 1  23289569.058       82914.511        2020.294          48.750  
G 3  21897969.810      -33301.646        -798.552          39.500  
G11  23951501.602       81586.665        2029.458          43.750  
G17  21598911.316      -92873.383       -2304.572          51.000  
G22  23458323.302       32340.247         827.857          47.500  
G28  21180329.018       14398.715         380.579          47.500  
> 2018  4 22 11 21 36.3688020  0  6                     
G 1  23291439.068       83116.598        2020.863          48.750  
G 3  21899784.754      -33381.427        -798.919          39.250  
G11  23953372.292       81789.576        2029.572          44.000  
G17  21600699.179      -93103.859       -2304.911          51.000  
G22  23460171.619       32423.067         828.432          47.250  
G28  21182167.932       14436.833         381.617          47.500  
> 2018  4 22 11 21 36.4688020  0  6                     
G 1  23293309.279       83318.700        2020.914          48.500  
G 3  21901600.231      -33461.235        -797.738          38.750  
G11  23955242.126       81992.507        2029.581          43.750  
G17  21602486.694      -93334.315       -2304.522          50.750  
G22  23462019.063       32505.912         829.093          47.500  
G28  21184005.964       14474.997         381.643          47.750  
> 2018  4 22 11 21 36.5688020  0  6                     
G 1  23295179.271       83520.810        2021.480          48.750  
G 3  21903415.360      -33541.017        -797.412          39.500  
G11  23957112.447       82195.446        2029.427          43.500  
G17  21604274.431      -93564.761       -2304.216          51.000  
G22  23463865.629       32588.754         828.008          47.500  
G28  21185847.156       14513.164         381.620          47.500  
> 2018  4 22 11 21 36.6688020  0  6                     
G 1  23297049.257       83722.942        2021.681          48.750  
G 3  21905231.555      -33620.772        -798.305          39.750  
G11  23958981.080       82398.400        2030.226          43.750  
G17  21606062.307      -93795.193       -2304.619          51.000  
G22  23465713.148       32671.635         828.323          47.500  
G28  21187683.936       14551.358         381.351          47.750  
> 2018  4 22 11 21 36.7688020  0  6                     
G 1  23298919.384       83925.085        2022.219          48.500  
G 3  21907049.050      -33700.494        -795.768          39.000  
G11  23960850.859       82601.366        2030.069          43.500  
G17  21607850.341      -94025.602       -2303.297          50.750  
G22  23467560.866       32754.523         830.331          47.500  
G28  21189523.612       14589.562         383.593          47.750  
> 2018  4 22 11 21 36.8688020  0  6                     
G 1  23300790.794       84127.215        2020.358          48.750  
G 3  21908866.412      -33780.218        -796.853          39.250  
G11  23962720.312       82804.342        2029.136          43.250  
G17  21609638.100      -94256.021       -2304.259          51.000  
G22  23469407.533       32837.421         827.627          47.500  
G28  21191362.487       14627.768         382.038          47.750  
> 2018  4 22 11 21 36.9688020  0  6                     
G 1  23302660.897       84329.345        2021.669          48.750  
G 3  21910683.925      -33859.950        -796.381          39.250  
G11  23964591.060       83007.280        2029.221          43.500  
G17  21611425.718      -94486.441       -2304.205          50.750  
G22  23471254.854       32920.310         829.539          47.250  
G28  21193199.833       14665.965         382.359          47.500  
> 2018  4 22 11 21 37.0688020  0  6                     
G 1  23304530.536       84531.486        2021.751          48.750  
G 3  21912499.130      -33939.649        -797.053          39.250  
G11  23966460.380       83210.241        2029.207          43.250  
G17  21613213.332      -94716.865       -2304.252          50.750  
G22  23473101.940       33003.203         829.857          47.500  
G28  21195040.292       14704.168         381.730          47.750  
> 2018  4 22 11 21 37.1688020  0  6                     
G 1  23306400.482       84733.620        2020.992          48.750  
G 3  21914313.886      -34019.409        -796.184          39.500  
G11  23968330.676       83413.195        2029.535          43.750  
G17  21615000.417      -94947.292       -2304.610          50.750  
G22  23474948.702       33086.090         828.161          47.500  
G28  21196879.034       14742.386         382.212          47.750  
> 2018  4 22 11 21 37.2688020  0  6                     
G 1  23308270.085       84935.673        2020.173          48.750  
G 3  21916130.380      -34099.187        -799.076          39.250  
G11  23970201.119       83616.097        2028.856          43.500  
G17  21616788.038      -95177.783       -2305.741          50.750  
G22  23476796.076       33168.930         827.638          47.500  
G28  21198718.707       14780.528         380.492          47.500  
> 2018  4 22 11 21 37.3688020  0  6                     
G 1  23310140.516       85137.698        2020.017          48.500  
G 3  21917945.409      -34178.993        -798.619          39.000  
G11  23972070.301       83818.931        2027.769          43.750  
G17  21618575.911      -95408.304       -2305.490          50.750  
G22  23478644.219       33251.719         827.571          47.250  
G28  21200557.230       14818.642         380.875          47.500  
> 2018  4 22 11 21 37.4688020  0  6                     
G 1  23312010.282       85339.678        2020.053          48.500  
G 3  21919761.896      -34258.833        -798.046          38.750  
G11  23973941.234       84021.741        2027.926          43.750  
G17  21620363.544      -95638.872       -2305.844          51.000  
G22  23480491.193       33334.484         827.538          47.500  
G28  21202395.417       14856.720         380.421          47.750  
> 2018  4 22 11 21 37.5688020  0  6                     
G 1  23313880.122       85541.657        2020.284          48.500  
G 3  21921579.112      -34338.696        -798.023          38.750  
G11  23975812.126       84224.546        2028.967          43.750  
G17  21622151.557      -95869.446       -2305.666          51.000  
G22  23482338.850       33417.235         827.552          47.750  
G28  21204235.716       14894.793         381.136          47.750  
> 2018  4 22 11 21 37.6688020  0  6                     
G 1  23315750.629       85743.624        2020.273          48.750  
G 3  21923396.377      -34418.539        -797.623          39.000  
G11  23977683.235       84427.362        2028.949          44.000  
G17  21623939.308      -96100.024       -2305.137          50.750  
G22  23484186.552       33499.996         828.249          47.500  
G28  21206071.891       14932.862         380.883          47.500  
> 2018  4 22 11 21 37.7688020  0  6                     
G 1  23317620.558       85945.673        2020.571          48.750  
G 3  21925210.766      -34498.312        -797.429          39.250  
G11  23979552.770       84630.224        2027.660          43.750  
G17  21625726.598      -96330.514       -2305.179          50.750  
G22  23486035.127       33582.834         828.224          47.750  
G28  21207911.172       14971.026         381.035          47.500  
> 2018  4 22 11 21 37.8688020  0  6                     
G 1  23319491.264       86147.787        2021.758          48.750  
G 3  21927026.853      -34578.017        -798.710          38.750  
G11  23981423.108       84833.163        2030.442          43.750  
G17  21627514.735      -96560.955       -2303.768          50.750  
G22  23487881.495       33665.739         829.214          47.500  
G28  21209750.851       15009.250         383.128          47.750  
> 2018  4 22 11 21 37.9688020  0  6                     
G 1  23321360.311       86349.957        2021.589          48.750  
G 3  21928844.696      -34657.641        -797.130          38.250  
G11  23983293.701       85036.149        2030.299          43.750  
G17  21629302.071      -96791.344       -2303.799          50.750  
G22  23489728.459       33748.704         830.337          47.500  
G28  21211588.063       15047.528         382.606          47.500  
> 2018  4 22 11 21 38.0688020  0  6                     
G 1  23323230.069       86552.149        2021.595          48.250  
G 3  21930662.559      -34737.257        -795.707          38.750  
G11  23985164.460       85239.159        2029.962          43.750  
G17  21631090.522      -97021.690       -2303.463          50.500  
G22  23491575.727       33831.688         829.318          47.750  
G28  21213428.083       15085.836         383.166          47.750  
> 2018  4 22 11 21 38.1688020  0  6                     
G 1  23325100.381       86754.336        2022.336          48.500  
G 3  21932477.448      -34816.870        -797.024          38.500  
G11  23987035.146       85442.176        2030.799          44.000  
G17  21632878.488      -97252.052       -2303.766          50.750  
G22  23493422.516       33914.672         830.068          47.500  
G28  21215265.656       15124.149         383.424          47.750  
> 2018  4 22 11 21 38.2688020  0  6                     
G 1  23326970.590       86956.536        2021.881          48.500  
G 3  21934294.026      -34896.456        -795.647          38.750  
G11  23988904.912       85645.188        2030.304          43.750  
G17  21634666.131      -97482.392       -2303.768          50.500  
G22  23495270.019       33997.690         830.109          47.500  
G28  21217104.312       15162.473         382.668          47.500  
> 2018  4 22 11 21 38.3688020  0  6                     
G 1  23328841.029       87158.684        2020.925          48.750  
G 3  21936110.736      -34976.081        -796.096          38.750  
G11  23990774.479       85848.183        2029.923          44.000  
G17  21636453.814      -97712.784       -2304.242          50.750  
G22  23497117.988       34080.652         829.557          47.500  
G28  21218945.097       15200.764         383.315          47.750  
> 2018  4 22 11 21 38.4688020  0  6                     
G 1  23330710.762       87360.837        2021.434          48.750  
G 3  21937926.504      -35055.696        -794.851          38.750  
G11  23992644.601       86051.155        2029.760          43.750  
G17  21638241.030      -97943.176       -2304.487          50.750  
G22  23498966.387       34163.626         829.706          47.750  
G28  21220782.628       15239.050         382.605          47.750  
> 2018  4 22 11 21 38.5688020  0  6                     
G 1  23332581.595       87562.949        2021.113          48.750  
G 3  21939741.960      -35135.360        -796.930          38.500  
G11  23994513.917       86254.072        2028.941          44.000  
G17  21640028.456      -98173.611       -2304.452          50.750  
G22  23500812.976       34246.550         829.381          47.750  
G28  21222623.895       15277.295         381.988          47.750  
> 2018  4 22 11 21 38.6688020  0  6                     
G 1  23334451.811       87765.068        2021.030          48.750  
G 3  21941558.847      -35215.012        -796.429          39.000  
G11  23996385.433       86457.021        2029.751          44.000  
G17  21641815.755      -98404.033       -2304.518          50.750  
G22  23502660.745       34329.488         830.022          47.750  
G28  21224461.771       15315.564         383.202          47.500  
> 2018  4 22 11 21 38.7688020  0  6                     
G 1  23336322.259       87967.144        2020.616          48.500  
G 3  21943375.410      -35294.691        -797.061          38.750  
G11  23998255.295       86659.925        2029.786          43.500  
G17  21643603.510      -98634.485       -2304.356          50.750  
G22  23504508.060       34412.392         829.423          47.750  
G28  21226300.499       15353.793         382.307          47.500  
> 2018  4 22 11 21 38.8688020  0  6                     
G 1  23338191.750       88169.245        2021.647          48.500  
G 3  21945191.412      -35374.333        -795.399          38.250  
G11  24000126.555       86862.839        2029.198          44.000  
G17  21645391.795      -98864.937       -2304.519          50.750  
G22  23506354.991       34495.319         829.283          47.500  
G28  21228139.946       15392.031         382.784          47.750  
> 2018  4 22 11 21 38.9688020  0  6                     
G 1  23340061.336       88371.326        2021.584          48.500  
G 3  21947008.682      -35454.016        -795.704          38.250  
G11  24001996.013       87065.744        2029.826          44.000  
G17  21647178.998      -99095.390       -2303.959          50.750  
G22  23508202.467       34578.226         829.197          47.750  
G28  21229977.822       15430.280         383.134          47.750  
> 2018  4 22 11 21 39.0688020  0  6                     
G 1  23341931.428       88573.470        2021.499          48.250  
G 3  21948825.228      -35533.617        -796.013          38.750  
G11  24003866.212       87268.712        2030.008          44.000  
G17  21648967.433      -99325.784       -2303.747          50.750  
G22  23510051.041       34661.209         829.643          47.750  
G28  21231817.636       15468.579         383.108          47.500  
> 2018  4 22 11 21 39.1688020  0  6                     
G 1  23343801.290       88775.648        2022.291          48.500  
G 3  21950642.186      -35613.178        -795.116          38.500  
G11  24005736.542       87471.692        2029.597          43.750  
G17  21650755.120      -99556.140       -2302.988          50.750  
G22  23511898.852       34744.232         830.245          47.750  
G28  21233654.996       15506.917         383.839          47.500  
> 2018  4 22 11 21 39.2688020  0  6                     
G 1  23345671.111       88977.898        2022.369          48.500  
G 3  21952457.825      -35692.650        -795.638          38.000  
G11  24007606.096       87674.791        2030.011          43.750  
G17  21652543.171      -99786.420       -2302.698          50.750  
G22  23513746.084       34827.334         831.308          47.750  
G28  21235494.143       15545.347         384.050          47.500  
> 2018  4 22 11 21 39.3688020  0  6                     
G 1  23347541.014       89180.245        2024.599          48.500  
G 3  21954275.093      -35772.016        -790.134          38.250  
G11  24009476.149       87877.945        2033.182          43.750  
G17  21654331.265     -100016.618       -2300.796          50.750  
G22  23515593.046       34910.523         832.900          47.750  
G28  21237333.887       15583.859         385.912          47.750  
> 2018  4 22 11 21 39.4688020  0  6                     
G 1  23349411.533       89382.600        2023.636          48.500  
G 3  21956089.101      -35851.375        -793.622          38.500  
G11  24011346.788       88081.126        2031.292          44.000  
G17  21656119.142     -100246.796       -2302.307          50.750  
G22  23517439.591       34993.731         832.214          47.750  
G28  21239171.003       15622.404         385.266          47.750  
> 2018  4 22 11 21 39.5688020  0  6                     
G 1  23351281.613       89584.926        2023.005          48.500  
G 3  21957904.160      -35930.784        -794.789          38.500  
G11  24013216.600       88284.264        2031.645          44.000  
G17  21657906.781     -100477.013       -2302.891          50.750  
G22  23519287.214       35076.906         831.717          47.750  
G28  21241011.187       15660.900         384.653          47.750  
> 2018  4 22 11 21 39.6688020  0  6                     
G 1  23353152.158       89787.228        2024.101          48.750  
G 3  21959720.493      -36010.200        -794.197          38.750  
G11  24015087.463       88487.386        2032.021          44.250  
G17  21659693.972     -100707.253       -2302.474          50.750  
G22  23521134.284       35160.053         830.939          47.750  
G28  21242849.709       15699.373         384.616          47.750  
> 2018  4 22 11 21 39.7688020  0  6                     
G 1  23355021.223       89989.495        2022.994          48.500  
G 3  21961537.166      -36089.634        -794.176          38.000  
G11  24016957.858       88690.478        2030.790          44.250  
G17  21661481.555     -100937.514       -2302.787          50.750  
G22  23522981.980       35243.187         830.964          47.500  
G28  21244688.532       15737.836         384.063          47.750  
> 2018  4 22 11 21 39.8688020  0  6                     
G 1  23356891.204       90191.779        2023.149          48.750  
G 3  21963355.727      -36169.024        -793.756          38.750  
G11  24018828.459       88893.574        2030.866          43.750  
G17  21663269.288     -101167.754       -2302.547          50.750  
G22  23524830.124       35326.342         831.296          47.750  
G28  21246528.960       15776.317         384.803          47.750  
> 2018  4 22 11 21 39.9688020  0  6                     
G 1  23358761.293       90394.021        2022.271          48.500  
G 3  21965172.233      -36248.497        -795.190          38.250  
G11  24020698.407       89096.637        2031.148          43.750  
G17  21665056.882     -101398.041       -2303.117          50.500  
G22  23526678.723       35409.468         831.227          47.500  
G28  21248366.030       15814.770         384.266          47.750  
> 2018  4 22 11 21 40.0688020  0  6                     
G 1  23360631.186       90596.277        2021.933          48.500  
G 3  21966988.112      -36327.924        -793.706          38.500  
G11  24022568.540       89299.714        2029.803          44.000  
G17  21666844.980     -101628.320       -2302.785          50.750  
G22  23528526.224       35492.586         830.979          47.750  
G28  21250206.438       15853.215         384.397          47.500  
> 2018  4 22 11 21 40.1688020  0  6                     
G 1  23362501.073       90798.532        2023.210          48.750  
G 3  21968804.850      -36407.365        -795.178          38.750  
G11  24024439.700       89502.782        2029.820          44.000  
G17  21668632.916     -101858.601       -2303.231          50.750  
G22  23530372.150       35575.716         830.586          47.750  
G28  21252044.666       15891.671         384.426          47.750  
> 2018  4 22 11 21 40.2688020  0  6                     
G 1  23364370.834       91000.725        2021.914          48.750  
G 3  21970621.955      -36486.852        -795.500          38.250  
G11  24026309.879       89705.799        2030.992          44.250  
G17  21670420.269     -102088.936       -2303.975          50.750  
G22  23532219.236       35658.798         831.956          47.750  
G28  21253883.692       15930.079         384.023          47.750  
> 2018  4 22 11 21 40.3688020  0  6                     
G 1  23366240.834       91202.886        2021.300          48.500  
G 3  21972437.088      -36566.360        -793.631          38.750  
G11  24028180.357       89908.784        2029.946          44.000  
G17  21672208.383     -102319.289       -2303.676          50.750  
G22  23534066.684       35741.842         830.594          47.750  
G28  21255723.868       15968.460         383.666          47.750  
> 2018  4 22 11 21 40.4688020  0  6                     
G 1  23368111.401       91405.033        2021.766          48.750  
G 3  21974253.146      -36645.876        -793.984          38.500  
G11  24030050.912       90111.730        2030.374          44.000  
G17  21673996.189     -102549.689       -2304.213          50.750  
G22  23535913.406       35824.873         830.700          47.750  
G28  21257560.937       16006.816         383.577          47.500  
> 2018  4 22 11 21 40.5688020  0  6                     
G 1  23369981.979       91607.179        2021.267          48.500  
G 3  21976069.100      -36725.394        -794.967          38.500  
G11  24031921.449       90314.701        2028.712          44.000  
G17  21675784.065     -102780.058       -2304.545          50.750  
G22  23537760.594       35907.916         829.891          47.750  
G28  21259400.928       16045.196         383.802          47.750  
> 2018  4 22 11 21 40.6688020  0  6                     
G 1  23371852.315       91809.298        2021.110          48.500  
G 3  21977886.645      -36804.912        -795.498          38.000  
G11  24033791.097       90517.628        2029.436          44.000  
G17  21677571.986     -103010.466       -2304.715          50.500  
G22  23539608.261       35990.938         829.963          47.750  
G28  21261239.349       16083.543         383.293          47.500  
> 2018  4 22 11 21 40.7688020  0  6                     
G 1  23373722.516       92011.421        2021.366          48.750  
G 3  21979702.759      -36884.432        -794.494          38.250  
G11  24035661.307       90720.590        2029.255          44.250  
G17  21679359.746     -103240.864       -2304.438          50.750  
G22  23541455.797       36073.967         829.691          47.750  
G28  21263077.806       16121.907         383.298          47.750  
> 2018  4 22 11 21 40.8688020  0  6                     
G 1  23375591.858       92213.506        2021.127          48.750  
G 3  21981518.174      -36964.005        -796.196          38.000  
G11  24037531.418       90923.471        2027.703          44.000  
G17  21681147.427     -103471.313       -2304.760          50.500  
G22  23543302.139       36156.953         830.624          47.500  
G28  21264917.376       16160.216         382.654          47.500  
> 2018  4 22 11 21 40.9688020  0  6                     
G 1  23377461.871       92415.590        2020.664          48.500  
G 3  21983334.891      -37043.572        -796.435          38.000  
G11  24039402.478       91126.375        2028.674          44.250  
G17  21682934.853     -103701.758       -2305.105          50.500  
G22  23545149.499       36239.928         829.782          47.750  
G28  21266755.215       16198.539         383.170          47.500  
> 2018  4 22 11 21 41.0688020  0  6                     
G 1  23379332.570       92617.656        2021.175          48.500  
G 3  21985151.137      -37123.141        -795.362          38.000  
G11  24041272.706       91329.257        2029.328          43.750  
G17  21684722.650     -103932.205       -2304.482          50.500  
G22  23546997.458       36322.908         830.130          48.000  
G28  21268595.742       16236.857         383.174          47.500  
> 2018  4 22 11 21 41.1688020  0  6                     
G 1  23381202.382       92819.726        2020.466          48.750  
G 3  21986966.902      -37202.662        -796.213          38.250  
G11  24043142.279       91532.150        2028.569          44.250  
G17  21686510.569     -104162.658       -2305.095          50.750  
G22  23548844.953       36405.895         829.755          47.750  
G28  21270434.004       16275.176         383.081          47.500  
> 2018  4 22 11 21 41.2688020  0  6                     
G 1  23383072.685       93021.779        2021.251          48.750  
G 3  21988782.471      -37282.228        -794.274          38.250  
G11  24045011.789       91735.027        2028.604          44.000  
G17  21688298.414     -104393.119       -2304.635          50.500  
G22  23550692.281       36488.879         829.612          48.000  
G28  21272272.522       16313.487         383.158          47.750  
> 2018  4 22 11 21 41.3688020  0  6                     
G 1  23384942.692       93223.815        2020.449          48.750  
G 3  21990597.340      -37361.806        -796.272          38.000  
G11  24046881.953       91937.871        2028.691          44.000  
G17  21690086.545     -104623.602       -2304.907          50.750  
G22  23552540.305       36571.825         829.253          47.750  
G28  21274112.683       16351.776         383.056          47.500  
> 2018  4 22 11 21 41.4688020  0  6                     
G 1  23386811.975       93425.821        2020.048          48.750  
G 3  21992414.331      -37441.401        -794.590          38.500  
G11  24048752.050       92140.703        2029.202          44.250  
G17  21691874.076     -104854.108       -2304.660          50.500  
G22  23554387.847       36654.771         829.724          48.000  
G28  21275950.609       16390.046         382.622          47.500  
> 2018  4 22 11 21 41.5688020  0  6                     
G 1  23388681.666       93627.868        2020.255          48.750  
G 3  21994234.523      -37520.976        -796.324          38.500  
G11  24050622.275       92343.547        2028.947          44.250  
G17  21693661.965     -105084.593       -2305.210          50.750  
G22  23556234.824       36737.743         829.657          47.750  
G28  21277791.341       16428.346         382.631          47.500  
> 2018  4 22 11 21 41.6688020  0  6                     
G 1  23390552.291       93829.889        2020.367          48.500  
G 3  21996051.953      -37600.573        -796.034          38.500  
G11  24052492.876       92546.380        2028.047          44.500  
G17  21695449.507     -105315.085       -2305.397          50.500  
G22  23558082.348       36820.702         829.744          48.000  
G28  21279628.916       16466.649         382.918          47.500  
> 2018  4 22 11 21 41.7688020  0  6                     
G 1  23392422.593       94031.916        2020.448          48.500  
G 3  21997869.737      -37680.123        -797.074          38.250  
G11  24054363.697       92749.229        2028.798          44.000  
G17  21697236.249     -105545.581       -2304.827          50.750  
G22  23559929.943       36903.656         830.184          48.000  
G28  21281467.075       16504.945         383.061          47.750  
> 2018  4 22 11 21 41.8688020  0  6                     
G 1  23394292.805       94233.946        2020.084          48.500  
G 3  21999686.563      -37759.668        -794.094          38.500  
G11  24056233.578       92952.077        2029.149          44.250  
G17  21699024.066     -105776.065       -2304.504          50.750  
G22  23561777.002       36986.629         829.814          48.000  
G28  21283307.124       16543.257         383.266          47.750  
> 2018  4 22 11 21 41.9688020  0  6                     
G 1  23396162.785       94436.029        2020.934          48.500  
G 3  22001500.605      -37839.175        -795.637          38.000  
G11  24058103.312       93154.965        2028.714          44.250  
G17  21700811.080     -106006.507       -2304.710          50.500  
G22  23563625.068       37069.646         830.131          47.750  
G28  21285145.367       16581.614         383.524          47.500  
> 2018  4 22 11 21 42.0688020  0  6                     
G 1  23398033.181       94638.122        2021.573          48.500  
G 3  22003317.102      -37918.671        -795.129          38.250  
G11  24059973.767       93357.998        2076.236          44.500  
G17  21702598.873     -106236.930       -2304.450          50.750  
G22  23565472.751       37152.697         831.048          47.750  
G28  21286985.408       16619.989         383.822          47.750  
> 2018  4 22 11 21 42.1688020  0  6                     
G 1  23399902.950       94840.146        2020.102          48.500  
G 3  22005134.612      -37998.187        -794.292          38.250  
G11  24061844.383       93560.729        2040.711          44.250  
G17  21704386.672     -106467.407       -2304.862          50.750  
G22  23567319.614       37235.671         829.424          47.750  
G28  21288822.589       16658.312         382.987          47.750  
> 2018  4 22 11 21 42.2688020  0  6                     
G 1  23401772.874       95042.240        2020.579          48.500  
G 3  22006950.584      -38077.661        -794.693          38.500  
G11  24063713.195       93763.612        2028.514          44.500  
G17  21706174.124     -106697.840       -2304.971          50.500  
G22  23569166.277       37318.723         830.995          48.000  
G28  21290660.405       16696.703         383.379          47.500  
> 2018  4 22 11 21 42.3688020  0  6                     
G 1  23403642.798       95244.310        2020.691          48.750  
G 3  22008765.979      -38157.164        -795.516          38.250  
G11  24065583.957       93966.505        2029.155          44.500  
G17  21707961.907     -106928.273       -2304.181          50.500  
G22  23571013.637       37401.755         830.432          47.750  
G28  21292501.091       16735.074         384.061          47.750  
> 2018  4 22 11 21 42.4688020  0  6                     
G 1  23405512.926       95446.407        2020.784          48.750  
G 3  22010582.210      -38236.627        -795.659          38.250  
G11  24067453.753       94169.417        2029.091          44.500  
G17  21709749.289     -107158.686       -2304.167          50.500  
G22  23572861.180       37484.815         830.644          47.500  
G28  21294338.474       16773.482         383.899          47.500  
> 2018  4 22 11 21 42.5688020  0  6                     
G 1  23407382.562       95648.512        2021.489          48.500  
G 3  22012398.529      -38316.058        -796.283          38.500  
G11  24069323.686       94372.327        2029.001          44.250  
G17  21711536.386     -107389.101       -2303.676          50.500  
G22  23574708.699       37567.877         830.673          48.000  
G28  21296177.853       16811.882         383.942          47.500  
> 2018  4 22 11 21 42.6688020  0  6                     
G 1  23409252.847       95850.599        2021.551          48.750  
G 3  22014217.146      -38395.501        -793.454          38.000  
G11  24071193.828       94575.250        2030.209          44.500  
G17  21713324.093     -107619.507       -2303.403          50.500  
G22  23576556.392       37650.952         831.362          47.750  
G28  21298016.689       16850.292         385.320          47.750  
> 2018  4 22 11 21 42.7688020  0  6                     
G 1  23411122.610       96052.722        2020.847          48.500  
G 3  22016033.055      -38474.932        -794.136          38.000  
G11  24073064.663       94778.161        2029.145          44.250  
G17  21715111.470     -107849.913       -2304.126          50.250  
G22  23578403.606       37734.028         830.743          47.500  
G28  21299855.061       16888.721         385.210          47.500  
> 2018  4 22 11 21 42.8688020  0  6                     
G 1  23412993.037       96254.852        2021.227          48.500  
G 3  22017850.021      -38554.337        -792.730          38.000  
G11  24074935.205       94981.105        2028.657          44.500  
G17  21716900.041     -108080.282       -2304.182          50.500  
G22  23580250.711       37817.152         830.899          47.750  
G28  21301695.261       16927.157         383.594          47.500  
> 2018  4 22 11 21 42.9688020  0  6                     
G 1  23414862.772       96456.996        2021.115          48.750  
G 3  22019667.214      -38633.701        -795.270          38.250  
G11  24076805.417       95184.042        2028.723          44.500  
G17  21718687.613     -108310.651       -2304.074          50.500  
G22  23582097.419       37900.272         831.384          47.750  
G28  21303532.966       16965.628         384.281          47.750  
> 2018  4 22 11 21 43.0688020  0  6                     
G 1  23416732.646       96659.119        2021.453          48.500  
G 3  22021483.355      -38713.101        -793.528          38.000  
G11  24078675.016       95386.991        2030.056          44.500  
G17  21720475.337     -108541.034       -2303.657          50.500  
G22  23583944.310       37983.382         831.599          47.750  
G28  21305372.752       17004.085         385.276          47.500  
> 2018  4 22 11 21 43.1688020  0  6                     
G 1  23418602.344       96861.262        2021.532          48.500  
G 3  22023298.760      -38792.465        -794.192          38.250  
G11  24080544.718       95589.946        2030.346          44.500  
G17  21722263.256     -108771.400       -2303.799          50.500  
G22  23585792.045       38066.515         831.554          48.000  
G28  21307211.581       17042.560         384.824          47.500  
> 2018  4 22 11 21 43.2688020  0  6                     
G 1  23420472.208       97063.354        2020.850          48.750  
G 3  22025114.760      -38871.906        -793.717          38.250  
G11  24082415.132       95792.862        2029.859          44.500  
G17  21724050.824     -109001.804       -2303.744          50.500  
G22  23587639.135       38149.612         831.733          48.000  
G28  21309050.478       17080.991         384.489          47.750  
> 2018  4 22 11 21 43.3688020  0  6                     
G 1  23422342.108       97265.427        2021.212          48.500  
G 3  22026931.803      -38951.319        -794.172          38.250  
G11  24084286.003       95995.730        2028.897          44.750  
G17  21725838.729     -109232.234       -2304.185          50.500  
G22  23589486.544       38232.673         830.411          48.000  
G28  21310890.591       17119.413         384.232          47.500  
> 2018  4 22 11 21 43.4688020  0  6                     
G 1  23424211.972       97467.442        2020.507          48.750  
G 3  22028748.426      -39030.798        -794.792          38.500  
G11  24086156.474       96198.557        2028.431          44.500  
G17  21727626.407     -109462.730       -2305.621          50.500  
G22  23591334.874       38315.686         830.274          47.750  
G28  21312727.767       17157.761         383.058          47.500  
> 2018  4 22 11 21 43.5688020  0  6                     
G 1  23426081.687       97669.377        2019.172          48.750  
G 3  22030564.991      -39110.369        -795.789          38.250  
G11  24088026.700       96401.296        2026.902          44.500  
G17  21729413.597     -109693.308       -2306.498          50.500  
G22  23593182.480       38398.626         829.081          48.000  
G28  21314568.394       17196.040         382.349          47.500  
> 2018  4 22 11 21 43.6688020  0  6                     
G 1  23427951.446       97871.214        2017.777          48.500  
G 3  22032380.008      -39190.006        -795.990          38.250  
G11  24089897.492       96603.939        2025.862          44.750  
G17  21731200.777     -109923.971       -2307.420          50.500  
G22  23595028.680       38481.459         827.354          47.750  
G28  21316405.604       17234.235         382.025          47.500  
> 2018  4 22 11 21 43.7688020  0  6                     
G 1  23429821.276       98072.940        2017.599          48.500  
G 3  22034195.084      -39269.768        -797.327          38.000  
G11  24091766.317       96806.476        2025.282          44.250  
G17  21732988.182     -110154.744       -2308.073          50.500  
G22  23596877.057       38564.211         827.560          47.750  
G28  21318244.593       17272.319         380.269          47.500  
> 2018  4 22 11 21 43.8688020  0  6                     
G 1  23431692.232       98274.633        2017.169          48.500  
G 3  22036011.772      -39349.547        -798.958          37.750  
G11  24093636.045       97008.977        2024.765          44.750  
G17  21734775.570     -110385.546       -2308.506          50.500  
G22  23598723.493       38646.915         826.535          47.750  
G28  21320084.601       17310.366         380.982          47.500  
> 2018  4 22 11 21 43.9688020  0  6                     
G 1  23433561.695       98476.300        2017.475          48.500  
G 3  22037828.985      -39429.346        -797.446          38.250  
G11  24095505.500       97211.460        2025.032          44.500  
G17  21736563.117     -110616.379       -2307.772          50.500  
G22  23600570.767       38729.599         827.405          47.750  
G28  21321922.144       17348.413         380.659          47.500  
> 2018  4 22 11 21 44.0688020  0  6                     
G 1  23435431.151       98678.100        2018.550          48.500  
G 3  22039643.887      -39509.004        -796.733          37.750  
G11  24097375.233       97414.072        2027.354          44.250  
G17  21738350.721     -110847.082       -2306.456          50.500  
G22  23602418.663       38812.424         828.936          47.750  
G28  21323761.992       17386.579         382.238          47.250  
> 2018  4 22 11 21 44.1688020  0  6                     
G 1  23437301.491       98880.012        2019.961          48.250  
G 3  22041462.554      -39588.563        -794.483          38.250  
G11  24099245.508       97616.778        2027.708          44.500  
G17  21740138.440     -111077.665       -2305.513          50.000  
G22  23604266.058       38895.362         829.972          48.000  
G28  21325600.166       17424.864         383.810          47.500  
> 2018  4 22 11 21 44.2688020  0  6                     
G 1  23439171.260       99082.000        2020.242          48.250  
G 3  22043280.663      -39668.015        -795.427          38.000  
G11  24101114.870       97819.592        2029.010          44.750  
G17  21741926.151     -111308.171       -2305.120          50.500  
G22  23606113.283       38978.384         830.088          48.000  
G28  21327439.034       17463.229         383.729          47.500  
> 2018  4 22 11 21 44.3688020  0  6                     
G 1  23441040.765       99284.058        2020.295          48.500  
G 3  22045096.129      -39747.415        -794.372          38.250  
G11  24102984.996       98022.456        2029.086          44.750  
G17  21743714.119     -111538.612       -2304.304          50.250  
G22  23607959.909       39061.481         831.337          48.000  
G28  21329279.009       17501.670         384.488          47.500  
> 2018  4 22 11 21 44.4688020  0  6                     
G 1  23442911.271       99486.098        2020.959          48.250  
G 3  22046911.283      -39826.796        -794.022          37.750  
G11  24104855.770       98225.296        2028.504          44.750  
G17  21745502.325     -111769.073       -2304.515          50.500  
G22  23609806.382       39144.554         831.123          47.750  
G28  21331116.369       17540.102         384.949          47.750  
> 2018  4 22 11 21 44.5688020  0  6                     
G 1  23444781.148       99688.114        2020.547          48.750  
G 3  22048727.682      -39906.225        -795.285          38.250  
G11  24106726.083       98428.131        2028.874          44.750  
G17  21747289.962     -111999.552       -2304.855          50.500  
G22  23611653.398       39227.628         831.238          48.000  
G28  21332957.301       17578.507         384.483          47.500  
> 2018  4 22 11 21 44.6688020  0  6                     
G 1  23446651.614       99890.096        2020.279          48.500  
G 3  22050545.145      -39985.655        -793.972          37.750  
G11  24108596.302       98630.911        2027.872          44.750  
G17  21749077.529     -112230.063       -2305.427          50.250  
G22  23613501.033       39310.650         830.466          48.000  
G28  21334795.347       17616.892         383.720          47.500  
> 2018  4 22 11 21 44.7688020  0  6                     
G 1  23448522.190      100092.052        2019.128          48.500  
G 3  22052362.397      -40065.161        -796.513          38.250  
G11  24110466.482       98833.663        2027.206          44.500  
G17  21750865.015     -112460.610       -2306.154          50.250  
G22  23615349.251       39393.641         830.016          48.000  
G28  21336634.634       17655.226         383.037          47.500  
> 2018  4 22 11 21 44.8688020  0  6                     
G 1  23450391.934      100293.933        2018.797          48.500  
G 3  22054178.378      -40144.664        -796.119          37.750  
G11  24112335.773       99036.359        2026.550          44.500  
G17  21752653.265     -112691.213       -2306.239          50.500  
G22  23617197.172       39476.580         829.148          48.000  
G28  21338474.247       17693.514         382.113          47.500  
> 2018  4 22 11 21 44.9688020  0  6                     
G 1  23452262.020      100495.804        2018.034          48.500  
G 3  22055994.361      -40224.202        -795.452          38.250  
G11  24114205.927       99239.048        2027.267          44.750  
G17  21754440.420     -112921.835       -2306.808          50.500  
G22  23619045.661       39559.521         828.726          47.750  
G28  21340311.332       17731.805         382.724          47.500  
> 2018  4 22 11 21 45.0688020  0  6                     
G 1  23454132.275      100697.641        2018.597          48.500  
G 3  22057810.966      -40303.810        -795.712          37.500  
G11  24116076.797       99441.683        2026.494          44.500  
G17  21756228.224     -113152.491       -2306.911          50.500  
G22  23620893.151       39642.404         828.236          47.750  
G28  21342151.444       17770.049         382.463          47.500  
> 2018  4 22 11 21 45.1688020  0  6                     
G 1  23456001.815      100899.421        2017.835          48.250  
G 3  22059626.683      -40383.391        -795.435          38.000  
G11  24117945.968       99644.271        2026.425          44.500  
G17  21758016.245     -113383.202       -2307.535          50.250  
G22  23622739.732       39725.256         828.365          48.000  
G28  21343989.799       17808.250         383.199          47.500  
> 2018  4 22 11 21 45.2688020  0  6                     
G 1  23457871.343      101101.170        2016.987          48.500  
G 3  22061441.908      -40463.054        -796.654          37.500  
G11  24119816.868       99846.827        2025.037          44.750  
G17  21759803.892     -113613.948       -2307.936          50.250  
G22  23624586.522       39808.075         828.219          47.750  
G28  21345827.619       17846.414         381.182          47.500  
> 2018  4 22 11 21 45.3688020  0  6                     
G 1  23459741.282      101302.926        2018.017          48.250  
G 3  22063257.976      -40542.680        -795.172          38.500  
G11  24121687.062      100049.382        2025.617          45.000  
G17  21761591.277     -113844.664       -2307.396          50.250  
G22  23626434.212       39890.893         827.831          48.000  
G28  21347667.722       17884.604         382.494          47.500  
> 2018  4 22 11 21 45.4688020  0  6                     
G 1  23461610.507      101504.652        2017.694          48.250  
G 3  22065074.647      -40622.351        -798.257          37.500  
G11  24123557.201      100251.924        2026.086          44.250  
G17  21763378.830     -114075.432       -2307.957          50.250  
G22  23628282.255       39973.709         828.463          47.500  
G28  21349505.259       17922.757         382.253          47.250  
> 2018  4 22 11 21 45.5688020  0  6                     
G 1  23463480.609      101706.403        2017.123          48.000  
G 3  22066893.170      -40701.981        -796.329          37.750  
G11  24125427.673      100454.470        2025.224          44.750  
G17  21765166.267     -114306.171       -2307.495          50.250  
G22  23630129.300       40056.533         827.773          48.000  
G28  21351343.675       17960.942         382.031          47.500  
> 2018  4 22 11 21 45.6688020  0  6                     
G 1  23465350.665      101908.139        2017.040          48.500  
G 3  22068712.740      -40781.619        -796.307          38.000  
G11  24127298.355      100657.003        2025.206          44.750  
G17  21766953.998     -114536.931       -2308.109          50.500  
G22  23631976.555       40139.340         827.921          48.000  
G28  21353182.173       17999.099         381.217          47.750  
> 2018  4 22 11 21 45.7688020  0  6                     
G 1  23467220.480      102109.806        2016.857          48.500  
G 3  22070528.929      -40861.318        -797.640          37.500  
G11  24129168.875      100859.478        2024.548          44.750  
G17  21768741.376     -114767.747       -2308.059          50.500  
G22  23633823.923       40222.105         827.193          48.000  
G28  21355019.537       18037.215         380.876          47.500  
> 2018  4 22 11 21 45.8688020  0  6                     
G 1  23469090.334      102311.464        2017.320          48.000  
G 3  22072343.383      -40941.037        -799.952          37.750  
G11  24131039.131      101061.949        2025.565          45.000  
G17  21770529.683     -114998.571       -2308.401          50.250  
G22  23635671.294       40304.855         827.775          48.000  
G28  21356860.472       18075.322         381.357          47.750  
> 2018  4 22 11 21 45.9688020  0  6                     
G 1  23470960.335      102513.179        2017.468          48.250  
G 3  22074158.608      -41020.647        -795.900          37.750  
G11  24132908.592      101264.461        2025.211          45.000  
G17  21772317.731     -115229.351       -2307.676          50.500  
G22  23637518.257       40387.653         828.455          48.250  
G28  21358698.279       18113.482         381.854          47.500  
> 2018  4 22 11 21 46.0688020  0  6                     
G 1  23472830.835      102714.903        2017.633          48.250  
G 3  22075975.199      -41100.319        -796.458          38.000  
G11  24134778.814      101466.990        2025.971          45.000  
G17  21774104.907     -115460.099       -2307.348          50.250  
G22  23639366.094       40470.482         828.704          48.000  
G28  21360537.997       18151.655         382.397          47.750  
> 2018  4 22 11 21 46.1688020  0  6                     
G 1  23474700.716      102916.691        2018.067          48.250  
G 3  22077791.982      -41179.876        -795.891          37.750  
G11  24136649.530      101669.581        2025.649          45.000  
G17  21775892.679     -115690.801       -2306.466          50.500  
G22  23641213.960       40553.363         829.288          48.000  
G28  21362377.653       18189.902         382.947          47.500  
> 2018  4 22 11 21 46.2688020  0  6                     
G 1  23476570.791      103118.551        2019.085          48.250  
G 3  22079610.475      -41259.332        -792.559          37.750  
G11  24138519.180      101872.258        2028.035          45.000  
G17  21777679.938     -115921.417       -2305.799          50.500  
G22  23643061.103       40636.341         830.967          47.750  
G28  21364216.183       18228.230         384.581          47.500  
> 2018  4 22 11 21 46.3688020  0  6                     
G 1  23478441.096      103320.442        2019.421          47.750  
G 3  22081425.673      -41338.766        -793.223          37.750  
G11  24140390.468      102074.940        2027.360          44.500  
G17  21779467.825     -116152.004       -2305.521          50.000  
G22  23644908.091       40719.337         829.852          48.000  
G28  21366056.984       18266.579         384.030          47.500  
> 2018  4 22 11 21 46.4688020  0  6                     
G 1  23480310.320      103522.365        2019.395          48.250  
G 3  22083242.290      -41418.143        -792.703          38.000  
G11  24142260.900      102277.670        2027.254          44.750  
G17  21781255.642     -116382.554       -2305.282          50.250  
G22  23646755.943       40802.392         830.336          48.250  
G28  21367894.234       18304.986         383.946          47.500  
> 2018  4 22 11 21 46.5688020  0  6                     
G 1  23482180.492      103724.337        2019.634          48.250  
G 3  22085058.114      -41497.523        -792.668          37.500  
G11  24144130.999      102480.454        2027.315          44.750  
G17  21783043.071     -116613.069       -2305.065          50.250  
G22  23648603.353       40885.474         830.884          47.750  
G28  21369732.953       18343.432         384.786          47.250  
> 2018  4 22 11 21 46.6688020  0  6                     
G 1  23484049.374      103926.293        2019.758          48.000  
G 3  22086873.730      -41576.894        -793.004          38.250  
G11  24146001.166      102683.211        2028.286          45.000  
G17  21784830.889     -116843.592       -2305.345          50.250  
G22  23650450.842       40968.545         830.998          48.000  
G28  21371571.481       18381.858         384.704          47.500  
> 2018  4 22 11 21 46.7688020  0  6                     
G 1  23485919.594      104128.180        2017.822          48.000  
G 3  22088689.601      -41656.297        -795.384          37.250  
G11  24147871.231      102885.902        2026.532          44.250  
G17  21786618.525     -117074.179       -2306.384          50.250  
G22  23652297.782       41051.570         830.481          47.750  
G28  21373409.761       18420.235         383.359          47.250  
> 2018  4 22 11 21 46.8688020  0  6                     
G 1  23487789.981      104329.950        2017.951          48.000  
G 3  22090504.465      -41735.857        -795.183          37.750  
G11  24149741.020      103088.464        2024.642          45.000  
G17  21788406.029     -117304.897       -2307.361          50.000  
G22  23654144.731       41134.447         828.538          48.000  
G28  21375250.709       18458.478         382.241          47.500  
> 2018  4 22 11 21 46.9688020  0  6                     
G 1  23489660.684      104531.622        2016.200          48.000  
G 3  22092321.207      -41815.469        -795.544          37.750  
G11  24151610.669      103290.929        2023.741          45.000  
G17  21790193.984     -117535.713       -2308.856          50.250  
G22  23655992.290       41217.247         827.249          48.000  
G28  21377087.844       18496.646         381.259          47.750  
> 2018  4 22 11 21 47.0688020  0  6                     
G 1  23491530.855      104733.255        2016.765          48.250  
G 3  22094138.753      -41895.129        -795.431          37.750  
G11  24153480.932      103493.381        2025.411          45.250  
G17  21791981.902     -117766.552       -2307.823          50.500  
G22  23657839.736       41300.017         828.302          48.000  
G28  21378926.951       18534.773         382.020          47.500  
> 2018  4 22 11 21 47.1688020  0  6                     
G 1  23493401.250      104934.919        2017.641          48.250  
G 3  22095955.646      -41974.804        -797.207          37.750  
G11  24155350.654      103695.837        2024.286          45.000  
G17  21793769.686     -117997.368       -2308.448          50.250  
G22  23659686.741       41382.805         827.612          48.000  
G28  21380766.461       18572.918         381.051          47.250  
> 2018  4 22 11 21 47.2688020  0  6                     
G 1  23495271.164      105136.566        2017.104          48.250  
G 3  22097773.217      -42054.406        -795.781          37.750  
G11  24157221.523      103898.280        2025.337          45.250  
G17  21795557.122     -118228.194       -2308.280          50.500  
G22  23661534.246       41465.600         828.122          48.000  
G28  21382604.457       18611.076         381.669          47.750  
> 2018  4 22 11 21 47.3688020  0  6                     
G 1  23497141.132      105338.338        2017.809          48.000  
G 3  22099587.356      -42133.916        -795.192          37.500  
G11  24159090.858      104100.849        2025.457          45.250  
G17  21797344.992     -118458.893       -2307.026          50.250  
G22  23663381.182       41548.524         829.705          48.250  
G28  21384444.286       18649.359         382.559          47.500  
> 2018  4 22 11 21 47.4688020  0  6                     
G 1  23499010.835      105540.139        2018.262          48.000  
G 3  22101404.612      -42213.384        -794.679          37.500  
G11  24160961.600      104303.451        2026.674          45.000  
G17  21799132.311     -118689.567       -2307.244          50.250  
G22  23665228.242       41631.468         829.090          48.250  
G28  21386281.289       18687.673         383.139          47.500  
> 2018  4 22 11 21 47.5688020  0  6                     
G 1  23500880.024      105742.002        2018.646          48.000  
G 3  22103221.701      -42292.776        -794.800          38.000  
G11  24162831.276      104506.130        2027.290          45.000  
G17  21800919.494     -118920.170       -2305.910          50.250  
G22  23667076.722       41714.493         829.917          48.000  
G28  21388120.597       18726.056         383.750          47.250  
> 2018  4 22 11 21 47.6688020  0  6                     
G 1  23502749.704      105943.885        2018.767          48.000  
G 3  22105037.948      -42372.189        -793.350          37.500  
G11  24164701.545      104708.799        2026.300          45.250  
G17  21802707.566     -119150.756       -2305.096          50.250  
G22  23668924.273       41797.525         830.565          47.750  
G28  21389960.268       18764.451         384.337          47.500  
> 2018  4 22 11 21 47.7688020  0  6                     
G 1  23504619.693      106145.855        2020.537          48.000  
G 3  22106855.586      -42451.462        -792.719          37.500  
G11  24166572.473      104911.570        2028.207          45.000  
G17  21804495.113     -119381.277       -2305.262          50.250  
G22  23670771.879       41880.656         832.123          48.000  
G28  21391798.441       18802.939         385.362          47.500  
> 2018  4 22 11 21 47.8688020  0  6                     
G 1  23506489.784      106347.860        2021.587          48.250  
G 3  22108671.189      -42530.690        -789.754          37.750  
G11  24168442.113      105114.389        2029.603          45.000  
G17  21806283.004     -119611.733       -2303.932          50.250  
G22  23672618.892       41963.841         833.353          48.000  
G28  21393638.774       18841.482         387.121          47.500  
> 2018  4 22 11 21 47.9688020  0  6                     
G 1  23508360.345      106550.042        2022.278          48.000  
G 3  22110488.281      -42609.760        -789.585          37.750  
G11  24170313.323      105317.353        2030.318          45.250  
G17  21808071.022     -119842.024       -2302.937          50.250  
G22  23674466.236       42047.178         833.504          48.000  
G28  21395477.614       18880.192         387.258          47.500  
> 2018  4 22 11 21 48.0688020  0  6                     
G 1  23510231.225      106752.252        2022.488          48.000  
G 3  22112304.013      -42688.797        -791.473          38.250  
G11  24172184.239      105520.373        2030.776          44.750  
G17  21809858.527     -120072.276       -2302.958          50.250  
G22  23676313.211       42130.399         797.541          48.000  
G28  21397317.552       18918.933         386.901          47.500  
> 2018  4 22 11 21 48.1688020  0  6                     
G 1  23512100.515      106954.391        2021.284          48.250  
G 3  22114119.927      -42767.895        -790.968          38.250  
G11  24174054.367      105723.296        2028.869          44.750  
G17  21811646.436     -120302.600       -2303.819          50.250  
G22  23678160.504       42213.880         832.392          48.000  
G28  21399156.018       18957.620         387.033          47.500  
> 2018  4 22 11 21 48.2688020  0  6                     
G 1  23513970.695      107156.434        2020.517          48.250  
G 3  22115937.260      -42847.075        -790.353          37.500  
G11  24175923.785      105926.161        2029.279          45.250  
G17  21813434.854     -120533.036       -2304.951          50.250  
G22  23680007.803       42297.107         832.372          48.250  
G28  21400994.345       18996.210         384.999          47.750  
> 2018  4 22 11 21 48.3688020  0  6                     
G 1  23515841.001      107358.393        2020.069          48.500  
G 3  22117754.075      -42926.358        -793.342          37.750  
G11  24177794.594      106128.906        2027.226          45.500  
G17  21815222.477     -120763.548       -2305.643          50.250  
G22  23681855.314       42380.237         830.546          48.000  
G28  21402835.089       19034.715         384.926          47.250  
> 2018  4 22 11 21 48.4688020  0  6                     
G 1  23517711.687      107560.273        2019.097          48.250  
G 3  22119570.124      -43005.708        -793.511          38.000  
G11  24179664.584      106331.581        2027.707          45.500  
G17  21817010.088     -120994.133       -2306.123          50.500  
G22  23683703.249       42463.315         831.044          48.000  
G28  21404672.476       19073.153         384.467          47.500  
> 2018  4 22 11 21 48.5688020  0  6                     
G 1  23519581.102      107762.154        2018.720          48.000  
G 3  22121388.076      -43085.012        -791.697          37.750  
G11  24181534.809      106534.260        2026.241          45.500  
G17  21818797.498     -121224.713       -2306.195          50.250  
G22  23685550.525       42546.389         830.799          48.250  
G28  21406511.035       19111.598         384.670          47.500  
> 2018  4 22 11 21 48.6688020  0  6                     
G 1  23521451.016      107963.965        2018.002          48.250  
G 3  22123204.936      -43164.402        -792.285          37.750  
G11  24183404.897      106736.870        2025.904          45.500  
G17  21820585.349     -121455.354       -2306.134          50.250  
G22  23687398.672       42629.385         830.538          48.000  
G28  21408350.234       19149.964         384.187          47.250  
> 2018  4 22 11 21 48.7688020  0  6                     
G 1  23523320.267      108165.759        2018.043          48.250  
G 3  22125021.762      -43243.826        -793.295          38.000  
G11  24185275.375      106939.462        2025.814          45.500  
G17  21822373.295     -121686.026       -2306.927          50.250  
G22  23689245.027       42712.390         829.713          48.250  
G28  21410188.393       19188.330         383.823          47.250  
> 2018  4 22 11 21 48.8688020  0  6                     
G 1  23525190.205      108367.523        2017.904          48.250  
G 3  22126837.870      -43323.251        -793.418          37.750  
G11  24187144.872      107142.025        2026.021          45.250  
G17  21824160.416     -121916.730       -2307.090          50.250  
G22  23691092.654       42795.351         829.632          48.250  
G28  21412029.068       19226.659         383.564          47.750  
> 2018  4 22 11 21 48.9688020  0  6                     
G 1  23527060.694      108569.312        2018.252          48.250  
G 3  22128656.229      -43402.646        -795.241          38.000  
G11  24189014.493      107344.592        2025.886          45.250  
G17  21825948.314     -122147.416       -2307.296          50.500  
G22  23692939.304       42878.335         829.469          48.250  
G28  21413866.679       19265.003         383.153          47.500  
> 2018  4 22 11 21 49.0688020  0  6                     
G 1  23528930.246      108771.043        2017.906          48.250  
G 3  22130472.334      -43482.098        -794.878          37.750  
G11  24190884.544      107547.134        2026.084          45.250  
G17  21827735.714     -122378.134       -2307.115          50.500  
G22  23694786.405       42961.286         829.662          48.000  
G28  21415706.333       19303.328         383.223          47.500  
> 2018  4 22 11 21 49.1688020  0  6                     
G 1  23530800.751      108972.832        2018.160          48.000  
G 3  22132288.327      -43561.493        -793.109          37.750  
G11  24192753.925      107749.703        2025.491          45.250  
G17  21829523.626     -122608.812       -2307.066          50.250  
G22  23696633.494       43044.287         830.116          48.000  
G28  21417544.980       19341.701         383.483          47.250  
> 2018  4 22 11 21 49.2688020  0  6                     
G 1  23532670.391      109174.603        2016.983          48.000  
G 3  22134104.687      -43640.872        -793.196          38.250  
G11  24194623.683      107952.275        2025.916          45.250  
G17  21831311.266     -122839.496       -2307.581          50.500  
G22  23698481.162       43127.276         829.491          48.000  
G28  21419383.111       19380.053         383.078          47.500  
> 2018  4 22 11 21 49.3688020  0  6                     
G 1  23534540.551      109376.383        2018.653          48.250  
G 3  22135921.371      -43720.301        -795.263          38.250  
G11  24196493.420      108154.848        2025.303          45.250  
G17  21833098.791     -123070.178       -2306.528          50.500  
G22  23700329.231       43210.276         830.243          48.000  
G28  21421223.565       19418.429         383.585          47.250  
> 2018  4 22 11 21 49.4688020  0  6                     
G 1  23536409.850      109578.243        2019.385          48.250  
G 3  22137738.709      -43799.587        -792.779          37.750  
G11  24198363.824      108357.505        2028.387          45.250  
G17  21834886.673     -123300.778       -2305.165          50.250  
G22  23702176.139       43293.366         831.844          48.000  
G28  21423060.672       19456.885         385.825          47.500  
> 2018  4 22 11 21 49.5688020  0  6                     
G 1  23538280.400      109780.352        2021.755          48.000  
G 3  22139554.496      -43878.629        -789.130          37.750  
G11  24200234.182      108560.412        2029.654          45.000  
G17  21836674.057     -123531.127       -2302.546          50.000  
G22  23704023.477       43376.703         834.947          47.750  
G28  21424899.733       19495.585         387.131          47.000  
> 2018  4 22 11 21 49.6688020  0  6                     
G 1  23540150.007      109982.605        2023.672          48.000  
G 3  22141368.828      -43957.522        -787.804          37.750  
G11  24202104.253      108763.455        2030.403          45.000  
G17  21838462.202     -123761.321       -2301.358          50.250  
G22  23705870.710       43460.181         835.842          48.250  
G28  21426738.247       19534.450         389.518          47.500  
> 2018  4 22 11 21 49.7688020  0  6                     
G 1  23542020.419      110184.954        2023.587          48.250  
G 3  22143185.870      -44036.319        -790.468          37.250  
G11  24203974.847      108966.594        2031.494          45.250  
G17  21840249.868     -123991.440       -2302.006          50.250  
G22  23707718.229       43543.762         835.655          47.750  
G28  21428577.078       19573.401         388.624          47.250  
> 2018  4 22 11 21 49.8688020  0  6                     
G 1  23543890.522      110387.108        2020.401          48.000  
G 3  22145002.907      -44115.300        -789.897          38.000  
G11  24205844.955      109169.543        2027.745          45.000  
G17  21842037.713     -124221.741       -2304.225          50.000  
G22  23709565.772       43627.171         832.779          48.000  
G28  21430417.621       19612.176         387.013          47.500  
> 2018  4 22 11 21 49.9688020  0  6                     
G 1  23545760.561      110589.091        2019.581          48.000  
G 3  22146817.514      -44194.455        -792.028          37.750  
G11  24207714.418      109372.334        2026.650          45.000  
G17  21843825.696     -124452.198       -2304.925          50.500  
G22  23711413.270       43710.396         831.975          48.250  
G28  21432254.526       19650.786         385.711          47.500  
> 2018  4 22 11 21 50.0688020  0  6                     
G 1  23547630.912      110790.980        2019.446          48.250  
G 3  22148634.264      -44273.691        -792.561          38.000  
G11  24209584.395      109575.014        2027.274          45.000  
G17  21845613.325     -124682.773       -2305.645          50.500  
G22  23713260.817       43793.530         831.566          48.250  
G28  21434094.227       19689.282         385.274          47.500  
> 2018  4 22 11 21 50.1688020  0  6                     
G 1  23549500.803      110993.010        2021.970          48.250  
G 3  22150452.160      -44352.796        -789.601          38.000  
G11  24211454.449      109777.836        2029.842          45.000  
G17  21847401.567     -124913.191       -2302.183          50.500  
G22  23715108.993       43876.805         833.951          48.000  
G28  21435933.551       19727.945         388.483          47.500  
> 2018  4 22 11 21 50.2688020  0  6                     
G 1  23551371.539      111195.330        2023.795          48.000  
G 3  22152268.219      -44431.586        -787.011          37.750  
G11  24213325.039      109980.947        2031.984          45.250  
G17  21849189.335     -125143.333       -2300.796          50.250  
G22  23716955.707       43960.379         836.264          48.000  
G28  21437771.631       19766.892         390.603          47.500  
> 2018  4 22 11 21 50.3688020  0  6                     
G 1  23553241.965      111397.662        2023.377          48.250  
G 3  22154083.690      -44510.358        -788.559          38.000  
G11  24215195.749      110184.077        2032.078          45.000  
G17  21850977.127     -125373.456       -2301.315          50.250  
G22  23718802.865       44043.970         835.879          48.250  
G28  21439612.684       19805.853         390.311          47.500  
> 2018  4 22 11 21 50.4688020  0  6                     
G 1  23555111.842      111599.977        2022.706          48.250  
G 3  22155899.836      -44589.136        -788.470          37.750  
G11  24217065.965      110387.182        2031.089          45.000  
G17  21852764.790     -125603.582       -2301.698          50.500  
G22  23720650.184       44127.553         835.938          48.250  
G28  21441449.315       19844.817         389.681          47.500  
> 2018  4 22 11 21 50.5688020  0  6                     
G 1  23556981.414      111802.228        2023.318          48.000  
G 3  22157716.262      -44667.991        -788.835          38.000  
G11  24218936.280      110590.221        2030.835          45.000  
G17  21854551.896     -125833.774       -2301.371          50.500  
G22  23722497.830       44211.063         836.003          48.250  
G28  21443288.329       19883.705         389.951          47.250  
> 2018  4 22 11 21 50.6688020  0  6                     
G 1  23558852.167      112004.547        2022.889          48.250  
G 3  22159532.557      -44746.772        -786.710          38.250  
G11  24220806.253      110793.334        2031.397          45.000  
G17  21856340.360     -126063.914       -2301.586          50.250  
G22  23724345.540       44294.651         836.151          48.250  
G28  21445127.488       19922.659         389.406          47.500  
> 2018  4 22 11 21 50.7688020  0  6                     
G 1  23560722.159      112206.846        2022.874          48.250  
G 3  22161350.852      -44825.565        -788.362          37.500  
G11  24222676.512      110996.423        2031.359          45.250  
G17  21858128.092     -126294.062       -2301.926          50.500  
G22  23726193.555       44378.230         836.020          48.500  
G28  21446965.767       19961.621         389.316          47.750  
> 2018  4 22 11 21 50.8688020  0  6                     
G 1  23562591.703      112409.096        2022.149          48.250  
G 3  22163168.040      -44904.392        -788.188          38.500  
G11  24224546.438      111199.476        2030.494          45.250  
G17  21859915.450     -126524.256       -2302.639          50.500  
G22  23728041.311       44461.750         834.598          48.250  
G28  21448806.958       20000.516         388.948          47.250  
> 2018  4 22 11 21 50.9688020  0  6                     
G 1  23564461.823      112611.180        2020.173          48.000  
G 3  22164983.052      -44983.381        -789.373          37.000  
G11  24226417.226      111402.337        2027.854          44.250  
G17  21861703.310     -126754.624       -2304.271          50.000  
G22  23729888.657       44545.108         832.622          47.750  
G28  21450644.204       20039.255         386.784          47.000  
> 2018  4 22 11 21 51.0688020  0  6                     
G 1  23566331.650      112813.081        2019.003          47.750  
G 3  22166798.647      -45062.558        -791.767          38.000  
G11  24228286.184      111605.029        2025.866          44.500  
G17  21863490.690     -126985.169       -2306.272          50.000  
G22  23731735.180       44628.291         830.942          48.000  
G28  21452484.210       20077.814         384.793          47.250  
> 2018  4 22 11 21 51.1688020  0  6                     
G 1  23568201.729      113014.904        2018.350          48.000  
G 3  22168616.758      -45141.805        -791.280          38.250  
G11  24230156.484      111807.647        2026.625          45.000  
G17  21865278.123     -127215.792       -2305.767          50.000  
G22  23733582.342       44711.413         831.760          48.500  
G28  21454323.380       20116.304         385.784          47.250  
> 2018  4 22 11 21 51.2688020  0  6                     
G 1  23570071.202      113216.740        2018.707          48.250  
G 3  22170434.741      -45221.031        -791.325          38.000  
G11  24232026.420      112010.263        2026.266          45.000  
G17  21867066.382     -127446.404       -2306.045          50.250  
G22  23735430.471       44794.528         831.644          48.250  
G28  21456161.952       20154.808         384.483          47.500  
> 2018  4 22 11 21 51.3688020  0  6                     
G 1  23571942.148      113418.580        2017.990          48.000  
G 3  22172252.251      -45300.223        -792.272          37.500  
G11  24233896.916      112212.912        2026.481          44.750  
G17  21868854.142     -127676.997       -2305.581          50.000  
G22  23737277.844       44877.678         832.085          48.250  
G28  21458002.893       20193.341         385.097          47.250  
> 2018  4 22 11 21 51.4688020  0  6                     
G 1  23573811.352      113620.412        2018.669          48.250  
G 3  22174066.080      -45379.448        -791.192          38.000  
G11  24235767.074      112415.528        2026.194          45.000  
G17  21870642.004     -127907.621       -2305.866          50.500  
G22  23739125.409       44960.810         832.063          48.250  
G28  21459840.005       20231.841         385.195          47.250  
> 2018  4 22 11 21 51.5688020  0  6                     
G 1  23575681.810      113822.271        2018.750          48.250  
G 3  22175882.567      -45458.645        -791.806          38.000  
G11  24237637.377      112618.168        2027.776          45.250  
G17  21872429.613     -128138.197       -2305.534          50.500  
G22  23740973.721       45043.965         831.487          48.500  
G28  21461679.962       20270.389         386.323          47.500  
> 2018  4 22 11 21 51.6688020  0  6                     
G 1  23577551.870      114024.064        2018.114          48.250  
G 3  22177700.805      -45537.873        -790.178          38.000  
G11  24239507.157      112820.758        2025.635          45.000  
G17  21874217.368     -128368.846       -2306.457          50.500  
G22  23742821.503       45127.075         831.212          48.250  
G28  21463518.057       20308.870         384.553          47.500  
> 2018  4 22 11 21 51.7688020  0  6                     
G 1  23579422.054      114225.815        2016.840          48.250  
G 3  22179518.163      -45617.168        -792.693          38.250  
G11  24241377.922      113023.293        2024.297          45.000  
G17  21876004.682     -128599.541       -2306.915          50.500  
G22  23744668.603       45210.125         830.207          48.500  
G28  21465355.931       20347.313         384.986          47.500  
> 2018  4 22 11 21 51.8688020  0  6                     
G 1  23581291.297      114427.513        2017.122          48.250  
G 3  22181333.309      -45696.511        -793.664          38.000  
G11  24243247.066      113225.789        2024.720          45.000  
G17  21877792.129     -128830.277       -2307.738          50.750  
G22  23746515.001       45293.139         830.281          48.000  
G28  21467196.724       20385.715         384.277          47.500  
> 2018  4 22 11 21 51.9688020  0  6                     
G 1  23583162.052      114629.245        2018.000          48.000  
G 3  22183149.056      -45775.789        -792.845          37.000  
G11  24245116.366      113428.316        2025.654          44.750  
G17  21879580.153     -129060.988       -2307.232          50.250  
G22  23748362.204       45376.189         830.543          48.250  
G28  21469034.610       20424.135         384.186          47.250  
> 2018  4 22 11 21 52.0688020  0  6                     
G 1  23585031.968      114830.998        2018.083          48.000  
G 3  22184964.672      -45855.048        -791.398          38.000  
G11  24246987.088      113630.841        2025.533          45.000  
G17  21881367.496     -129291.682       -2306.759          50.500  
G22  23750209.945       45459.246         831.214          48.250  
G28  21470874.863       20462.578         384.544          47.250  
> 2018  4 22 11 21 52.1688020  0  6                     
G 1  23586902.038      115032.834        2018.333          48.250  
G 3  22186782.294      -45934.222        -790.897          38.000  
G11  24248857.091      113833.476        2026.551          45.000  
G17  21883155.417     -129522.278       -2305.956          50.500  
G22  23752057.567       45542.417         831.699          48.250  
G28  21472712.315       20501.130         385.605          47.500  
> 2018  4 22 11 21 52.2688020  0  6                     
G 1  23588771.346      115234.677        2018.844          48.250  
G 3  22188598.054      -46013.366        -789.859          37.750  
G11  24250727.712      114036.101        2027.136          44.750  
G17  21884943.339     -129752.876       -2306.425          50.250  
G22  23753904.761       45625.592         832.067          48.250  
G28  21474550.710       20539.698         385.949          47.500  
> 2018  4 22 11 21 52.3688020  0  6                     
G 1  23590641.295      115436.684        2022.385          48.000  
G 3  22190415.666      -46092.388        -788.620          38.250  
G11  24252597.950      114238.899        2029.947          44.750  
G17  21886731.911     -129983.308       -2302.240          50.250  
G22  23755752.415       45708.936         835.738          48.000  
G28  21476391.313       20578.417         389.746          47.250  
> 2018  4 22 11 21 52.4688020  0  6                     
G 1  23592510.628      115639.106        2024.941          47.750  
G 3  22192232.301      -46170.940        -784.597          38.250  
G11  24254468.510      114442.104        2032.842          44.500  
G17  21888519.689     -130213.325       -2299.653          50.000  
G22  23757599.287       45792.686         838.644          48.250  
G28  21478228.034       20617.550         391.524          47.250  
> 2018  4 22 11 21 52.5688020  0  6                     
G 1  23594381.032      115841.474        2022.547          48.250  
G 3  22194049.135      -46249.581        -787.859          38.250  
G11  24256338.451      114645.263        2031.324          44.750  
G17  21890306.777     -130443.391       -2302.266          50.500  
G22  23759446.254       45876.400         836.737          48.500  
G28  21480068.375       20656.652         390.093          47.500  
> 2018  4 22 11 21 52.6688020  0  6                     
G 1  23596251.225      116043.535        2019.710          48.000  
G 3  22195866.929      -46328.504        -791.240          37.000  
G11  24258208.899      114848.108        2027.158          44.750  
G17  21892094.562     -130673.753       -2304.904          50.250  
G22  23761294.603       45959.796         832.798          48.000  
G28  21481907.354       20695.445         387.493          47.250  
> 2018  4 22 11 21 52.7688020  0  6                     
G 1  23598121.591      116245.418        2018.462          48.000  
G 3  22197685.999      -46407.567        -790.269          38.250  
G11  24260078.996      115050.772        2026.042          44.750  
G17  21893882.415     -130904.300       -2306.314          50.250  
G22  23763141.973       46043.035         831.479          48.000  
G28  21483745.771       20734.059         385.748          47.250  
> 2018  4 22 11 21 52.8688020  0  6                     
G 1  23599992.121      116447.158        2017.520          48.000  
G 3  22199500.410      -46486.832        -792.757          38.500  
G11  24261948.622      115253.301        2024.826          45.000  
G17  21895669.635     -131135.004       -2307.506          50.500  
G22  23764989.770       46126.114         830.403          48.250  
G28  21485586.078       20772.521         384.065          47.500  
> 2018  4 22 11 21 52.9688020  0  6                     
G 1  23601862.409      116648.815        2015.769          48.000  
G 3  22201316.903      -46566.100        -793.197          38.000  
G11  24263819.377      115455.746        2023.647          45.000  
G17  21897457.717     -131365.779       -2308.309          50.500  
G22  23766837.807       46209.135         829.857          48.500  
G28  21487423.573       20810.929         383.794          47.500  
> 2018  4 22 11 21 53.0688020  0  6                     
G 1  23603731.754      116850.448        2017.091          48.250  
G 3  22203135.863      -46645.439        -792.984          38.000  
G11  24265689.049      115658.178        2025.279          45.000  
G17  21899245.053     -131596.571       -2307.362          50.500  
G22  23768684.895       46292.130         830.661          48.500  
G28  21489263.673       20849.316         384.399          47.500  
> 2018  4 22 11 21 53.1688020  0  6                     
G 1  23605601.903      117052.143        2016.202          48.250  
G 3  22204951.297      -46724.724        -793.014          38.000  
G11  24267559.446      115860.643        2023.810          44.750  
G17  21901032.612     -131827.310       -2307.844          50.500  
G22  23770532.270       46375.184         830.493          48.250  
G28  21491101.712       20887.750         384.752          47.500  
> 2018  4 22 11 21 53.2688020  0  6                     
G 1  23607472.748      117253.865        2017.190          48.250  
G 3  22206767.156      -46803.949        -791.595          38.000  
G11  24269430.329      116063.159        2025.098          44.750  
G17  21902820.684     -132058.008       -2306.616          50.500  
G22  23772379.389       46458.282         830.700          48.500  
G28  21492940.074       20926.234         385.027          47.500  
> 2018  4 22 11 21 53.3688020  0  6                     
G 1  23609342.413      117455.623        2017.157          48.250  
G 3  22208585.764      -46883.128        -791.114          38.250  
G11  24271300.755      116265.699        2025.864          45.000  
G17  21904608.371     -132288.683       -2306.983          50.500  
G22  23774226.788       46541.400         831.279          48.500  
G28  21494781.105       20964.750         385.043          47.500  
> 2018  4 22 11 21 53.4688020  0  6                     
G 1  23611212.171      117657.399        2018.400          48.500  
G 3  22210401.449      -46962.282        -791.255          38.250  
G11  24273170.140      116468.270        2026.453          45.000  
G17  21906396.523     -132519.330       -2306.333          50.500  
G22  23776073.720       46624.556         831.833          48.500  
G28  21496619.068       21003.297         386.492          47.750  
> 2018  4 22 11 21 53.5688020  0  6                     
G 1  23613081.840      117859.161        2017.797          48.250  
G 3  22212217.611      -47041.460        -791.631          38.250  
G11  24275040.682      116670.815        2025.456          45.000  
G17  21908184.117     -132749.999       -2307.159          50.500  
G22  23777920.478       46707.691         830.990          48.500  
G28  21498458.173       21041.806         385.063          47.500  
> 2018  4 22 11 21 53.6688020  0  6                     
G 1  23614951.964      118060.849        2016.637          48.250  
G 3  22214033.061      -47120.692        -792.810          38.000  
G11  24276910.731      116873.297        2024.716          44.750  
G17  21909971.544     -132980.736       -2307.740          50.500  
G22  23779767.824       46790.758         830.647          48.250  
G28  21500296.634       21080.278         384.497          47.750  
> 2018  4 22 11 21 53.7688020  0  6                     
G 1  23616822.150      118262.483        2015.936          48.250  
G 3  22215848.222      -47199.973        -793.252          38.000  
G11  24278780.487      117075.725        2023.925          44.750  
G17  21911758.926     -133211.520       -2308.711          50.500  
G22  23781616.056       46873.781         829.697          48.500  
G28  21502135.606       21118.688         383.578          47.500  
> 2018  4 22 11 21 53.8688020  0  6                     
G 1  23618691.647      118464.034        2014.740          48.250  
G 3  22217664.903      -47279.328        -793.232          38.000  
G11  24280651.795      117278.042        2021.900          45.000  
G17  21913546.547     -133442.404       -2310.040          50.500  
G22  23783463.455       46956.721         828.578          48.250  
G28  21503975.210       21157.010         382.990          47.500  
> 2018  4 22 11 21 53.9688020  0  6                     
G 1  23620560.652      118665.477        2013.594          48.250  
G 3  22219482.265      -47358.810        -796.148          37.750  
G11  24282520.400      117480.283        2022.427          44.500  
G17  21915333.887     -133673.380       -2309.957          50.500  
G22  23785309.746       47039.549         827.870          48.250  
G28  21505812.639       21195.234         381.509          47.500  
> 2018  4 22 11 21 54.0688020  0  6                     
G 1  23622430.914      118866.861        2015.031          48.000  
G 3  22221298.093      -47438.330        -794.701          38.000  
G11  24284390.628      117682.479        2034.527          45.000  
G17  21917121.174     -133904.425       -2310.345          50.500  
G22  23787157.149       47123.421         878.117          48.250  
G28  21507653.244       21233.412         382.429          47.500  
> 2018  4 22 11 21 54.1688020  0  6                     
G 1  23624301.111      119068.228        2014.160          48.000  
G 3  22223113.970      -47517.863        -794.791          38.000  
G11  24286260.297      117884.596        2021.463          44.750  
G17  21918908.578     -134135.475       -2310.252          50.500  
G22  23789004.886       47205.097         828.416          48.250  
G28  21509490.982       21271.566         382.614          47.500  
> 2018  4 22 11 21 54.2688020  0  6                     
G 1  23626170.802      119269.652        2014.617          48.000  
G 3  22224930.138      -47597.333        -795.343          38.250  
G11  24288129.769      118086.809        2022.365          45.000  
G17  21920696.210     -134366.470       -2309.736          50.500  
G22  23790852.564       47287.928         828.278          48.500  
G28  21511329.230       21309.790         381.889          47.500  
> 2018  4 22 11 21 54.3688020  0  6                     
G 1  23628040.651      119471.165        2016.359          48.250  
G 3  22226746.890      -47676.679        -791.712          38.500  
G11  24289999.647      118289.089        2024.559          44.750  
G17  21922483.681     -134597.377       -2308.171          50.500  
G22  23792700.194       47370.852         830.474          48.250  
G28  21513169.456       21348.110         384.631          47.500  
> 2018  4 22 11 21 54.4688020  0  6                     
G 1  23629910.293      119672.814        2016.750          48.250  
G 3  22228562.999      -47755.914        -791.245          37.750  
G11  24291870.427      118491.529        2024.716          44.750  
G17  21924271.437     -134828.141       -2307.180          50.500  
G22  23794547.694       47453.908         831.424          48.500  
G28  21515006.926       21386.565         384.986          47.750  
> 2018  4 22 11 21 54.5688020  0  6                     
G 1  23631780.763      119874.511        2017.669          48.250  
G 3  22230379.955      -47835.119        -792.121          38.250  
G11  24293741.918      118694.019        2025.901          45.000  
G17  21926059.152     -135058.870       -2307.279          50.750  
G22  23796395.499       47537.026         831.770          48.500  
G28  21516846.757       21425.074         385.336          47.500  
> 2018  4 22 11 21 54.6688020  0  6                     
G 1  23633650.293      120076.257        2017.986          48.250  
G 3  22232197.846      -47914.221        -789.516          37.750  
G11  24295612.635      118896.540        2026.488          45.000  
G17  21927847.817     -135289.541       -2306.021          50.500  
G22  23798242.853       47620.188         832.416          48.500  
G28  21518685.019       21463.624         386.427          47.500  
> 2018  4 22 11 21 54.7688020  0  6                     
G 1  23635520.105      120278.039        2018.558          48.250  
G 3  22234014.233      -47993.319        -791.472          38.250  
G11  24297482.831      119099.094        2025.041          44.750  
G17  21929635.923     -135520.176       -2306.504          50.500  
G22  23800090.283       47703.383         832.219          48.250  
G28  21520523.733       21502.226         386.101          47.500  
> 2018  4 22 11 21 54.8688020  0  6                     
G 1  23637390.215      120479.782        2018.397          48.250  
G 3  22235829.964      -48072.440        -791.815          38.750  
G11  24299353.026      119301.620        2025.587          44.750  
G17  21931423.773     -135750.859       -2307.255          50.500  
G22  23801936.785       47786.554         832.444          48.500  
G28  21522363.992       21540.785         385.639          47.500  
> 2018  4 22 11 21 54.9688020  0  6                     
G 1  23639261.466      120681.495        2016.838          48.500  
G 3  22237649.745      -48151.574        -791.818          38.000  
G11  24301223.118      119504.112        2023.774          45.000  
G17  21933211.440     -135981.554       -2307.785          50.500  
G22  23803784.129       47869.695         830.626          48.500  
G28  21524201.992       21579.319         384.716          47.250  
> 2018  4 22 11 21 55.0688020  0  6                     
G 1  23641131.039      120883.120        2016.230          48.250  
G 3  22239465.693      -48230.806        -793.479          38.000  
G11  24303093.086      119706.521        2023.556          45.000  
G17  21934998.732     -136212.347       -2308.709          50.250  
G22  23805631.671       47952.760         830.295          48.500  
G28  21526041.687       21617.772         384.670          47.500  
> 2018  4 22 11 21 55.1688020  0  6                     
G 1  23643001.237      121084.623        2014.644          48.250  
G 3  22241281.608      -48310.142        -793.306          38.250  
G11  24304963.073      119908.806        2022.669          45.000  
G17  21936785.804     -136443.248       -2309.591          50.500  
G22  23807478.974       48035.702         828.751          48.500  
G28  21527879.600       21656.114         383.174          47.500  
> 2018  4 22 11 21 55.2688020  0  6                     
G 1  23644871.626      121286.052        2014.206          48.250  
G 3  22243097.522      -48389.539        -794.615          37.500  
G11  24306832.912      120111.029        2021.440          44.500  
G17  21938573.615     -136674.233       -2310.254          50.500  
G22  23809326.245       48118.576         828.522          48.250  
G28  21529718.640       21694.388         382.299          47.500  
> 2018  4 22 11 21 55.3688020  0  6                     
G 1  23646741.694      121487.496        2014.530          47.750  
G 3  22244914.708      -48468.902        -792.851          38.250  
G11  24308702.188      120313.242        2022.269          44.750  
G17  21940361.027     -136905.204       -2309.652          50.500  
G22  23811174.092       48201.461         829.239          48.500  
G28  21531558.425       21732.670         382.793          47.500  
> 2018  4 22 11 21 55.4688020  0  6                     
G 1  23648610.983      121689.005        2015.744          48.250  
G 3  22246729.944      -48548.260        -793.473          38.250  
G11  24310572.074      120515.528        2022.279          44.500  
G17  21942148.692     -137136.111       -2308.959          50.750  
G22  23813020.883       48284.416         829.000          48.500  
G28  21533395.287       21771.021         383.405          47.750  
> 2018  4 22 11 21 55.5688020  0  6                     
G 1  23650480.414      121890.514        2015.669          48.000  
G 3  22248546.402      -48627.541        -793.398          38.750  
G11  24312441.478      120717.812        2022.675          44.750  
G17  21943936.390     -137367.014       -2309.222          50.500  
G22  23814867.375       48367.374         829.787          48.500  
G28  21535235.887       21809.385         383.856          47.500  
> 2018  4 22 11 21 55.6688020  0  6                     
G 1  23652350.172      122092.113        2016.678          48.250  
G 3  22250362.539      -48706.747        -792.296          38.250  
G11  24314311.719      120920.194        2023.500          45.000  
G17  21945723.682     -137597.816       -2307.879          50.500  
G22  23816714.838       48450.434         831.327          48.500  
G28  21537074.247       21847.842         385.821          47.500  
> 2018  4 22 11 21 55.7688020  0  6                     
G 1  23654220.281      122293.778        2016.581          48.250  
G 3  22252178.832      -48785.924        -791.948          38.500  
G11  24316182.558      121122.647        2023.937          44.750  
G17  21947511.357     -137828.569       -2308.301          50.750  
G22  23818562.676       48533.551         830.633          48.500  
G28  21538912.751       21886.363         384.696          47.500  
> 2018  4 22 11 21 55.8688020  0  6                     
G 1  23656090.546      122495.404        2016.897          48.250  
G 3  22253996.600      -48865.080        -790.545          37.750  
G11  24318052.977      121325.060        2024.254          44.750  
G17  21949298.738     -138059.350       -2308.110          50.500  
G22  23820410.213       48616.648         831.312          48.250  
G28  21540752.862       21924.845         384.846          47.250  
> 2018  4 22 11 21 55.9688020  0  6                     
G 1  23657960.553      122697.063        2017.066          48.000  
G 3  22255813.217      -48944.226        -791.555          38.250  
G11  24319923.720      121527.496        2024.994          44.750  
G17  21951086.965     -138290.099       -2307.457          50.250  
G22  23822258.135       48699.774         831.281          48.500  
G28  21542590.067       21963.377         385.240          47.500  
> 2018  4 22 11 21 56.0688020  0  6                     
G 1  23659830.241      122898.670        2016.100          48.250  
G 3  22257631.273      -49023.412        -791.902          38.500  
G11  24321792.993      121729.884        2024.255          44.750  
G17  21952874.476     -138520.890       -2308.290          50.750  
G22  23824105.649       48782.856         830.989          48.500  
G28  21544430.547       22001.866         385.200          47.500  
> 2018  4 22 11 21 56.1688020  0  6                     
G 1  23661699.804      123100.232        2016.334          48.250  
G 3  22259446.513      -49102.626        -790.721          38.000  
G11  24323662.555      121932.220        2023.214          45.250  
G17  21954662.033     -138751.736       -2308.565          50.500  
G22  23825952.276       48865.898         830.327          48.750  
G28  21546269.749       22040.295         384.192          47.750  
> 2018  4 22 11 21 56.2688020  0  6                     
G 1  23663569.406      123301.780        2015.771          48.250  
G 3  22261262.331      -49181.868        -793.916          37.750  
G11  24325533.062      122134.542        2022.880          44.750  
G17  21956450.157     -138982.603       -2309.113          50.750  
G22  23827799.595       48948.906         830.615          48.250  
G28  21548108.558       22078.715         383.627          47.500  
> 2018  4 22 11 21 56.3688020  0  6                     
G 1  23665439.102      123503.253        2015.590          48.000  
G 3  22263078.625      -49261.156        -792.323          38.500  
G11  24327402.657      122336.796        2023.233          44.750  
G17  21958237.376     -139213.538       -2309.365          50.500  
G22  23829646.522       49031.861         829.291          48.500  
G28  21549948.328       22117.071         383.216          47.500  
> 2018  4 22 11 21 56.4688020  0  6                     
G 1  23667308.495      123704.710        2013.359          48.250  
G 3  22264896.079      -49340.462        -793.451          38.750  
G11  24329272.922      122539.045        2021.770          45.000  
G17  21960025.614     -139444.467       -2309.957          50.750  
G22  23831494.722       49114.819         829.663          48.500  
G28  21551785.621       22155.442         382.885          47.750  
> 2018  4 22 11 21 56.5688020  0  6                     
G 1  23669178.546      123906.077        2014.277          48.000  
G 3  22266711.331      -49419.855        -793.518          38.000  
G11  24331143.411      122741.186        2021.356          44.500  
G17  21961813.460     -139675.503       -2310.250          50.750  
G22  23833342.006       49197.669         829.378          48.500  
G28  21553624.983       22193.695         383.254          47.250  
> 2018  4 22 11 21 56.6688020  0  6                     
G 1  23671048.760      124107.397        2013.568          48.000  
G 3  22268529.294      -49499.308        -794.983          38.000  
G11  24333012.564      122943.269        2020.034          44.750  
G17  21963601.378     -139906.593       -2310.905          50.750  
G22  23835190.141       49280.481         827.868          48.500  
G28  21555462.676       22231.903         382.607          47.500  
> 2018  4 22 11 21 56.7688020  0  6                     
G 1  23672918.884      124308.657        2012.438          48.250  
G 3  22270345.019      -49578.803        -795.049          39.000  
G11  24334881.943      123145.315        2019.764          44.750  
G17  21965389.171     -140137.731       -2311.415          50.750  
G22  23837037.803       49363.235         826.838          48.500  
G28  21557301.450       22270.064         381.421          47.750  
> 2018  4 22 11 21 56.8688020  0  6                     
G 1  23674789.159      124509.844        2010.872          48.250  
G 3  22272161.290      -49658.364        -796.495          38.500  
G11  24336751.728      123347.264        2018.642          44.500  
G17  21967176.842     -140368.949       -2313.152          51.000  
G22  23838884.982       49445.926         826.007          48.750  
G28  21559141.499       22308.152         380.444          47.500  
> 2018  4 22 11 21 56.9688020  0  6                     
G 1  23676659.228      124710.976        2011.237          48.250  
G 3  22273978.669      -49737.962        -794.567          38.500  
G11  24338622.608      123549.193        2019.248          44.750  
G17  21968963.910     -140600.208       -2311.848          50.750  
G22  23840731.414       49528.561         827.206          48.750  
G28  21560979.037       22346.198         379.867          47.750  
> 2018  4 22 11 21 57.0688020  0  6                     
G 1  23678529.751      124912.096        2012.169          48.250  
G 3  22275794.609      -49817.588        -795.664          39.000  
G11  24340492.466      123751.074        2019.176          44.750  
G17  21970751.578     -140831.506       -2313.211          50.750  
G22  23842579.177       49611.178         826.429          48.750  
G28  21562819.205       22384.216         380.438          47.750  
> 2018  4 22 11 21 57.1688020  0  6                     
G 1  23680399.858      125113.113        2009.164          48.000  
G 3  22277609.762      -49897.305        -796.810          39.250  
G11  24342362.752      123952.896        2017.802          44.750  
G17  21972538.910     -141062.872       -2314.132          50.750  
G22  23844426.391       49693.718         825.060          48.750  
G28  21564657.600       22422.161         379.499          47.750  
> 2018  4 22 11 21 57.2688020  0  6                     
G 1  23682269.985      125314.127        2009.880          48.250  
G 3  22279427.791      -49977.009        -797.705          38.750  
G11  24344232.595      124154.658        2016.497          44.250  
G17  21974327.101     -141294.263       -2314.527          50.500  
G22  23846274.224       49776.245         824.341          48.500  
G28  21566495.965       22460.090         378.547          47.500  
> 2018  4 22 11 21 57.3688020  0  6                     
G 1  23684139.491      125515.104        2009.259          48.000  
G 3  22281246.184      -50056.770        -799.834          38.250  
G11  24346102.398      124356.424        2018.101          44.750  
G17  21976114.432     -141525.676       -2314.227          51.000  
G22  23848121.282       49858.742         824.857          48.750  
G28  21568335.915       22498.007         378.497          47.750  
> 2018  4 22 11 21 57.4688020  0  6                     
G 1  23686009.018      125716.030        2009.225          48.250  
G 3  22283063.565      -50136.533        -797.418          38.250  
G11  24347971.985      124558.122        2017.683          44.250  
G17  21977902.532     -141757.150       -2314.927          50.750  
G22  23849968.992       49941.187         823.954          48.750  
G28  21570172.814       22535.863         378.307          47.750  
> 2018  4 22 11 21 57.5688020  0  6                     
G 1  23687879.086      125916.956        2009.312          48.500  
G 3  22284878.940      -50216.315        -798.904          38.250  
G11  24349841.918      124759.813        2017.195          44.500  
G17  21979690.132     -141988.628       -2315.433          50.750  
G22  23851815.916       50023.643         824.693          48.750  
G28  21572012.530       22573.704         378.449          47.500  
> 2018  4 22 11 21 57.6688020  0  6                     
G 1  23689748.406      126117.862        2008.939          48.250  
G 3  22286694.517      -50296.103        -797.010          38.250  
G11  24351712.461      124961.499        2016.516          44.250  
G17  21981477.637     -142220.108       -2315.217          50.750  
G22  23853663.503       50106.078         824.326          48.250  
G28  21573851.256       22611.552         378.764          47.250  
> 2018  4 22 11 21 57.7688020  0  6                     
G 1  23691618.357      126318.788        2009.375          47.750  
G 3  22288510.777      -50375.883        -797.038          38.500  
G11  24353583.767      125163.212        2016.664          44.250  
G17  21983265.678     -142451.561       -2314.786          50.250  
G22  23855510.531       50188.552         824.824          48.250  
G28  21575690.386       22649.434         378.496          47.250  
> 2018  4 22 11 21 57.8688020  0  6                     
G 1  23693488.080      126519.734        2010.292          48.000  
G 3  22290326.940      -50455.642        -797.884          38.500  
G11  24355452.639      125364.926        2017.271          44.250  
G17  21985053.478     -142683.014       -2313.907          50.750  
G22  23857357.808       50271.018         825.656          48.500  
G28  21577530.509       22687.321         379.955          47.750  
> 2018  4 22 11 21 57.9688020  0  6                     
G 1  23695358.063      126720.689        2010.427          48.250  
G 3  22292144.659      -50535.349        -796.519          38.750  
G11  24357323.457      125566.645        2017.418          44.750  
G17  21986841.611     -142914.454       -2314.062          51.000  
G22  23859205.176       50353.513         825.064          48.750  
G28  21579366.937       22725.234         379.600          47.750  
> 2018  4 22 11 21 58.0688020  0  6                     
G 1  23697227.836      126921.677        2010.119          48.250  
G 3  22293960.726      -50615.050        -797.687          38.250  
G11  24359193.028      125768.423        2017.452          44.750  
G17  21988628.869     -143145.855       -2314.150          51.000  
G22  23861052.656       50436.050         824.648          48.750  
G28  21581206.146       22763.178         379.122          47.750  
> 2018  4 22 11 21 58.1688020  0  6                     
G 1  23699097.338      127122.718        2011.333          48.250  
G 3  22295776.914      -50694.668        -795.640          38.500  
G11  24361063.149      125970.238        2018.223          44.500  
G17  21990415.823     -143377.207       -2313.272          51.000  
G22  23862900.405       50518.649         826.608          48.750  
G28  21583046.284       22801.169         380.444          47.750  
> 2018  4 22 11 21 58.2688020  0  6                     
G 1  23700966.987      127323.774        2011.435          48.250  
G 3  22297592.800      -50774.297        -795.102          38.750  
G11  24362933.816      126172.068        2019.122          44.500  
G17  21992203.360     -143608.538       -2313.417          51.000  
G22  23864746.896       50601.247         826.779          48.750  
G28  21584884.517       22839.193         380.699          47.750  
> 2018  4 22 11 21 58.3688020  0  6                     
G 1  23702837.415      127524.890        2012.047          48.250  
G 3  22299409.669      -50853.850        -794.545          38.500  
G11  24364804.315      126373.951        2018.926          44.500  
G17  21993990.687     -143839.817       -2312.713          51.000  
G22  23866594.152       50683.923         827.037          48.500  
G28  21586724.365       22877.271         381.119          47.500  
> 2018  4 22 11 21 58.4688020  0  6                     
G 1  23704707.204      127726.097        2012.510          48.000  
G 3  22301228.457      -50933.293        -794.092          38.250  
G11  24366673.611      126575.933        2019.887          44.250  
G17  21995778.908     -144070.989       -2311.616          50.750  
G22  23868441.361       50766.687         828.259          48.250  
G28  21588561.097       22915.456         383.038          47.250  
> 2018  4 22 11 21 58.5688020  0  6                     
G 1  23706576.824      127927.391        2013.386          47.750  
G 3  22303043.075      -51012.635        -793.533          38.750  
G11  24368543.211      126778.017        2021.859          44.250  
G17  21997566.499     -144302.080       -2310.681          50.750  
G22  23870288.361       50849.550         829.369          48.500  
G28  21590400.693       22953.727         383.335          47.500  
> 2018  4 22 11 21 58.6688020  0  6                     
G 1  23708446.608      128128.751        2013.449          48.000  
G 3  22304859.915      -51091.926        -793.992          38.000  
G11  24370412.478      126980.143        2021.984          44.500  
G17  21999353.818     -144533.112       -2310.413          50.750  
G22  23872135.928       50932.472         829.181          48.750  
G28  21592240.359       22992.049         383.262          47.500  
> 2018  4 22 11 21 58.7688020  0  6                     
G 1  23710316.354      128330.141        2014.477          48.250  
G 3  22306676.072      -51171.182        -791.837          38.500  
G11  24372282.498      127182.310        2022.354          44.500  
G17  22001141.901     -144764.104       -2309.244          51.000  
G22  23873983.627       51015.447         830.784          48.750  
G28  21594078.243       23030.442         383.991          47.500  
> 2018  4 22 11 21 58.8688020  0  6                     
G 1  23712185.888      128531.597        2014.554          48.250  
G 3  22308493.183      -51250.347        -790.912          38.500  
G11  24374152.555      127384.537        2022.529          45.000  
G17  22002929.322     -144995.033       -2309.754          51.000  
G22  23875831.560       51098.463         830.138          48.750  
G28  21595919.246       23068.886         384.207          47.750  
> 2018  4 22 11 21 58.9688020  0  6                     
G 1  23714055.738      128733.106        2015.357          48.000  
G 3  22310308.391      -51329.480        -791.922          38.500  
G11  24376021.563      127586.823        2022.481          44.500  
G17  22004716.770     -145225.904       -2308.574          50.750  
G22  23877680.072       51181.554         831.020          48.500  
G28  21597756.536       23107.389         385.817          47.250  
> 2018  4 22 11 21 59.0688020  0  6                     
G 1  23715925.693      128934.659        2015.358          47.750  
G 3  22312122.507      -51408.559        -790.812          38.250  
G11  24377891.563      127789.120        2022.120          44.500  
G17  22006504.305     -145456.749       -2308.864          50.750  
G22  23879525.879       51264.683         831.248          48.500  
G28  21599596.411       23145.923         384.611          47.500  
> 2018  4 22 11 21 59.1688020  0  6                     
G 1  23717795.152      129136.149        2014.971          48.000  
G 3  22313939.598      -51487.681        -792.471          38.250  
G11  24379761.842      127991.395        2022.503          44.750  
G17  22008291.234     -145687.631       -2309.098          51.000  
G22  23881373.484       51347.758         830.647          48.750  
G28  21601434.782       23184.419         384.371          47.750  
> 2018  4 22 11 21 59.2688020  0  6                     
G 1  23719665.140      129337.549        2013.839          48.000  
G 3  22315753.497      -51566.888        -792.418          38.500  
G11  24381631.810      128193.571        2021.326          44.500  
G17  22010078.966     -145918.607       -2310.117          50.750  
G22  23883219.774       51430.754         830.045          48.750  
G28  21603272.607       23222.837         384.152          47.750  
> 2018  4 22 11 21 59.3688020  0  6                     
G 1  23721535.276      129538.902        2013.218          48.000  
G 3  22317569.327      -51646.165        -793.973          38.500  
G11  24383501.842      128395.676        2021.021          44.750  
G17  22011866.643     -146149.649       -2310.498          51.000  
G22  23885067.339       51513.691         829.578          48.500  
G28  21605113.884       23261.180         383.433          47.500  
> 2018  4 22 11 21 59.4688020  0  6                     
G 1  23723405.151      129740.232        2014.120          47.750  
G 3  22319385.360      -51725.422        -792.592          38.500  
G11  24385372.519      128597.792        2021.900          44.500  
G17  22013654.802     -146380.699       -2310.333          50.750  
G22  23886915.117       51596.616         829.501          48.500  
G28  21606949.987       23299.532         384.009          47.500  
> 2018  4 22 11 21 59.5688020  0  6                     
G 1  23725274.827      129941.580        2014.464          47.750  
G 3  22321200.484      -51804.684        -792.104          38.500  
G11  24387243.348      128799.910        2022.290          44.500  
G17  22015442.738     -146611.719       -2310.066          51.000  
G22  23888762.856       51679.572         830.319          48.750  
G28  21608788.807       23337.898         384.622          47.500  
> 2018  4 22 11 21 59.6688020  0  6                     
G 1  23727145.251      130143.001        2014.087          48.000  
G 3  22323018.552      -51883.826        -790.835          38.500  
G11  24389113.185      129002.098        2021.250          44.500  
G17  22017230.641     -146842.688       -2310.317          51.000  
G22  23890610.267       51762.593         829.895          48.500  
G28  21610628.560       23376.331         383.644          47.500  
> 2018  4 22 11 21 59.7688020  0  6                     
G 1  23729014.673      130344.380        2014.016          47.750  
G 3  22324836.150      -51963.044        -792.841          38.000  
G11  24390982.591      129204.275        2022.524          44.250  
G17  22019018.920     -147073.671       -2310.518          50.750  
G22  23892457.373       51845.589         830.348          48.750  
G28  21612466.484       23414.750         384.166          47.750  
> 2018  4 22 11 21 59.8688020  0  6                     
G 1  23730884.044      130545.763        2013.742          48.250  
G 3  22326652.519      -52042.247        -792.573          38.500  
G11  24392853.804      129406.403        2021.393          44.750  
G17  22020806.834     -147304.683       -2309.735          51.000  
G22  23894304.338       51928.571         830.334          48.500  
G28  21614307.701       23453.142         384.070          47.500  
> 2018  4 22 11 21 59.9688020  0  6                     
G 1  23732753.981      130747.134        2013.635          48.000  
G 3  22328469.803      -52121.443        -791.811          38.500  
G11  24394724.548      129608.540        2020.371          44.750  
G17  22022594.493     -147535.683       -2310.422          51.000  
G22  23896151.150       52011.550         830.037          48.750  
G28  21616144.793       23491.560         384.053          47.500  
> 2018  4 22 11 22  0.0688020  0  6                     
G 1  23734623.917      130948.497        2012.914          48.000  
G 3  22330286.270      -52200.654        -792.886          38.750  
G11  24396594.694      129810.479        2018.536          44.750  
G17  22024381.833     -147766.693       -2310.015          51.000  
G22  23897998.616       52094.540         829.714          48.750  
G28  21617983.779       23529.955         383.768          47.750  
> 2018  4 22 11 22  0.1688020  0  6                     
G 1  23736493.973      131149.871        2012.538          48.000  
G 3  22332105.468      -52279.843        -793.176          38.750  
G11  24398465.222      130012.827        2022.016          44.500  
G17  22026168.821     -147997.698       -2310.493          51.000  
G22  23899846.278       52177.524         829.017          48.750  
G28  21619823.213       23568.372         383.863          47.750  
> 2018  4 22 11 22  0.2688020  0  6                     
G 1  23738363.544      131351.221        2013.264          48.000  
G 3  22333922.008      -52359.013        -790.714          38.750  
G11  24400334.380      130214.950        2021.609          44.250  
G17  22027956.497     -148228.716       -2310.911          51.000  
G22  23901694.496       52260.516         829.111          48.750  
G28  21621661.659       23606.781         383.335          47.750  
> 2018  4 22 11 22  0.3688020  0  6                     
G 1  23740233.431      131552.573        2013.924          47.750  
G 3  22335738.900      -52438.237        -792.195          38.000  
G11  24402204.387      130417.056        2021.470          44.500  
G17  22029743.932     -148459.739       -2309.778          51.000  
G22  23903542.324       52343.497         830.619          48.750  
G28  21623502.799       23645.167         383.609          47.500  
> 2018  4 22 11 22  0.4688020  0  6                     
G 1  23742102.819      131753.941        2012.503          48.000  
G 3  22337554.934      -52517.386        -791.170          38.500  
G11  24404073.395      130619.203        2021.268          44.500  
G17  22031531.354     -148690.741       -2311.003          51.000  
G22  23905389.543       52426.500         829.174          48.750  
G28  21625339.915       23683.604         383.471          47.750  
> 2018  4 22 11 22  0.5688020  0  6                     
G 1  23743972.350      131955.298        2014.770          47.750  
G 3  22339368.424      -52596.607        -791.664          38.750  
G11  24405943.239      130821.319        2021.007          44.500  
G17  22033319.137     -148921.763       -2310.167          51.250  
G22  23907235.643       52509.495         830.162          48.750  
G28  21627178.785       23722.008         384.884          47.750  
> 2018  4 22 11 22  0.6688020  0  6                     
G 1  23745842.495      132156.659        2014.052          48.000  
G 3  22341183.908      -52675.784        -791.440          38.500  
G11  24407812.289      131023.457        2021.949          44.250  
G17  22035106.689     -149152.776       -2309.359          51.250  
G22  23909082.482       52592.475         830.255          48.500  
G28  21629018.116       23760.434         384.864          47.500  
> 2018  4 22 11 22  0.7688020  0  6                     
G 1  23747713.304      132358.058        2014.129          47.750  
G 3  22343001.079      -52754.900        -791.483          37.750  
G11  24409683.109      131225.631        2022.251          43.750  
G17  22036894.696     -149383.739       -2310.018          50.750  
G22  23910930.087       52675.525         829.465          48.500  
G28  21630856.825       23798.913         384.706          47.250  
> 2018  4 22 11 22  0.8688020  0  6                     
G 1  23749582.879      132559.423        2014.097          47.750  
G 3  22344818.181      -52834.073        -792.322          38.750  
G11  24411552.883      131427.762        2021.987          44.250  
G17  22038682.464     -149614.747       -2310.002          51.000  
G22  23912777.939       52758.543         830.331          48.750  
G28  21632697.407       23837.348         384.934          47.750  
> 2018  4 22 11 22  0.9688020  0  6                     
G 1  23751453.010      132760.783        2013.425          47.750  
G 3  22346633.176      -52913.221        -791.978          39.000  
G11  24413422.292      131629.883        2021.283          44.750  
G17  22040470.219     -149845.755       -2310.468          51.250  
G22  23914625.481       52841.557         830.135          48.750  
G28  21634534.420       23875.781         383.940          47.750  
> 2018  4 22 11 22  1.0688020  0  6                     
G 1  23753322.904      132962.138        2014.027          48.000  
G 3  22348449.829      -52992.365        -791.223          38.250  
G11  24415292.861      131831.991        2020.781          44.500  
G17  22042258.082     -150076.768       -2310.114          51.250  
G22  23916473.883       52924.567         830.362          48.750  
G28  21636373.332       23914.204         384.326          47.500  
> 2018  4 22 11 22  1.1688020  0  6                     
G 1  23755193.752      133163.528        2013.639          48.000  
G 3  22350267.093      -53071.492        -791.793          38.750  
G11  24417162.664      132034.154        2021.423          44.750  
G17  22044045.518     -150307.742       -2310.098          51.250  
G22  23918320.700       53007.625         830.351          49.000  
G28  21638213.397       23952.679         384.231          47.750  
> 2018  4 22 11 22  1.2688020  0  6                     
G 1  23757063.613      133364.902        2013.984          48.000  
G 3  22352083.648      -53150.621        -791.325          38.750  
G11  24419033.057      132236.300        2021.530          44.500  
G17  22045833.674     -150538.731       -2309.923          51.000  
G22  23920167.938       53090.662         831.010          49.000  
G28  21640050.855       23991.149         384.975          47.750  
> 2018  4 22 11 22  1.3688020  0  6                     
G 1  23758932.495      133566.277        2013.197          48.000  
G 3  22353902.285      -53229.725        -790.958          38.500  
G11  24420902.895      132438.449        2021.087          44.500  
G17  22047621.142     -150769.723       -2310.612          51.250  
G22  23922015.121       53173.699         830.363          48.750  
G28  21641890.863       24029.610         383.998          47.750  
> 2018  4 22 11 22  1.4688020  0  6                     
G 1  23760801.943      133767.659        2014.338          48.000  
G 3  22355719.391      -53308.841        -791.181          38.500  
G11  24422772.659      132640.593        2020.678          44.250  
G17  22049408.539     -151000.707       -2310.145          51.250  
G22  23923862.914       53256.749         830.775          48.750  
G28  21643728.445       24068.093         384.288          47.750  
> 2018  4 22 11 22  1.5688020  0  6                     
G 1  23762671.429      133969.009        2013.645          47.750  
G 3  22357537.381      -53387.971        -791.507          38.750  
G11  24424643.152      132842.704        2020.133          44.500  
G17  22051196.079     -151231.718       -2310.306          51.000  
G22  23925709.975       53339.775         830.347          48.750  
G28  21645567.765       24106.544         384.596          47.500  
> 2018  4 22 11 22  1.6688020  0  6                     
G 1  23764541.431      134170.376        2013.704          48.000  
G 3  22359355.336      -53467.075        -790.383          38.750  
G11  24426513.280      133044.842        2021.802          44.500  
G17  22052983.106     -151462.717       -2309.900          51.000  
G22  23927557.652       53422.810         830.651          48.750  
G28  21647406.801       24145.008         385.375          47.500  
> 2018  4 22 11 22  1.7688020  0  6                     
G 1  23766412.588      134371.757        2013.642          48.000  
G 3  22361171.880      -53546.178        -789.693          38.250  
G11  24428383.280      133246.989        2020.999          44.250  
G17  22054771.008     -151693.690       -2309.766          51.000  
G22  23929405.263       53505.884         830.120          48.500  
G28  21649245.474       24183.516         384.588          47.500  
> 2018  4 22 11 22  1.8688020  0  6                     
G 1  23768282.290      134573.161        2014.099          47.500  
G 3  22362987.862      -53625.237        -789.191          38.500  
G11  24430253.345      133449.169        2022.663          44.000  
G17  22056558.310     -151924.646       -2309.399          51.000  
G22  23931252.530       53588.981         831.250          48.750  
G28  21651086.319       24222.034         385.634          47.500  
> 2018  4 22 11 22  1.9688020  0  6                     
G 1  23770151.845      134774.603        2014.810          47.750  
G 3  22364802.812      -53704.250        -790.402          38.500  
G11  24432124.609      133651.375        2022.834          44.000  
G17  22058345.689     -152155.566       -2309.015          51.000  
G22  23933099.110       53672.105         831.200          48.750  
G28  21652923.732       24260.590         385.572          47.500  
> 2018  4 22 11 22  2.0688020  0  6                     
G 1  23772021.703      134976.118        2015.112          47.750  
G 3  22366619.716      -53783.201        -790.392          38.750  
G11  24433994.186      133853.643        2022.633          44.250  
G17  22060134.205     -152386.421       -2308.886          51.250  
G22  23934945.840       53755.317         832.173          48.750  
G28  21654763.486       24299.221         386.048          47.750  
> 2018  4 22 11 22  2.1688020  0  6                     
G 1  23773891.788      135177.573        2015.428          48.000  
G 3  22368436.038      -53862.187        -788.238          38.500  
G11  24435863.497      134055.860        2023.475          44.500  
G17  22061921.910     -152617.331       -2308.841          51.250  
G22  23936793.694       53838.458         832.020          49.000  
G28  21656601.985       24337.788         386.130          47.500  
> 2018  4 22 11 22  2.2688020  0  6                     
G 1  23775761.558      135379.035        2014.886          48.000  
G 3  22370252.361      -53941.193        -790.142          38.750  
G11  24437733.983      134258.100        2022.678          44.000  
G17  22063710.288     -152848.217       -2308.784          51.000  
G22  23938641.074       53921.627         832.364          48.500  
G28  21658440.396       24376.402         386.312          47.500  
> 2018  4 22 11 22  2.3688020  0  6                     
G 1  23777631.948      135580.539        2014.639          47.750  
G 3  22372068.013      -54020.123        -789.627          38.500  
G11  24439603.939      134460.365        2023.557          44.250  
G17  22065497.469     -153079.064       -2308.732          51.000  
G22  23940488.504       54004.837         832.295          48.750  
G28  21660280.840       24415.031         386.373          47.250  
> 2018  4 22 11 22  2.4688020  0  6                     
G 1  23779501.919      135782.023        2015.114          48.000  
G 3  22373886.217      -54099.044        -788.840          39.000  
G11  24441474.020      134662.615        2023.426          44.000  
G17  22067284.804     -153309.935       -2309.368          51.250  
G22  23942336.374       54088.030         831.818          49.000  
G28  21662117.562       24453.665         385.849          47.750  
> 2018  4 22 11 22  2.5688020  0  6                     
G 1  23781372.177      135983.566        2015.511          48.000  
G 3  22375702.106      -54177.946        -787.467          38.500  
G11  24443343.963      134864.923        2024.094          44.000  
G17  22069072.993     -153540.750       -2308.151          51.250  
G22  23944184.197       54171.283         832.217          48.250  
G28  21663956.491       24492.332         386.712          47.250  
> 2018  4 22 11 22  2.6688020  0  6                     
G 1  23783242.149      136185.096        2015.428          47.500  
G 3  22377518.733      -54256.830        -787.031          38.750  
G11  24445213.747      135067.214        2023.114          44.000  
G17  22070860.595     -153771.567       -2308.071          51.000  
G22  23946030.508       54254.538         832.850          48.750  
G28  21665795.605       24531.025         387.042          47.500  
> 2018  4 22 11 22  2.7688020  0  6                     
G 1  23785111.693      136386.689        2016.553          48.000  
G 3  22379334.772      -54335.649        -787.624          38.750  
G11  24447083.760      135269.569        2024.185          44.250  
G17  22072648.765     -154002.334       -2306.882          51.250  
G22  23947877.977       54337.834         833.655          48.750  
G28  21667633.630       24569.769         388.375          47.750  
> 2018  4 22 11 22  2.8688020  0  6                     
G 1  23786982.148      136588.295        2016.237          48.000  
G 3  22381150.707      -54414.462        -788.570          39.000  
G11  24448953.793      135471.941        2024.608          44.000  
G17  22074436.499     -154233.077       -2307.564          51.500  
G22  23949725.132       54421.170         833.353          48.750  
G28  21669473.793       24608.528         387.587          47.500  
> 2018  4 22 11 22  2.9688020  0  6                     
G 1  23788852.195      136789.879        2016.342          48.000  
G 3  22382967.709      -54493.283        -787.402          38.750  
G11  24450824.430      135674.287        2023.263          44.000  
G17  22076224.399     -154463.848       -2307.563          51.250  
G22  23951572.796       54504.478         833.488          48.500  
G28  21671311.529       24647.275         388.110          47.500  
> 2018  4 22 11 22  3.0688020  0  6                     
G 1  23790721.618      136991.496        2015.405          47.750  
G 3  22384785.277      -54572.059        -787.980          38.750  
G11  24452695.518      135876.659        2023.448          43.750  
G17  22078012.143     -154694.583       -2307.809          51.000  
G22  23953420.413       54587.830         833.298          48.750  
G28  21673150.585       24686.045         387.454          47.750  
> 2018  4 22 11 22  3.1688020  0  6                     
G 1  23792591.065      137193.091        2015.833          48.000  
G 3  22386601.698      -54650.858        -787.484          38.750  
G11  24454564.999      136079.012        2023.065          44.000  
G17  22079799.528     -154925.347       -2307.751          51.250  
G22  23955268.821       54671.143         832.803          48.750  
G28  21674990.461       24724.801         387.889          47.750  
> 2018  4 22 11 22  3.2688020  0  6                     
G 1  23794460.930      137394.631        2015.911          48.000  
G 3  22388419.099      -54729.715        -788.519          38.750  
G11  24456435.976      136281.322        2023.386          44.250  
G17  22081587.247     -155156.149       -2307.817          51.250  
G22  23957116.893       54754.440         832.733          48.750  
G28  21676828.854       24763.533         387.980          47.750  
> 2018  4 22 11 22  3.3688020  0  6                     
G 1  23796330.875      137596.104        2014.785          48.000  
G 3  22390235.200      -54808.611        -788.494          39.250  
G11  24458306.228      136483.567        2022.531          44.000  
G17  22083374.606     -155387.029       -2309.124          51.250  
G22  23958965.416       54837.654         832.096          49.000  
G28  21678668.794       24802.173         386.366          47.750  
> 2018  4 22 11 22  3.4688020  0  6                     
G 1  23798200.761      137797.562        2014.778          48.000  
G 3  22392052.198      -54887.541        -788.215          39.000  
G11  24460176.795      136685.767        2021.683          44.000  
G17  22085162.079     -155617.916       -2309.121          51.250  
G22  23960812.125       54920.860         832.107          48.750  
G28  21680506.643       24840.820         386.320          47.750  
> 2018  4 22 11 22  3.5688020  0  6                     
G 1  23800070.468      137999.043        2015.205          48.000  
G 3  22393869.317      -54966.444        -789.052          38.750  
G11  24462046.244      136888.012        2022.884          44.250  
G17  22086949.926     -155848.786       -2308.229          51.250  
G22  23962657.556       55004.084         832.684          48.750  
G28  21682346.565       24879.474         386.894          47.500  
> 2018  4 22 11 22  3.6688020  0  6                     
G 1  23801940.947      138200.482        2014.818          48.000  
G 3  22395687.212      -55045.353        -788.774          39.000  
G11  24463917.119      137090.212        2022.421          44.000  
G17  22088737.442     -156079.700       -2309.011          51.500  
G22  23964504.812       55087.274         832.641          49.000  
G28  21684185.559       24918.096         386.992          47.750  
> 2018  4 22 11 22  3.7688020  0  6                     
G 1  23803810.714      138401.960        2015.472          48.000  
G 3  22397503.065      -55124.247        -789.043          39.000  
G11  24465786.440      137292.464        2023.308          44.000  
G17  22090525.908     -156310.557       -2308.437          51.250  
G22  23966352.209       55170.512         832.833          48.750  
G28  21686023.980       24956.780         386.839          47.750  
> 2018  4 22 11 22  3.8688020  0  6                     
G 1  23805680.336      138603.500        2016.212          48.000  
G 3  22399318.686      -55203.057        -786.378          39.000  
G11  24467656.001      137494.750        2023.465          44.000  
G17  22092313.465     -156541.370       -2307.596          51.500  
G22  23968200.074       55253.802         833.680          49.000  
G28  21687864.941       24995.503         387.619          47.750  
> 2018  4 22 11 22  3.9688020  0  6                     
G 1  23807550.072      138805.129        2016.955          48.000  
G 3  22401134.399      -55281.763        -786.544          38.750  
G11  24469525.633      137697.144        2024.651          43.750  
G17  22094100.905     -156772.087       -2306.953          51.250  
G22  23970048.111       55337.209         834.398          48.500  
G28  21689702.355       25034.340         388.276          47.250  
> 2018  4 22 11 22  4.0688020  0  6                     
G 1  23809420.687      139006.820        2016.811          47.750  
G 3  22402950.074      -55360.429        -787.324          38.750  
G11  24471394.382      137899.598        2025.155          43.500  
G17  22095888.493     -157002.739       -2306.242          51.000  
G22  23971896.202       55420.664         834.649          48.750  
G28  21691542.334       25073.236         389.031          47.500  
> 2018  4 22 11 22  4.1688020  0  6                     
G 1  23811290.250      139208.577        2018.832          47.500  
G 3  22404767.197      -55439.024        -785.525          39.000  
G11  24473264.746      138102.119        2025.321          43.750  
G17  22097675.919     -157233.318       -2305.409          51.000  
G22  23973743.247       55504.200         836.639          48.750  
G28  21693381.181       25112.200         390.394          47.500  
> 2018  4 22 11 22  4.2688020  0  6                     
G 1  23813160.712      139410.445        2019.253          47.750  
G 3  22406584.036      -55517.443        -782.630          39.000  
G11  24475134.747      138304.744        2026.055          43.750  
G17  22099463.631     -157463.785       -2304.536          51.250  
G22  23975589.922       55587.841         836.322          49.000  
G28  21695220.091       25151.297         390.898          47.500  
> 2018  4 22 11 22  4.3688020  0  6                     
G 1  23815030.259      139612.351        2018.692          48.000  
G 3  22408401.079      -55595.896        -784.384          39.000  
G11  24477004.340      138507.415        2026.972          43.750  
G17  22101251.616     -157694.225       -2304.728          51.500  
G22  23977437.371       55671.533         837.203          48.500  
G28  21697059.837       25190.426         391.798          47.500  
> 2018  4 22 11 22  4.4688020  0  6                     
G 1  23816901.466      139814.332        2020.646          47.500  
G 3  22410217.956      -55674.224        -782.640          38.250  
G11  24478873.220      138710.155        2027.626          43.000  
G17  22103039.388     -157924.581       -2302.813          51.000  
G22  23979284.737       55755.290         838.594          48.500  
G28  21698896.778       25229.628         392.902          47.250  
> 2018  4 22 11 22  4.5688020  0  6                     
G 1  23818771.483      140016.382        2021.104          47.750  
G 3  22412034.334      -55752.490        -782.808          38.250  
G11  24480743.796      138912.953        2027.914          43.250  
G17  22104827.335     -158154.873       -2302.849          51.250  
G22  23981132.366       55839.128         838.278          48.500  
G28  21700736.692       25268.900         392.737          47.250  
> 2018  4 22 11 22  4.6688020  0  6                     
G 1  23820642.132      140218.451        2020.519          47.750  
G 3  22413849.923      -55830.743        -782.001          39.000  
G11  24482614.053      139115.779        2028.593          43.750  
G17  22106614.974     -158385.156       -2303.364          51.250  
G22  23982980.381       55922.978         838.566          48.750  
G28  21702575.055       25308.185         392.756          47.500  
> 2018  4 22 11 22  4.7688020  0  6                     
G 1  23822512.533      140420.538        2021.388          47.500  
G 3  22415666.065      -55908.960        -781.087          38.750  
G11  24484485.676      139318.621        2027.536          43.500  
G17  22108402.872     -158615.407       -2302.865          51.000  
G22  23984828.080       56006.860         838.823          48.500  
G28  21704414.188       25347.500         392.588          47.250  
> 2018  4 22 11 22  4.8688020  0  6                     
G 1  23824382.181      140622.616        2020.708          47.750  
G 3  22417483.847      -55987.165        -782.825          39.500  
G11  24486355.460      139521.471        2028.210          43.750  
G17  22110190.594     -158845.659       -2302.986          51.250  
G22  23986676.176       56090.740         838.849          49.000  
G28  21706254.463       25386.834         392.796          47.750  
> 2018  4 22 11 22  4.9688020  0  6                     
G 1  23826252.159      140824.715        2021.244          48.000  
G 3  22419300.392      -56065.360        -781.721          39.250  
G11  24488225.319      139724.333        2028.906          44.000  
G17  22111977.828     -159075.895       -2302.610          51.500  
G22  23988523.051       56174.645         839.301          49.000  
G28  21708092.609       25426.176         392.943          47.750  
> 2018  4 22 11 22  5.0688020  0  6                     
G 1  23828122.354      141026.750        2020.038          47.750  
G 3  22421117.015      -56143.625        -783.592          39.000  
G11  24490095.208      139927.118        2027.804          43.750  
G17  22113765.534     -159306.192       -2303.184          51.500  
G22  23990370.539       56258.475         838.255          48.750  
G28  21709933.521       25465.452         392.416          47.750  
> 2018  4 22 11 22  5.1688020  0  6                     
G 1  23829991.534      141228.742        2019.390          48.000  
G 3  22422934.302      -56221.909        -783.792          38.500  
G11  24491965.300      140129.865        2026.885          43.500  
G17  22115553.061     -159536.540       -2304.293          51.250  
G22  23992217.294       56342.277         837.433          48.250  
G28  21711771.143       25504.708         392.178          47.250  
> 2018  4 22 11 22  5.2688020  0  6                     
G 1  23831861.308      141430.673        2019.903          47.500  
G 3  22424753.064      -56300.258        -782.764          38.500  
G11  24493835.965      140332.546        2026.728          43.500  
G17  22117340.990     -159766.953       -2303.956          51.000  
G22  23994065.186       56426.017         837.987          48.750  
G28  21713610.648       25543.878         392.630          47.500  
> 2018  4 22 11 22  5.3688020  0  6                     
G 1  23833731.235      141632.625        2020.019          48.000  
G 3  22426568.864      -56378.560        -782.459          39.500  
G11  24495706.682      140535.277        2027.974          43.500  
G17  22119128.839     -159997.312       -2303.404          51.250  
G22  23995913.041       56509.800         838.604          49.000  
G28  21715449.981       25583.112         392.735          47.500  
> 2018  4 22 11 22  5.4688020  0  6                     
G 1  23835601.325      141834.628        2020.397          47.750  
G 3  22428383.706      -56456.826        -781.646          39.250  
G11  24497576.603      140738.020        2027.610          43.500  
G17  22120916.117     -160227.656       -2303.370          51.500  
G22  23997760.995       56593.612         838.458          49.000  
G28  21717288.224       25622.364         392.727          47.750  
> 2018  4 22 11 22  5.5688020  0  6                     
G 1  23837471.301      142036.608        2019.540          47.750  
G 3  22430199.191      -56535.098        -782.942          39.000  
G11  24499446.586      140940.785        2027.711          43.500  
G17  22122704.262     -160457.996       -2303.240          51.500  
G22  23999608.356       56677.424         837.591          48.750  
G28  21719128.361       25661.621         392.368          47.750  
> 2018  4 22 11 22  5.6688020  0  6                     
G 1  23839341.200      142238.518        2019.047          48.000  
G 3  22432016.060      -56613.451        -783.642          39.250  
G11  24501316.590      141143.431        2027.019          43.750  
G17  22124491.760     -160688.426       -2304.598          51.500  
G22  24001455.560       56761.155         837.181          49.000  
G28  21720966.293       25700.798         391.557          47.750  
> 2018  4 22 11 22  5.7688020  0  6                     
G 1  23841211.247      142440.367        2018.764          47.750  
G 3  22433832.519      -56691.858        -783.976          39.500  
G11  24503186.146      141346.028        2026.249          43.750  
G17  22126279.966     -160918.912       -2305.089          51.500  
G22  24003303.200       56844.832         836.905          49.000  
G28  21722806.194       25739.926         391.493          47.750  
> 2018  4 22 11 22  5.8688020  0  6                     
G 1  23843081.421      142642.163        2018.345          48.000  
G 3  22435648.624      -56770.294        -785.006          39.000  
G11  24505056.507      141548.588        2025.854          43.250  
G17  22128068.084     -161149.444       -2305.222          51.500  
G22  24005150.922       56928.466         836.805          48.750  
G28  21724645.101       25778.998         390.707          47.500  
> 2018  4 22 11 22  5.9688020  0  6                     
G 1  23844951.574      142844.010        2018.860          47.750  
G 3  22437466.019      -56848.708        -784.910          38.750  
G11  24506926.976      141751.195        2027.228          43.250  
G17  22129855.645     -161379.921       -2304.520          51.500  
G22  24006998.265       57012.162         837.633          48.750  
G28  21726483.539       25818.145         392.477          47.500  
> 2018  4 22 11 22  6.0688020  0  6                     
G 1  23846821.680      143045.969        2019.754          48.000  
G 3  22439282.242      -56926.969        -783.055          39.250  
G11  24508796.991      141953.768        2010.526          43.500  
G17  22131644.180     -161610.296       -2303.816          51.750  
G22  24008845.103       57095.951         837.834          49.000  
G28  21728323.825       25857.378         392.236          47.750  
> 2018  4 22 11 22  6.1688020  0  6                     
G 1  23848691.637      143247.966        2020.248          48.000  
G 3  22441098.861      -57005.190        -782.746          39.250  
G11  24510667.194      142156.642        2027.264          43.750  
G17  22133432.091     -161840.630       -2303.174          51.750  
G22  24010692.601       57179.794         839.183          49.000  
G28  21730160.969       25896.667         393.915          47.750  
> 2018  4 22 11 22  6.2688020  0  6                     
G 1  23850561.781      143450.021        2020.602          48.000  
G 3  22442916.258      -57083.351        -781.332          39.000  
G11  24512538.630      142359.474        2029.200          43.000  
G17  22135219.942     -162070.898       -2302.881          51.500  
G22  24012541.078       57263.703         839.459          48.750  
G28  21732000.486       25936.025         393.496          47.500  
> 2018  4 22 11 22  6.3688020  0  6                     
G 1  23852431.970      143652.107        2020.064          47.500  
G 3  22444732.588      -57161.459        -780.849          38.750  
G11  24514408.183      142562.309        2027.919          43.250  
G17  22137007.603     -162301.137       -2303.081          51.250  
G22  24014388.787       57347.650         838.669          48.500  
G28  21733839.241       25975.408         392.801          47.500  
> 2018  4 22 11 22  6.4688020  0  6                     
G 1  23854302.011      143854.162        2020.080          48.000  
G 3  22446548.362      -57239.638        -782.125          39.500  
G11  24516278.712      142765.105        2027.073          43.500  
G17  22138795.380     -162531.415       -2303.124          51.500  
G22  24016235.642       57431.545         839.132          49.250  
G28  21735677.875       26014.767         393.125          48.000  
> 2018  4 22 11 22  6.5688020  0  6                     
G 1  23856171.783      144056.311        2024.371          47.750  
G 3  22448364.974      -57317.680        -778.333          38.250  
G11  24518149.572      142968.019        2032.225          42.750  
G17  22140583.475     -162761.581       -2298.929          51.500  
G22  24018083.427       57515.568         843.253          48.000  
G28  21737518.889       26054.237         397.363          46.500  
> 2018  4 22 11 22  6.6688020  0  6                     
G 1  23858042.069      144259.092        2029.656          46.750  
G 3  22450181.412      -57395.108        -773.203          38.250  
G11  24520019.670      143171.554        2037.195          42.500  
G17  22142371.730     -162991.127       -2293.808          50.500  
G22  24019931.119       57600.208         848.450          48.500  
G28  21739356.381       26094.337         402.559          47.250  
> 2018  4 22 11 22  6.7688020  0  6                     
G 1  23859912.101      144462.037        2029.044          47.750  
G 3  22451998.768      -57472.378        -774.683          39.000  
G11  24521890.395      143375.246        2036.044          43.500  
G17  22144159.136     -163220.507       -2294.823          51.500  
G22  24021778.368       57685.019         847.086          48.750  
G28  21741196.633       26134.593         401.976          47.500  
> 2018  4 22 11 22  6.8688020  0  6                     
G 1  23861781.819      144664.610        2024.070          47.500  
G 3  22453816.878      -57549.953        -777.502          38.500  
G11  24523760.782      143578.568        2031.667          42.750  
G17  22145947.665     -163450.250       -2299.112          51.250  
G22  24023626.633       57769.465         842.987          48.250  
G28  21743035.411       26174.483         396.747          47.000  
> 2018  4 22 11 22  6.9688020  0  6                     
G 1  23863652.202      144867.027        2025.731          47.250  
G 3  22455633.906      -57627.719        -776.802          39.250  
G11  24525631.329      143781.734        2033.080          43.250  
G17  22147735.014     -163680.164       -2297.872          51.250  
G22  24025474.338       57853.751         844.070          49.000  
G28  21744873.861       26214.221         398.703          47.750  
> 2018  4 22 11 22  7.0688020  0  6                     
G 1  23865521.687      145069.547        2024.111          48.000  
G 3  22457449.124      -57705.399        -777.042          38.750  
G11  24527501.630      143985.000        2031.595          43.500  
G17  22149523.228     -163909.965       -2299.001          51.500  
G22  24027322.160       57938.153         843.119          49.000  
G28  21746714.161       26254.074         397.345          47.750  
> 2018  4 22 11 22  7.1688020  0  6                     
G 1  23867391.405      145271.795        2020.735          47.750  
G 3  22459265.464      -57783.301        -779.984          38.750  
G11  24529371.370      144188.005        2027.985          43.000  
G17  22151310.766     -164140.031       -2302.228          51.500  
G22  24029170.312       58022.294         840.415          48.750  
G28  21748551.663       26293.655         394.311          47.500  
> 2018  4 22 11 22  7.2688020  0  6                     
G 1  23869260.732      145473.804        2018.680          47.750  
G 3  22461083.527      -57861.461        -781.436          39.000  
G11  24531240.507      144390.780        2026.877          43.000  
G17  22153098.465     -164370.346       -2305.104          51.500  
G22  24031018.118       58106.191         837.729          48.500  
G28  21750391.822       26333.009         392.738          47.250  
> 2018  4 22 11 22  7.3688020  0  6                     
G 1  23871131.259      145675.572        2017.601          47.250  
G 3  22462900.116      -57939.860        -784.327          38.750  
G11  24533110.273      144593.279        2024.209          42.750  
G17  22154886.185     -164600.899       -2305.929          51.000  
G22  24032864.950       58189.843         836.288          48.750  
G28  21752230.170       26372.120         391.330          47.250  
> 2018  4 22 11 22  7.4688020  0  6                     
G 1  23873001.073      145877.360        2019.261          47.250  
G 3  22464716.732      -58018.216        -783.814          38.750  
G11  24534980.163      144795.846        2026.785          42.750  
G17  22156673.151     -164831.418       -2304.428          51.250  
G22  24034712.094       58273.533         837.864          49.000  
G28  21754068.419       26411.262         392.865          47.500  
> 2018  4 22 11 22  7.5688020  0  6                     
G 1  23874870.671      146079.308        2019.641          47.750  
G 3  22466533.469      -58096.400        -781.045          39.500  
G11  24536850.737      144998.544        2027.776          43.250  
G17  22158461.044     -165061.792       -2303.668          51.750  
G22  24036559.752       58357.371         838.558          49.250  
G28  21755908.101       26450.555         393.532          47.750  
> 2018  4 22 11 22  7.6688020  0  6                     
G 1  23876740.590      146281.314        2021.510          48.000  
G 3  22468350.060      -58174.563        -781.074          39.000  
G11  24538719.749      145201.287        2029.243          43.250  
G17  22160249.364     -165292.098       -2301.856          51.750  
G22  24038408.248       58441.286         840.392          49.000  
G28  21757746.128       26489.911         394.954          47.500  
> 2018  4 22 11 22  7.7688020  0  6                     
G 1  23878610.381      146483.657        2024.822          47.750  
G 3  22470167.797      -58252.337        -776.181          39.000  
G11  24540590.129      145404.384        2032.584          43.000  
G17  22162037.217     -165522.074       -2298.425          51.250  
G22  24040256.069       58525.537         844.299          48.750  
G28  21759586.440       26529.613         397.950          47.500  
> 2018  4 22 11 22  7.8688020  0  6                     
G 1  23880480.939      146686.113        2024.132          48.000  
G 3  22471984.362      -58330.019        -777.270          39.250  
G11  24542460.935      145607.589        2030.922          43.250  
G17  22163825.506     -165751.940       -2299.916          51.750  
G22  24042103.925       58609.901         842.570          49.000  
G28  21761424.629       26569.443         397.344          47.250  
> 2018  4 22 11 22  7.9688020  0  6                     
G 1  23882351.177      146888.317        2020.559          47.250  
G 3  22473801.049      -58407.941        -782.231          38.750  
G11  24544331.105      145810.532        2027.178          42.500  
G17  22165613.011     -165982.051       -2302.927          51.250  
G22  24043951.458       58694.008         839.517          48.500  
G28  21763264.403       26609.008         393.458          47.250  
> 2018  4 22 11 22  8.0688020  0  6                     
G 1  23884221.166      147090.143        2017.800          47.250  
G 3  22475616.989      -58486.228        -784.242          38.750  
G11  24546200.606      146013.113        2025.166          42.500  
G17  22167400.575     -166212.532       -2306.061          51.250  
G22  24045799.478       58777.760         837.261          49.000  
G28  21765104.075       26648.209         391.581          47.500  
> 2018  4 22 11 22  8.1688020  0  6                     
G 1  23886091.522      147291.860        2016.651          47.750  
G 3  22477433.086      -58564.628        -784.216          38.750  
G11  24548071.419      146215.570        2023.953          43.250  
G17  22169188.643     -166443.135       -2306.688          51.750  
G22  24047646.644       58861.387         835.749          49.000  
G28  21766942.705       26687.295         389.993          48.000  
