     3.02           OBSERVATION DATA    M: Mixed            RINEX VERSION / TYPE
GNSS-SDRLIB v1.1                        20180429 102425 UTC PGM / RUN BY / DATE 
                                                            MARKER NAME         
                                                            MARKER NUMBER       
                                                            MARKER TYPE         
                                                            OBSERVER / AGENCY   
GNSS-SDRLIB         GNSS-SDRLIB         1.1                 REC # / TYPE / VERS 
                                                            ANT # / TYPE        
        0.0000        0.0000        0.0000                  APPROX POSITION XYZ 
        0.0000        0.0000        0.0000                  ANTENNA: DELTA H/E/N
G    4 C1C L1C D1C S1C                                      SYS / # / OBS TYPES 
R    4 C1C L1C D1C S1C                                      SYS / # / OBS TYPES 
E    4 C1C L1C D1C S1C                                      SYS / # / OBS TYPES 
J    4 C1C L1C D1C S1C                                      SYS / # / OBS TYPES 
S    4 C1C L1C D1C S1C                                      SYS / # / OBS TYPES 
C    4 C1C L1C D1C S1C                                      SYS / # / OBS TYPES 
  1970     1     1     0     0    0.0000000     GPS         TIME OF FIRST OBS   
  1970     1     1     0     0    0.0000000     GPS         TIME OF LAST OBS    
G                                                           SYS / PHASE SHIFT   
R                                                           SYS / PHASE SHIFT   
E                                                           SYS / PHASE SHIFT   
J                                                           SYS / PHASE SHIFT   
S                                                           SYS / PHASE SHIFT   
C                                                           SYS / PHASE SHIFT   
  0                                                         GLONASS SLOT / FRQ #
 C1C    0.000 C1P    0.000 C2C    0.000 C2P    0.000        GLONASS COD/PHS/BIS 
                                                            END OF HEADER       
> 2018  4 22 11 21  6.0688020  0  1                     
G 3  20625066.345       -8483.926        -830.702          42.750  
> 2018  4 22 11 21  6.1688020  0  1                     
G 3  20626900.431       -8566.569        -830.740          42.250  
> 2018  4 22 11 21  6.0688020  0  2                     
G 1  22000412.504       22041.851        1995.281          48.750  
G 3  20625066.345       -8483.926        -830.702          42.250  
> 2018  4 22 11 21  6.1688020  0  2                     
G 1  22002300.520       22242.384        2004.115          48.750  
G 3  20626900.431       -8566.569        -830.740          42.250  
> 2018  4 22 11 21  6.0688020  0  3                     
G 1  22000412.504       22041.927        2003.760          48.750  
G 3  20625066.345       -8483.926        -830.702          42.250  
G11  22662290.695       16119.490        2028.059          44.250  
> 2018  4 22 11 21  6.1688020  0  3                     
G 1  22002300.520       22242.384        2004.115          49.000  
G 3  20626900.431       -8566.569        -830.740          42.250  
G11  22664179.248       16311.938        2012.638          44.500  
> 2018  4 22 11 21  6.2688020  0  3                     
G 1  22004170.099       22442.886        2005.394          49.000  
G 3  20628717.238       -8649.660        -830.681          42.500  
G11  22666050.190       16513.471        2014.136          44.250  
> 2018  4 22 11 21  6.3688020  0  3                     
G 1  22006040.092       22643.489        2006.167          48.750  
G 3  20630532.025       -8732.621        -830.224          42.750  
G11  22667920.201       16714.977        2015.275          44.250  
> 2018  4 22 11 21  6.4688020  0  3                     
G 1  22007910.578       22844.144        2007.187          49.000  
G 3  20632347.300       -8815.522        -828.050          42.500  
G11  22669789.861       16916.526        2016.041          44.250  
> 2018  4 22 11 21  6.5688020  0  3                     
G 1  22009780.342       23044.837        2006.751          49.000  
G 3  20634164.491       -8898.389        -828.532          42.750  
G11  22671659.108       17118.117        2015.726          44.500  
> 2018  4 22 11 21  6.6688020  0  3                     
G 1  22011650.091       23245.561        2008.395          49.000  
G 3  20635980.055       -8981.215        -828.329          42.000  
G11  22673530.055       17319.760        2017.111          44.250  
> 2018  4 22 11 21  6.7688020  0  3                     
G 1  22013520.353       23446.395        2008.763          49.000  
G 3  20637795.869       -9063.915        -825.841          42.750  
G11  22675400.305       17521.485        2017.883          44.250  
> 2018  4 22 11 21  6.8688020  0  3                     
G 1  22015390.087       23647.265        2008.304          49.000  
G 3  20639611.862       -9146.599        -826.239          42.500  
G11  22677270.101       17723.258        2017.239          44.500  
> 2018  4 22 11 21  6.9688020  0  3                     
G 1  22017259.321       23848.193        2009.523          49.000  
G 3  20641426.366       -9229.193        -826.036          42.500  
G11  22679140.402       17925.083        2018.379          44.000  
> 2018  4 22 11 21  7.0688020  0  3                     
G 1  22019129.021       24049.130        2009.524          48.750  
G 3  20643241.796       -9311.826        -825.863          42.250  
G11  22681011.157       18126.915        2018.304          44.000  
> 2018  4 22 11 21  7.1688020  0  3                     
G 1  22020998.618       24250.085        2009.053          49.000  
G 3  20645058.733       -9394.380        -825.680          42.000  
G11  22682880.837       18328.778        2018.901          44.000  
> 2018  4 22 11 21  7.2688020  0  3                     
G 1  22022868.775       24451.008        2009.037          49.000  
G 3  20646874.894       -9476.967        -825.926          42.000  
G11  22684750.817       18530.588        2017.586          44.000  
> 2018  4 22 11 21  7.3688020  0  3                     
G 1  22024738.316       24651.906        2008.550          49.000  
G 3  20648690.206       -9559.584        -826.831          42.500  
G11  22686621.230       18732.387        2017.030          44.000  
> 2018  4 22 11 21  7.4688020  0  3                     
G 1  22026608.364       24852.821        2010.571          49.250  
G 3  20650505.775       -9642.188        -825.746          42.250  
G11  22688491.413       18934.212        2019.256          44.000  
> 2018  4 22 11 21  7.5688020  0  3                     
G 1  22028478.468       25053.778        2009.632          49.000  
G 3  20652321.866       -9724.729        -825.481          42.750  
G11  22690360.393       19136.065        2018.489          44.250  
> 2018  4 22 11 21  7.6688020  0  3                     
G 1  22030348.568       25254.720        2009.372          49.000  
G 3  20654137.300       -9807.295        -826.517          42.750  
G11  22692230.496       19337.887        2018.971          44.250  
> 2018  4 22 11 21  7.7688020  0  3                     
G 1  22032219.256       25455.622        2009.710          48.750  
G 3  20655953.712       -9889.882        -825.588          42.750  
G11  22694100.205       19539.688        2018.045          44.250  
> 2018  4 22 11 21  7.8688020  0  3                     
G 1  22034089.133       25656.501        2008.201          49.000  
G 3  20657769.664       -9972.497        -827.273          42.750  
G11  22695970.030       19741.466        2016.897          44.000  
> 2018  4 22 11 21  7.9688020  0  3                     
G 1  22035959.568       25857.383        2009.100          49.000  
G 3  20659585.410      -10055.082        -825.258          43.000  
G11  22697841.626       19943.238        2017.658          44.000  
> 2018  4 22 11 21  8.0688020  0  3                     
G 1  22037829.156       26058.243        2008.461          49.000  
G 3  20661400.980      -10137.679        -826.468          42.500  
G11  22699711.521       20145.025        2017.550          44.250  
> 2018  4 22 11 21  8.1688020  0  3                     
G 1  22039698.621       26259.099        2008.824          49.000  
G 3  20663216.323      -10220.294        -825.805          42.750  
G11  22701581.204       20346.765        2017.085          44.000  
> 2018  4 22 11 21  8.2688020  0  3                     
G 1  22041567.882       26459.976        2009.470          49.000  
G 3  20665032.271      -10302.889        -824.542          42.750  
G11  22703451.746       20548.532        2018.392          44.250  
> 2018  4 22 11 21  8.3688020  0  3                     
G 1  22043437.515       26660.894        2009.399          49.000  
G 3  20666847.910      -10385.413        -824.932          43.000  
G11  22705320.695       20750.360        2018.586          44.250  
> 2018  4 22 11 21  8.4688020  0  3                     
G 1  22045306.928       26861.770        2009.029          49.000  
G 3  20668664.167      -10467.999        -825.931          42.500  
G11  22707190.263       20952.133        2017.978          44.250  
> 2018  4 22 11 21  8.5688020  0  3                     
G 1  22047177.026       27062.685        2009.676          49.250  
G 3  20670479.978      -10550.513        -824.777          42.500  
G11  22709060.454       21153.939        2018.249          44.000  
> 2018  4 22 11 21  8.6688020  0  3                     
G 1  22049046.101       27263.593        2009.192          49.000  
G 3  20672297.020      -10633.031        -825.181          42.250  
G11  22710931.184       21355.758        2018.533          44.500  
> 2018  4 22 11 21  8.7688020  0  3                     
G 1  22050915.455       27464.465        2008.640          49.000  
G 3  20674111.925      -10715.624        -826.568          42.000  
G11  22712802.395       21557.498        2017.077          44.500  
> 2018  4 22 11 21  8.8688020  0  3                     
G 1  22052785.576       27665.276        2008.688          49.000  
G 3  20675927.223      -10798.244        -825.145          41.750  
G11  22714671.787       21759.220        2017.671          44.500  
> 2018  4 22 11 21  8.9688020  0  3                     
G 1  22054655.427       27866.108        2008.190          49.000  
G 3  20677742.742      -10880.865        -826.967          42.250  
G11  22716541.914       21960.950        2017.081          44.250  
> 2018  4 22 11 21  9.0688020  0  3                     
G 1  22056525.569       28066.953        2008.119          49.000  
G 3  20679558.118      -10963.386        -824.842          42.750  
G11  22718411.330       22162.697        2016.871          44.250  
> 2018  4 22 11 21  9.1688020  0  3                     
G 1  22058395.807       28267.807        2008.203          48.750  
G 3  20681374.392      -11045.968        -825.834          43.000  
G11  22720280.470       22364.442        2016.724          44.250  
> 2018  4 22 11 21  9.2688020  0  3                     
G 1  22060265.304       28468.646        2008.109          49.000  
G 3  20683190.847      -11128.529        -826.356          42.500  
G11  22722150.859       22566.194        2017.194          44.250  
> 2018  4 22 11 21  9.3688020  0  3                     
G 1  22062134.736       28669.465        2008.764          49.000  
G 3  20685006.408      -11211.105        -825.724          42.000  
G11  22724020.611       22767.892        2016.716          44.500  
> 2018  4 22 11 21  9.4688020  0  3                     
G 1  22064004.314       28870.291        2008.221          49.250  
G 3  20686822.124      -11293.649        -825.498          41.750  
G11  22725890.923       22969.604        2017.518          44.250  
> 2018  4 22 11 21  9.5688020  0  3                     
G 1  22065874.091       29071.071        2008.140          49.000  
G 3  20688638.521      -11376.293        -825.998          41.000  
G11  22727760.787       23171.272        2017.046          44.000  
> 2018  4 22 11 21  9.6688020  0  3                     
G 1  22067743.932       29271.749        2006.781          49.000  
G 3  20690454.894      -11459.021        -827.720          41.750  
G11  22729631.221       23372.857        2015.236          44.250  
> 2018  4 22 11 21  9.7688020  0  3                     
G 1  22069613.039       29472.397        2006.009          49.000  
G 3  20692270.227      -11541.760        -827.985          43.000  
G11  22731500.968       23574.391        2014.712          44.500  
> 2018  4 22 11 21  9.8688020  0  3                     
G 1  22071482.915       29673.022        2006.487          49.000  
G 3  20694086.518      -11624.484        -828.145          43.000  
G11  22733370.682       23775.923        2015.332          44.750  
> 2018  4 22 11 21  9.9688020  0  3                     
G 1  22073352.946       29873.594        2005.898          48.500  
G 3  20695903.641      -11707.259        -828.339          42.500  
G11  22735241.562       23977.378        2014.644          44.250  
> 2018  4 22 11 21 10.0688020  0  3                     
G 1  22075222.921       30074.111        2004.858          49.000  
G 3  20697719.275      -11790.104        -829.174          42.250  
G11  22737111.834       24178.784        2014.020          44.250  
> 2018  4 22 11 21 10.1688020  0  3                     
G 1  22077093.042       30274.597        2004.731          49.000  
G 3  20699534.592      -11872.992        -829.411          42.000  
G11  22738981.101       24380.168        2014.057          44.000  
> 2018  4 22 11 21 10.2688020  0  3                     
G 1  22078962.665       30475.009        2003.808          49.000  
G 3  20701349.495      -11955.937        -829.092          42.250  
G11  22740851.037       24581.461        2012.831          44.000  
> 2018  4 22 11 21 10.3688020  0  3                     
G 1  22080832.674       30675.409        2004.346          49.250  
G 3  20703166.251      -12038.869        -828.279          43.250  
G11  22742720.822       24782.765        2013.710          44.250  
> 2018  4 22 11 21 10.4688020  0  3                     
G 1  22082702.192       30875.854        2004.098          49.000  
G 3  20704982.547      -12121.750        -828.281          43.500  
G11  22744590.301       24984.105        2014.195          44.250  
> 2018  4 22 11 21 10.5688020  0  3                     
G 1  22084571.751       31076.290        2004.967          49.250  
G 3  20706797.989      -12204.647        -829.198          42.500  
G11  22746459.117       25185.428        2013.227          44.250  
> 2018  4 22 11 21 10.6688020  0  3                     
G 1  22086441.544       31276.759        2005.253          49.250  
G 3  20708612.938      -12287.530        -827.110          41.000  
G11  22748329.757       25386.775        2014.667          44.250  
> 2018  4 22 11 21 10.7688020  0  3                     
G 1  22088311.155       31477.225        2004.849          49.000  
G 3  20710428.029      -12370.407        -829.380          42.500  
G11  22750199.623       25588.134        2013.300          44.000  
> 2018  4 22 11 21 10.8688020  0  3                     
G 1  22090181.052       31677.709        2005.177          49.250  
G 3  20712245.700      -12453.226        -828.197          43.500  
G11  22752069.543       25789.493        2013.398          44.500  
> 2018  4 22 11 21 10.9688020  0  3                     
G 1  22092050.927       31878.206        2005.022          49.250  
G 3  20714062.492      -12536.027        -828.093          42.750  
G11  22753940.321       25990.901        2013.937          44.000  
> 2018  4 22 11 21 11.0688020  0  3                     
G 1  22093921.007       32078.692        2005.058          49.250  
G 3  20715877.271      -12618.874        -828.548          42.500  
G11  22755808.882       26192.258        2013.356          44.250  
> 2018  4 22 11 21 11.1688020  0  3                     
G 1  22095790.649       32279.192        2005.409          49.250  
G 3  20717692.427      -12701.641        -826.405          42.000  
G11  22757677.537       26393.650        2013.602          43.750  
> 2018  4 22 11 21 11.2688020  0  3                     
G 1  22097659.731       32479.709        2005.447          49.000  
G 3  20719508.535      -12784.440        -827.357          42.500  
G11  22759547.729       26595.058        2014.868          43.750  
> 2018  4 22 11 21 11.3688020  0  3                     
G 1  22099529.271       32680.212        2005.211          49.000  
G 3  20721324.985      -12867.243        -828.586          42.500  
G11  22761416.484       26796.456        2014.141          44.000  
> 2018  4 22 11 21 11.4688020  0  3                     
G 1  22101399.248       32880.687        2004.706          49.000  
G 3  20723140.324      -12950.048        -828.878          42.250  
G11  22763286.237       26997.822        2013.407          44.000  
> 2018  4 22 11 21 11.5688020  0  3                     
G 1  22103269.697       33081.173        2004.881          48.750  
G 3  20724955.491      -13032.834        -828.352          42.750  
G11  22765156.644       27199.188        2014.204          43.750  
> 2018  4 22 11 21 11.6688020  0  3                     
G 1  22105138.813       33281.667        2005.032          49.000  
G 3  20726771.383      -13115.613        -828.029          42.750  
G11  22767025.949       27400.563        2014.309          44.000  
> 2018  4 22 11 21 11.7688020  0  3                     
G 1  22107008.051       33482.169        2005.296          49.000  
G 3  20728588.433      -13198.366        -827.797          42.500  
G11  22768896.198       27601.969        2014.464          44.000  
> 2018  4 22 11 21 11.8688020  0  3                     
G 1  22108877.763       33682.677        2005.724          49.250  
G 3  20730403.200      -13281.141        -826.931          42.500  
G11  22770766.065       27803.361        2014.714          44.000  
> 2018  4 22 11 21 11.9688020  0  3                     
G 1  22110747.526       33883.242        2006.162          49.000  
G 3  20732218.952      -13363.824        -826.244          43.000  
G11  22772635.816       28004.825        2015.221          44.250  
> 2018  4 22 11 21 12.0688020  0  3                     
G 1  22112617.552       34083.746        2010.894          49.000  
G 3  20734035.866      -13446.463        -825.936          42.500  
G11  22774506.541       28206.318        2016.502          44.000  
> 2018  4 22 11 21 12.1688020  0  3                     
G 1  22114487.485       34284.582        2014.517          49.250  
G 3  20735851.151      -13528.939        -825.357          42.500  
G11  22776376.749       28407.949        2016.683          44.000  
> 2018  4 22 11 21 12.2688020  0  3                     
G 1  22116357.744       34485.347        2007.794          49.000  
G 3  20737667.946      -13611.457        -825.422          42.500  
G11  22778247.277       28609.581        2015.680          44.000  
> 2018  4 22 11 21 12.3688020  0  3                     
G 1  22118228.358       34686.205        2009.249          49.000  
G 3  20739483.863      -13693.831        -822.996          42.500  
G11  22780117.531       28811.312        2017.035          44.000  
> 2018  4 22 11 21 12.4688020  0  3                     
G 1  22120097.461       34887.103        2008.637          49.000  
G 3  20741298.973      -13776.157        -822.071          42.500  
G11  22781987.283       29013.120        2018.862          44.000  
> 2018  4 22 11 21 12.5688020  0  3                     
G 1  22121966.776       35088.076        2009.695          49.000  
G 3  20743114.226      -13858.420        -822.250          42.500  
G11  22783856.662       29214.966        2018.951          44.000  
> 2018  4 22 11 21 12.6688020  0  3                     
G 1  22123836.505       35289.080        2010.731          49.000  
G 3  20744930.439      -13940.608        -821.645          42.250  
G11  22785726.030       29416.868        2019.504          44.000  
> 2018  4 22 11 21 12.7688020  0  3                     
G 1  22125706.093       35490.188        2011.218          49.000  
G 3  20746746.324      -14022.739        -820.950          42.250  
G11  22787596.149       29618.834        2019.886          43.750  
> 2018  4 22 11 21 12.8688020  0  3                     
G 1  22127576.576       35691.466        2013.608          48.750  
G 3  20748562.372      -14104.657        -817.654          42.500  
G11  22789465.073       29821.011        2022.862          43.750  
> 2018  4 22 11 21 12.9688020  0  3                     
G 1  22129446.869       35892.947        2015.036          49.000  
G 3  20750379.070      -14186.380        -816.425          42.250  
G11  22791336.096       30023.361        2024.319          43.750  
> 2018  4 22 11 21 13.0688020  0  3                     
G 1  22131316.845       36094.594        2017.180          49.250  
G 3  20752194.270      -14267.945        -814.720          42.250  
G11  22793206.570       30225.880        2025.698          44.000  
> 2018  4 22 11 21 13.1688020  0  3                     
G 1  22133186.577       36296.337        2017.734          49.250  
G 3  20754011.384      -14349.397        -814.097          42.250  
G11  22795076.603       30428.527        2026.484          44.000  
> 2018  4 22 11 21 13.2688020  0  3                     
G 1  22135056.832       36498.131        2018.492          49.250  
G 3  20755827.721      -14430.778        -813.128          43.000  
G11  22796946.985       30631.197        2026.587          43.750  
> 2018  4 22 11 21 13.3688020  0  3                     
G 1  22136926.388       36699.942        2017.687          49.250  
G 3  20757643.527      -14512.133        -814.165          42.500  
G11  22798817.203       30833.895        2025.786          44.000  
> 2018  4 22 11 21 13.4688020  0  3                     
G 1  22138795.946       36901.704        2016.988          49.000  
G 3  20759460.153      -14593.546        -814.906          42.500  
G11  22800686.121       31036.535        2025.048          44.000  
> 2018  4 22 11 21 13.5688020  0  3                     
G 1  22140666.469       37103.318        2016.338          49.000  
G 3  20761276.080      -14675.092        -815.201          42.250  
G11  22802556.693       31239.043        2025.386          44.000  
> 2018  4 22 11 21 13.6688020  0  3                     
G 1  22142536.481       37304.898        2015.595          49.000  
G 3  20763091.786      -14756.685        -816.136          42.000  
G11  22804427.090       31441.494        2024.214          44.250  
> 2018  4 22 11 21 13.7688020  0  3                     
G 1  22144405.972       37506.410        2015.604          48.750  
G 3  20764907.589      -14838.328        -816.906          42.750  
G11  22806296.714       31643.920        2024.696          44.000  
> 2018  4 22 11 21 13.8688020  0  3                     
G 1  22146276.030       37707.896        2014.973          49.250  
G 3  20766723.345      -14919.991        -816.439          43.000  
G11  22808167.058       31846.259        2023.835          43.750  
> 2018  4 22 11 21 13.9688020  0  3                     
G 1  22148146.057       37909.356        2014.515          49.000  
G 3  20768539.147      -15001.674        -817.445          42.250  
G11  22810037.564       32048.620        2024.110          44.250  
> 2018  4 22 11 21 14.0688020  0  3                     
G 1  22150015.498       38110.766        2013.949          49.250  
G 3  20770355.829      -15083.425        -817.242          43.000  
G11  22811907.922       32250.907        2023.000          44.000  
> 2018  4 22 11 21 14.1688020  0  3                     
G 1  22151885.339       38312.170        2014.262          49.000  
G 3  20772172.414      -15165.142        -817.760          42.500  
G11  22813777.049       32453.196        2023.506          43.750  
> 2018  4 22 11 21 14.2688020  0  3                     
G 1  22153755.201       38513.600        2014.404          49.250  
G 3  20773988.208      -15246.836        -816.399          42.250  
G11  22815646.602       32655.498        2022.717          43.750  
> 2018  4 22 11 21 14.3688020  0  3                     
G 1  22155624.909       38714.962        2014.026          49.000  
G 3  20775803.599      -15328.597        -817.764          42.250  
G11  22817516.897       32857.753        2022.629          43.750  
> 2018  4 22 11 21 14.4688020  0  3                     
G 1  22157494.803       38916.353        2013.594          49.250  
G 3  20777619.420      -15410.323        -817.878          42.250  
G11  22819386.317       33060.019        2022.522          44.000  
> 2018  4 22 11 21 14.5688020  0  3                     
G 1  22159364.344       39117.707        2013.592          49.000  
G 3  20779434.746      -15492.085        -817.515          42.250  
G11  22821256.191       33262.255        2022.250          44.000  
> 2018  4 22 11 21 14.6688020  0  3                     
G 1  22161234.727       39318.981        2012.970          49.250  
G 3  20781250.695      -15573.927        -818.749          42.750  
G11  22823126.495       33464.406        2022.838          43.750  
> 2018  4 22 11 21 14.7688020  0  3                     
G 1  22163104.243       39520.247        2012.385          49.000  
G 3  20783067.898      -15655.753        -819.314          42.250  
G11  22824998.456       33666.549        2020.925          43.750  
> 2018  4 22 11 21 14.8688020  0  3                     
G 1  22164974.764       39721.470        2011.458          49.000  
G 3  20784883.776      -15737.601        -819.405          42.250  
G11  22826868.442       33868.653        2020.213          44.000  
> 2018  4 22 11 21 14.9688020  0  3                     
G 1  22166845.146       39922.686        2012.643          49.250  
G 3  20786699.636      -15819.490        -818.557          42.250  
G11  22828738.957       34070.765        2022.760          44.000  
> 2018  4 22 11 21 15.0688020  0  3                     
G 1  22168714.841       40123.997        2012.797          49.000  
G 3  20788515.331      -15901.270        -818.114          42.250  
G11  22830608.743       34272.938        2021.826          43.750  
> 2018  4 22 11 21 15.1688020  0  3                     
G 1  22170584.529       40325.329        2013.157          49.250  
G 3  20790330.464      -15983.008        -817.830          42.250  
G11  22832478.840       34475.153        2022.099          44.250  
> 2018  4 22 11 21 15.2688020  0  3                     
G 1  22172455.155       40526.732        2014.753          49.250  
G 3  20792145.419      -16064.693        -816.227          42.250  
G11  22834349.407       34677.443        2022.406          44.000  
> 2018  4 22 11 21 15.3688020  0  3                     
G 1  22174325.026       40728.198        2015.144          49.250  
G 3  20793963.197      -16146.289        -815.462          42.250  
G11  22836218.760       34879.769        2023.776          43.750  
> 2018  4 22 11 21 15.4688020  0  3                     
G 1  22176194.787       40929.697        2015.064          49.250  
G 3  20795780.021      -16227.854        -815.602          42.250  
G11  22838089.368       35082.153        2023.502          43.500  
> 2018  4 22 11 21 15.5688020  0  3                     
G 1  22178065.106       41131.193        2015.417          48.750  
G 3  20797596.094      -16309.424        -815.753          42.250  
G11  22839959.938       35284.522        2022.910          44.250  
> 2018  4 22 11 21 15.6688020  0  3                     
G 1  22179935.236       41332.702        2015.149          49.000  
G 3  20799412.110      -16390.955        -815.759          42.250  
G11  22841830.662       35486.909        2023.174          44.000  
> 2018  4 22 11 21 15.7688020  0  3                     
G 1  22181805.284       41534.224        2015.610          49.250  
G 3  20801227.706      -16472.480        -814.866          42.500  
G11  22843701.032       35689.304        2024.745          44.000  
> 2018  4 22 11 21 15.8688020  0  3                     
G 1  22183675.152       41735.717        2015.842          49.000  
G 3  20803042.313      -16554.025        -815.495          42.250  
G11  22845570.641       35891.682        2024.074          44.000  
> 2018  4 22 11 21 15.9688020  0  3                     
G 1  22185544.832       41937.164        2014.500          49.000  
G 3  20804859.885      -16635.608        -815.924          42.000  
G11  22847440.492       36094.017        2023.406          44.000  
> 2018  4 22 11 21 16.0688020  0  3                     
G 1  22187415.176       42138.595        2014.204          49.250  
G 3  20806676.200      -16717.201        -815.705          42.000  
G11  22849310.005       36296.326        2023.486          44.000  
> 2018  4 22 11 21 16.1688020  0  3                     
G 1  22189284.978       42340.050        2014.948          48.750  
G 3  20808493.134      -16798.768        -815.789          42.250  
G11  22851179.964       36498.660        2023.681          44.250  
> 2018  4 22 11 21 16.2688020  0  3                     
G 1  22191154.264       42541.533        2014.289          49.000  
G 3  20810308.762      -16880.297        -815.462          42.250  
G11  22853049.953       36701.020        2023.174          44.250  
> 2018  4 22 11 21 16.3688020  0  3                     
G 1  22193023.745       42742.982        2014.671          49.000  
G 3  20812123.876      -16961.873        -815.043          42.250  
G11  22854919.920       36903.342        2023.631          44.250  
> 2018  4 22 11 21 16.4688020  0  3                     
G 1  22194893.496       42944.368        2013.817          49.000  
G 3  20813939.738      -17043.486        -816.376          42.250  
G11  22856790.082       37105.595        2021.298          44.250  
> 2018  4 22 11 21 16.5688020  0  3                     
G 1  22196763.891       43145.706        2013.311          49.000  
G 3  20815755.399      -17125.168        -817.328          42.000  
G11  22858660.814       37307.817        2021.307          44.250  
> 2018  4 22 11 21 16.6688020  0  3                     
G 1  22198632.751       43347.018        2013.200          49.000  
G 3  20817571.505      -17206.849        -817.431          42.250  
G11  22860531.484       37509.998        2022.541          44.250  
> 2018  4 22 11 21 16.7688020  0  3                     
G 1  22200502.803       43548.312        2013.911          49.000  
G 3  20819388.370      -17288.539        -817.002          42.500  
G11  22862401.251       37712.184        2022.583          43.750  
> 2018  4 22 11 21 16.8688020  0  3                     
G 1  22202372.672       43749.634        2012.906          49.000  
G 3  20821202.583      -17370.181        -818.551          41.750  
G11  22864271.289       37914.368        2021.859          44.000  
> 2018  4 22 11 21 16.9688020  0  3                     
G 1  22204242.769       43950.937        2013.028          49.250  
G 3  20823018.044      -17451.881        -816.629          42.000  
G11  22866140.527       38116.539        2021.677          44.250  
> 2018  4 22 11 21 17.0688020  0  3                     
G 1  22206112.946       44152.204        2013.232          49.250  
G 3  20824833.685      -17533.587        -817.576          42.250  
G11  22868010.856       38318.683        2021.296          44.250  
> 2018  4 22 11 21 17.1688020  0  3                     
G 1  22207982.941       44353.491        2013.987          49.250  
G 3  20826649.115      -17615.257        -816.822          42.000  
G11  22869881.149       38520.853        2022.611          44.000  
> 2018  4 22 11 21 17.2688020  0  3                     
G 1  22209852.835       44554.867        2014.649          49.250  
G 3  20828465.647      -17696.841        -815.844          42.000  
G11  22871750.895       38723.090        2021.807          44.000  
> 2018  4 22 11 21 17.3688020  0  3                     
G 1  22211722.329       44756.316        2015.265          49.000  
G 3  20830283.328      -17778.347        -814.211          42.000  
G11  22873620.841       38925.409        2023.938          44.000  
> 2018  4 22 11 21 17.4688020  0  3                     
G 1  22213592.252       44957.826        2015.456          49.250  
G 3  20832101.054      -17859.794        -814.566          42.000  
G11  22875491.953       39127.784        2024.434          44.250  
> 2018  4 22 11 21 17.5688020  0  3                     
G 1  22215462.042       45159.403        2016.629          49.250  
G 3  20833916.498      -17941.158        -813.305          42.000  
G11  22877361.822       39330.249        2024.785          44.000  
> 2018  4 22 11 21 17.6688020  0  3                     
G 1  22217331.574       45361.059        2017.182          49.000  
G 3  20835732.324      -18022.426        -811.779          42.000  
G11  22879231.787       39532.776        2025.577          44.000  
> 2018  4 22 11 21 17.7688020  0  3                     
G 1  22219201.152       45562.729        2017.143          49.250  
G 3  20837548.724      -18103.705        -812.890          42.000  
G11  22881102.655       39735.317        2026.329          44.000  
> 2018  4 22 11 21 17.8688020  0  3                     
G 1  22221071.553       45764.415        2017.233          49.000  
G 3  20839363.859      -18184.939        -811.474          42.000  
G11  22882972.981       39937.883        2026.294          44.000  
> 2018  4 22 11 21 17.9688020  0  3                     
G 1  22222941.605       45966.132        2017.510          49.000  
G 3  20841180.545      -18266.158        -812.231          42.000  
G11  22884843.063       40140.457        2025.854          44.250  
> 2018  4 22 11 21 18.0688020  0  3                     
G 1  22224812.119       46167.821        2016.516          49.000  
G 3  20842997.505      -18347.379        -812.951          42.000  
G11  22886711.409       40342.958        1975.951          44.000  
> 2018  4 22 11 21 18.4688020  0  3                     
G 1  22232290.699       46974.398        2014.926          49.000  
G 3  20850259.482      -18672.399        -812.695          42.000  
G11  22894190.448       41153.099        2023.962          44.250  
> 2018  4 22 11 21 18.5688020  0  3                     
G 1  22234160.186       47175.938        2014.973          49.000  
G 3  20852074.566      -18753.756        -814.258          41.250  
G11  22896062.075       41355.509        2023.803          43.750  
> 2018  4 22 11 21 18.6688020  0  3                     
G 1  22236030.853       47377.368        2013.505          48.750  
G 3  20853891.314      -18835.191        -815.322          42.000  
G11  22897932.641       41557.798        2022.794          43.750  
> 2018  4 22 11 21 18.7688020  0  3                     
G 1  22237900.351       47578.724        2014.186          49.000  
G 3  20855708.674      -18916.729        -815.338          42.250  
G11  22899802.547       41760.022        2021.795          43.750  
> 2018  4 22 11 21 18.8688020  0  3                     
G 1  22239770.463       47780.058        2013.420          49.000  
G 3  20857525.297      -18998.274        -816.679          42.250  
G11  22901672.168       41962.235        2022.193          43.750  
> 2018  4 22 11 21 18.9688020  0  3                     
G 1  22241640.251       47981.358        2012.634          49.000  
G 3  20859341.518      -19079.843        -815.277          41.250  
G11  22903542.093       42164.391        2021.887          43.500  
> 2018  4 22 11 21 19.0688020  0  3                     
G 1  22243510.269       48182.600        2012.472          48.750  
G 3  20861156.980      -19161.450        -815.780          41.750  
G11  22905411.827       42366.506        2019.884          43.500  
> 2018  4 22 11 21 19.1688020  0  3                     
G 1  22245380.331       48383.779        2011.340          49.000  
G 3  20862972.005      -19243.125        -817.515          41.250  
G11  22907280.713       42568.554        2020.999          43.750  
> 2018  4 22 11 21 19.2688020  0  3                     
G 1  22247249.998       48584.925        2011.439          49.000  
G 3  20864787.139      -19324.845        -817.623          42.250  
G11  22909151.049       42770.568        2020.468          43.750  
> 2018  4 22 11 21 19.3688020  0  3                     
G 1  22249119.615       48786.079        2012.443          48.750  
G 3  20866603.369      -19406.520        -817.329          42.250  
G11  22911020.894       42972.587        2020.396          43.750  
> 2018  4 22 11 21 19.4688020  0  3                     
G 1  22250989.426       48987.336        2012.991          49.000  
G 3  20868420.887      -19488.099        -815.726          42.000  
G11  22912891.485       43174.726        2022.008          43.750  
> 2018  4 22 11 21 19.5688020  0  3                     
G 1  22252859.144       49188.652        2013.830          49.000  
G 3  20870237.498      -19569.609        -816.279          41.000  
G11  22914760.858       43376.908        2022.126          44.000  
> 2018  4 22 11 21 19.6688020  0  3                     
G 1  22254728.895       49390.111        2014.788          48.750  
G 3  20872053.001      -19650.981        -813.545          41.250  
G11  22916631.300       43579.233        2024.259          43.750  
> 2018  4 22 11 21 19.7688020  0  3                     
G 1  22256598.218       49591.567        2014.860          48.750  
G 3  20873868.790      -19732.352        -813.350          42.000  
G11  22918500.750       43781.568        2023.183          43.750  
> 2018  4 22 11 21 19.8688020  0  3                     
G 1  22258468.753       49793.105        2015.196          48.750  
G 3  20875684.480      -19813.640        -813.000          41.750  
G11  22920372.238       43983.953        2024.030          44.250  
> 2018  4 22 11 21 19.9688020  0  3                     
G 1  22260338.784       49994.660        2015.721          49.000  
G 3  20877500.404      -19894.894        -813.029          41.750  
G11  22922241.875       44186.380        2025.034          43.750  
> 2018  4 22 11 21 20.0688020  0  3                     
G 1  22262208.716       50196.178        2014.951          49.000  
G 3  20879317.591      -19976.175        -813.605          42.000  
G11  22924112.697       44388.772        2023.649          44.000  
> 2018  4 22 11 21 20.1688020  0  3                     
G 1  22264078.346       50397.704        2014.957          49.000  
G 3  20881134.384      -20057.444        -814.342          41.500  
G11  22925982.820       44591.157        2024.521          44.000  
> 2018  4 22 11 21 20.2688020  0  3                     
G 1  22265948.948       50599.187        2014.902          48.250  
G 3  20882949.505      -20138.752        -812.895          42.000  
G11  22927853.308       44793.506        2024.089          43.750  
> 2018  4 22 11 21 20.3688020  0  3                     
G 1  22267818.518       50800.643        2014.715          49.000  
G 3  20884766.355      -20220.118        -814.313          41.750  
G11  22929722.647       44995.836        2022.945          43.500  
> 2018  4 22 11 21 20.4688020  0  3                     
G 1  22269687.399       51002.079        2014.266          49.000  
G 3  20886582.276      -20301.447        -813.162          41.750  
G11  22931592.811       45198.134        2023.325          44.250  
> 2018  4 22 11 21 20.5688020  0  3                     
G 1  22271557.823       51203.478        2013.794          48.750  
G 3  20888400.394      -20382.814        -814.370          41.750  
G11  22933463.046       45400.402        2022.531          44.000  
> 2018  4 22 11 21 20.6688020  0  3                     
G 1  22273427.572       51404.837        2013.550          48.750  
G 3  20890217.392      -20464.214        -814.415          41.750  
G11  22935333.312       45602.625        2022.253          44.000  
> 2018  4 22 11 21 20.7688020  0  3                     
G 1  22275297.306       51606.084        2012.014          48.750  
G 3  20892032.721      -20545.739        -816.301          41.500  
G11  22937202.665       45804.747        2022.540          43.750  
> 2018  4 22 11 21 20.8688020  0  3                     
G 1  22277167.607       51807.413        2013.278          49.000  
G 3  20893849.144      -20627.160        -814.050          42.000  
G11  22939072.455       46006.928        2022.483          43.750  
> 2018  4 22 11 21 20.9688020  0  3                     
G 1  22279037.934       52008.773        2014.139          48.750  
G 3  20895664.785      -20708.582        -814.840          42.000  
G11  22940942.557       46209.159        2022.561          43.750  
> 2018  4 22 11 21 21.0688020  0  3                     
G 1  22280907.726       52210.213        2015.302          49.000  
G 3  20897480.042      -20789.879        -812.309          41.500  
G11  22942812.909       46411.457        2023.866          43.500  
> 2018  4 22 11 21 21.1688020  0  3                     
G 1  22282777.157       52411.694        2015.469          48.750  
G 3  20899296.759      -20871.159        -813.000          41.750  
G11  22944683.926       46613.805        2024.054          43.750  
> 2018  4 22 11 21 21.2688020  0  3                     
G 1  22284647.810       52613.253        2016.271          48.500  
G 3  20901112.221      -20952.325        -811.243          41.500  
G11  22946553.101       46816.239        2024.847          43.500  
> 2018  4 22 11 21 21.3688020  0  3                     
G 1  22286517.834       52814.851        2016.154          48.750  
G 3  20902928.869      -21033.451        -811.009          41.500  
G11  22948423.786       47018.700        2025.007          43.750  
> 2018  4 22 11 21 21.4688020  0  3                     
G 1  22288387.613       53016.480        2016.386          48.750  
G 3  20904745.352      -21114.550        -811.189          41.000  
G11  22950292.825       47221.195        2025.770          43.750  
> 2018  4 22 11 21 21.5688020  0  3                     
G 1  22290257.637       53218.157        2017.020          48.750  
G 3  20906560.791      -21195.602        -811.402          41.750  
G11  22952162.930       47423.731        2025.980          43.750  
> 2018  4 22 11 21 21.6688020  0  3                     
G 1  22292127.261       53419.897        2017.176          48.750  
G 3  20908377.386      -21276.578        -809.784          41.750  
G11  22954034.439       47626.333        2026.494          43.750  
> 2018  4 22 11 21 21.7688020  0  3                     
G 1  22293997.361       53621.616        2017.493          48.500  
G 3  20910192.320      -21357.545        -809.207          41.500  
G11  22955903.963       47828.918        2025.524          43.750  
> 2018  4 22 11 21 21.8688020  0  3                     
G 1  22295867.935       53823.359        2017.737          48.750  
G 3  20912008.422      -21438.517        -808.933          41.500  
G11  22957774.059       48031.526        2026.448          43.500  
> 2018  4 22 11 21 21.9688020  0  3                     
G 1  22297737.459       54025.076        2017.414          48.750  
G 3  20913824.917      -21519.517        -810.267          41.750  
G11  22959643.770       48234.095        2026.443          43.750  
> 2018  4 22 11 21 22.0688020  0  3                     
G 1  22299607.564       54226.821        2018.290          49.000  
G 3  20915641.424      -21600.471        -810.656          42.000  
G11  22961514.321       48436.711        2026.736          43.750  
> 2018  4 22 11 21 22.1688020  0  3                     
G 1  22301477.990       54428.547        2017.248          49.000  
G 3  20917457.601      -21681.418        -810.307          41.750  
G11  22963384.610       48639.295        2026.193          43.500  
> 2018  4 22 11 21 22.2688020  0  3                     
G 1  22303348.089       54630.285        2017.497          48.750  
G 3  20919273.441      -21762.381        -810.156          41.250  
G11  22965254.918       48841.893        2026.629          43.500  
> 2018  4 22 11 21 22.3688020  0  3                     
G 1  22305218.341       54832.002        2017.677          48.750  
G 3  20921089.325      -21843.329        -809.656          41.250  
G11  22967124.844       49044.460        2026.635          43.250  
> 2018  4 22 11 21 22.4688020  0  3                     
G 1  22307087.802       55033.659        2016.585          48.750  
G 3  20922904.570      -21924.345        -810.496          40.750  
G11  22968994.055       49246.993        2025.289          43.250  
> 2018  4 22 11 21 22.5688020  0  3                     
G 1  22308957.913       55235.258        2016.142          48.500  
G 3  20924720.472      -22005.401        -810.614          41.000  
G11  22970865.265       49449.445        2025.034          43.500  
> 2018  4 22 11 21 22.6688020  0  3                     
G 1  22310827.431       55436.837        2016.146          48.750  
G 3  20926537.219      -22086.472        -809.937          41.250  
G11  22972734.597       49651.890        2025.712          43.500  
> 2018  4 22 11 21 22.7688020  0  3                     
G 1  22312697.798       55638.377        2015.241          48.750  
G 3  20928353.129      -22167.581        -811.871          41.250  
G11  22974605.059       49854.305        2024.299          43.750  
> 2018  4 22 11 21 22.8688020  0  3                     
G 1  22314567.643       55839.944        2016.151          48.500  
G 3  20930169.194      -22248.675        -811.250          41.500  
G11  22976474.740       50056.721        2024.884          43.500  
> 2018  4 22 11 21 22.9688020  0  3                     
G 1  22316437.956       56041.493        2016.459          48.750  
G 3  20931984.346      -22329.751        -809.472          41.500  
G11  22978345.046       50259.123        2025.935          43.250  
> 2018  4 22 11 21 23.0688020  0  3                     
G 1  22318307.680       56243.097        2016.639          48.750  
G 3  20933800.503      -22410.796        -808.744          41.250  
G11  22980214.952       50461.603        2026.223          43.250  
> 2018  4 22 11 21 23.1688020  0  3                     
G 1  22320177.911       56444.769        2016.536          48.500  
G 3  20935616.375      -22491.770        -810.485          41.750  
G11  22982087.037       50664.097        2024.792          43.750  
> 2018  4 22 11 21 23.2688020  0  3                     
G 1  22322047.331       56646.446        2017.139          48.500  
G 3  20937433.226      -22572.707        -809.259          42.000  
G11  22983957.706       50866.650        2026.130          43.750  
> 2018  4 22 11 21 23.3688020  0  3                     
G 1  22323916.904       56848.205        2017.591          48.750  
G 3  20939249.664      -22653.597        -808.714          41.500  
G11  22985827.699       51069.266        2026.678          43.500  
> 2018  4 22 11 21 23.4688020  0  3                     
G 1  22325787.423       57049.963        2017.619          48.750  
G 3  20941066.820      -22734.442        -808.670          41.500  
G11  22987698.108       51271.885        2026.810          43.500  
> 2018  4 22 11 21 23.5688020  0  3                     
G 1  22327657.086       57251.736        2018.616          49.000  
G 3  20942881.503      -22815.254        -807.519          40.750  
G11  22989567.421       51474.520        2026.635          43.500  
> 2018  4 22 11 21 23.6688020  0  3                     
G 1  22329527.006       57453.537        2018.028          48.750  
G 3  20944697.276      -22896.061        -808.450          40.750  
G11  22991437.507       51677.180        2026.336          43.000  
> 2018  4 22 11 21 23.7688020  0  3                     
G 1  22331396.804       57655.343        2017.610          48.750  
G 3  20946511.829      -22976.868        -808.254          40.750  
G11  22993308.186       51879.848        2026.381          43.250  
> 2018  4 22 11 21 23.8688020  0  3                     
G 1  22333266.993       57857.148        2018.495          48.750  
G 3  20948328.082      -23057.644        -808.194          40.250  
G11  22995177.437       52082.510        2027.662          43.250  
> 2018  4 22 11 21 23.9688020  0  3                     
G 1  22335137.287       58058.994        2018.774          48.750  
G 3  20950144.744      -23138.402        -809.121          40.750  
G11  22997046.461       52285.191        2026.665          43.250  
> 2018  4 22 11 21 24.0688020  0  3                     
G 1  22337007.100       58260.865        2019.206          48.750  
G 3  20951960.809      -23219.101        -806.198          40.750  
G11  22998915.427       52487.887        2008.894          43.000  
> 2018  4 22 11 21 24.1688020  0  3                     
G 1  22338877.747       58462.768        2019.102          48.750  
G 3  20953776.532      -23299.770        -807.010          40.750  
G11  23000785.691       52690.666        2019.980          43.000  
> 2018  4 22 11 21 24.2688020  0  3                     
G 1  22340747.036       58664.649        2019.326          48.750  
G 3  20955592.961      -23380.460        -806.714          41.250  
G11  23002656.213       52893.440        2028.090          43.000  
> 2018  4 22 11 21 24.3688020  0  3                     
G 1  22342616.713       58866.539        2019.240          48.750  
G 3  20957409.838      -23461.138        -807.175          41.250  
G11  23004526.360       53096.185        2028.607          43.250  
> 2018  4 22 11 21 24.4688020  0  3                     
G 1  22344487.426       59068.395        2018.362          48.750  
G 3  20959226.967      -23541.845        -807.931          41.250  
G11  23006396.419       53298.914        2028.156          43.250  
> 2018  4 22 11 21 24.5688020  0  3                     
G 1  22346357.434       59270.219        2018.227          49.000  
G 3  20961042.651      -23622.582        -807.799          41.500  
G11  23008266.397       53501.575        2026.746          43.250  
> 2018  4 22 11 21 24.6688020  0  3                     
G 1  22348226.999       59472.032        2018.417          49.000  
G 3  20962858.754      -23703.298        -807.842          41.250  
G11  23010138.102       53704.250        2026.218          43.250  
> 2018  4 22 11 21 24.7688020  0  3                     
G 1  22350096.590       59673.818        2017.774          49.000  
G 3  20964674.352      -23784.059        -807.211          41.500  
G11  23012007.448       53906.892        2026.662          43.500  
> 2018  4 22 11 21 24.8688020  0  3                     
G 1  22351966.243       59875.567        2017.148          48.750  
G 3  20966489.747      -23864.852        -808.090          41.250  
G11  23013877.484       54109.496        2026.186          43.500  
> 2018  4 22 11 21 24.9688020  0  3                     
G 1  22353836.420       60077.304        2017.457          49.000  
G 3  20968305.850      -23945.647        -807.588          41.250  
G11  23015747.182       54312.078        2025.803          43.500  
> 2018  4 22 11 21 25.0688020  0  3                     
G 1  22355706.793       60279.049        2017.970          49.000  
G 3  20970122.584      -24026.439        -807.506          40.750  
G11  23017616.502       54514.676        2026.169          43.000  
> 2018  4 22 11 21 25.1688020  0  3                     
G 1  22357576.785       60480.776        2017.011          48.750  
G 3  20971940.476      -24107.231        -808.764          41.000  
G11  23019487.452       54717.272        2025.557          43.250  
> 2018  4 22 11 21 25.2688020  0  3                     
G 1  22359446.627       60682.439        2015.650          48.750  
G 3  20973756.684      -24188.076        -808.950          41.250  
G11  23021357.228       54919.790        2025.201          43.000  
> 2018  4 22 11 21 25.3688020  0  3                     
G 1  22361317.091       60884.076        2016.462          49.000  
G 3  20975571.060      -24268.954        -808.225          40.500  
G11  23023227.005       55122.276        2025.933          43.250  
> 2018  4 22 11 21 25.4688020  0  3                     
G 1  22363187.819       61085.696        2016.928          49.000  
G 3  20977387.295      -24349.839        -809.590          40.500  
G11  23025097.439       55324.752        2025.565          43.000  
> 2018  4 22 11 21 25.5688020  0  3                     
G 1  22365057.672       61287.282        2015.988          49.000  
G 3  20979203.396      -24430.761        -810.026          40.500  
G11  23026967.994       55527.199        2023.677          43.000  
> 2018  4 22 11 21 25.6688020  0  3                     
G 1  22366927.308       61488.888        2016.177          49.000  
G 3  20981019.158      -24511.632        -807.887          40.750  
G11  23028838.511       55729.644        2024.524          43.500  
> 2018  4 22 11 21 25.7688020  0  3                     
G 1  22368797.683       61690.398        2014.695          49.000  
G 3  20982834.452      -24592.602        -809.723          40.250  
G11  23030708.414       55932.022        2022.947          43.000  
> 2018  4 22 11 21 25.8688020  0  3                     
G 1  22370666.697       61891.879        2015.043          49.000  
G 3  20984649.765      -24673.612        -810.559          39.750  
G11  23032578.240       56134.348        2024.187          42.750  
> 2018  4 22 11 21 25.9688020  0  3                     
G 1  22372536.327       62093.359        2014.151          49.000  
G 3  20986466.092      -24754.597        -809.119          40.000  
G11  23034447.845       56336.688        2022.930          43.250  
> 2018  4 22 11 21 26.0688020  0  3                     
G 1  22374406.174       62294.945        2016.932          48.750  
G 3  20988283.147      -24835.483        -807.432          40.250  
G11  23036318.756       56539.100        2024.918          42.750  
> 2018  4 22 11 21 26.1688020  0  3                     
G 1  22376275.626       62496.585        2016.549          49.000  
G 3  20990098.558      -24916.313        -808.443          40.000  
G11  23038189.311       56741.630        2026.084          43.000  
> 2018  4 22 11 21 26.2688020  0  3                     
G 1  22378145.505       62698.327        2018.209          49.000  
G 3  20991912.629      -24997.025        -806.604          39.750  
G11  23040059.918       56944.206        2026.191          42.750  
> 2018  4 22 11 21 26.3688020  0  3                     
G 1  22380015.623       62900.136        2018.472          49.000  
G 3  20993729.547      -25077.665        -805.970          40.250  
G11  23041928.462       57146.880        2026.533          43.250  
> 2018  4 22 11 21 26.4688020  0  3                     
G 1  22381885.563       63101.965        2018.473          49.000  
G 3  20995544.646      -25158.298        -806.406          40.500  
G11  23043798.004       57349.549        2026.135          42.750  
> 2018  4 22 11 21 26.5688020  0  3                     
G 1  22383755.836       63303.733        2016.999          49.000  
G 3  20997359.795      -25238.965        -806.757          39.750  
G11  23045668.524       57552.183        2026.035          43.250  
> 2018  4 22 11 21 26.6688020  0  3                     
G 1  22385625.844       63505.476        2017.429          49.000  
G 3  20999176.106      -25319.665        -806.914          40.250  
G11  23047539.150       57754.767        2026.088          43.000  
> 2018  4 22 11 21 26.7688020  0  3                     
G 1  22387495.825       63707.174        2016.489          48.750  
G 3  21000992.690      -25400.384        -808.258          40.000  
G11  23049408.706       57957.325        2024.856          43.250  
> 2018  4 22 11 21 26.8688020  0  3                     
G 1  22389365.391       63908.863        2016.530          49.000  
G 3  21002810.281      -25481.121        -808.409          40.000  
G11  23051278.685       58159.855        2025.095          43.000  
> 2018  4 22 11 21 26.9688020  0  3                     
G 1  22391235.357       64110.539        2016.673          49.000  
G 3  21004627.298      -25561.868        -807.360          40.000  
G11  23053148.763       58362.385        2025.104          43.000  
> 2018  4 22 11 21 27.0688020  0  3                     
G 1  22393104.970       64312.186        2017.260          48.750  
G 3  21006444.853      -25642.641        -807.761          39.500  
G11  23055018.978       58564.885        2025.016          43.000  
> 2018  4 22 11 21 27.1688020  0  3                     
G 1  22394975.496       64513.882        2017.326          48.750  
G 3  21008261.880      -25723.363        -806.983          40.250  
G11  23056889.246       58767.421        2026.429          43.500  
> 2018  4 22 11 21 27.2688020  0  3                     
G 1  22396845.470       64715.550        2016.806          49.000  
G 3  21010076.766      -25804.076        -807.212          40.500  
G11  23058760.110       58969.952        2025.294          43.500  
> 2018  4 22 11 21 27.3688020  0  3                     
G 1  22398716.013       64917.230        2016.780          49.000  
G 3  21011891.888      -25884.784        -807.448          40.000  
G11  23060630.007       59172.480        2026.141          43.250  
> 2018  4 22 11 21 27.4688020  0  3                     
G 1  22400586.012       65118.929        2017.386          48.750  
G 3  21013708.931      -25965.496        -806.382          40.250  
G11  23062500.628       59375.028        2025.919          43.000  
> 2018  4 22 11 21 27.5688020  0  3                     
G 1  22402455.720       65320.626        2016.476          49.000  
G 3  21015524.028      -26046.175        -806.745          39.750  
G11  23064371.731       59577.565        2025.088          43.250  
> 2018  4 22 11 21 27.6688020  0  3                     
G 1  22404325.640       65522.290        2016.597          48.750  
G 3  21017339.194      -26126.904        -807.212          40.250  
G11  23066240.993       59780.096        2025.538          43.250  
> 2018  4 22 11 21 27.7688020  0  3                     
G 1  22406194.817       65723.878        2016.008          48.500  
G 3  21019155.246      -26207.689        -808.975          40.250  
G11  23068111.064       59982.521        2023.854          43.000  
> 2018  4 22 11 21 27.8688020  0  3                     
G 1  22408064.594       65925.447        2015.605          48.500  
G 3  21020973.509      -26288.486        -808.717          40.000  
G11  23069981.393       60184.934        2024.731          43.250  
> 2018  4 22 11 21 27.9688020  0  3                     
G 1  22409934.300       66127.073        2016.534          48.750  
G 3  21022789.974      -26369.228        -808.491          40.000  
G11  23071850.310       60387.407        2025.689          43.250  
> 2018  4 22 11 21 28.0688020  0  3                     
G 1  22411804.074       66328.782        2017.578          48.750  
G 3  21024605.074      -26449.875        -806.127          39.750  
G11  23073720.593       60589.965        2024.990          43.250  
> 2018  4 22 11 21 28.1688020  0  3                     
G 1  22413674.251       66530.500        2016.786          48.750  
G 3  21026421.381      -26530.499        -805.972          40.250  
G11  23075591.331       60792.534        2025.348          43.000  
> 2018  4 22 11 21 28.2688020  0  3                     
G 1  22415544.387       66732.177        2017.159          48.750  
G 3  21028238.788      -26611.173        -807.531          40.250  
G11  23077461.621       60995.065        2025.784          43.000  
> 2018  4 22 11 21 28.3688020  0  3                     
G 1  22417414.684       66933.912        2017.954          48.750  
G 3  21030056.146      -26691.772        -805.061          40.000  
G11  23079333.879       61197.652        2026.343          43.000  
> 2018  4 22 11 21 28.4688020  0  3                     
G 1  22419284.146       67135.773        2018.791          48.500  
G 3  21031871.278      -26772.262        -804.362          40.250  
G11  23081202.901       61400.348        2026.969          43.000  
> 2018  4 22 11 21 28.5688020  0  3                     
G 1  22421154.014       67337.640        2019.068          48.750  
G 3  21033687.076      -26852.710        -802.672          40.000  
G11  23083072.315       61603.077        2029.920          42.750  
> 2018  4 22 11 21 28.6688020  0  3                     
G 1  22423023.876       67539.490        2018.258          49.000  
G 3  21035503.396      -26933.179        -803.918          40.500  
G11  23084942.356       61805.746        2026.842          42.750  
> 2018  4 22 11 21 28.7688020  0  3                     
G 1  22424893.991       67741.298        2017.782          48.750  
G 3  21037319.515      -27013.713        -804.901          40.250  
G11  23086812.898       62008.405        2026.963          43.250  
> 2018  4 22 11 21 28.8688020  0  3                     
G 1  22426763.842       67943.072        2017.359          48.750  
G 3  21039134.622      -27094.247        -805.717          40.000  
G11  23088683.825       62211.032        2026.797          43.000  
> 2018  4 22 11 21 28.9688020  0  3                     
G 1  22428634.173       68144.857        2018.100          48.750  
G 3  21040951.420      -27174.763        -805.080          40.250  
G11  23090553.434       62413.670        2027.035          43.250  
> 2018  4 22 11 21 29.0688020  0  3                     
G 1  22430503.973       68346.643        2018.000          48.750  
G 3  21042769.646      -27255.271        -804.108          39.250  
G11  23092422.853       62616.310        2027.469          43.000  
> 2018  4 22 11 21 29.1688020  0  3                     
G 1  22432373.709       68548.424        2017.900          48.750  
G 3  21044585.412      -27335.789        -805.880          39.750  
G11  23094292.863       62818.940        2027.798          42.750  
> 2018  4 22 11 21 29.2688020  0  3                     
G 1  22434244.548       68750.207        2018.508          48.750  
G 3  21046401.867      -27416.305        -804.761          39.500  
G11  23096162.699       63021.550        2025.472          43.000  
> 2018  4 22 11 21 29.3688020  0  3                     
G 1  22436114.821       68952.001        2018.590          49.000  
G 3  21048217.089      -27496.787        -804.033          39.750  
G11  23098032.143       63224.197        2026.649          43.000  
> 2018  4 22 11 21 29.4688020  0  3                     
G 1  22437984.880       69153.823        2019.270          48.750  
G 3  21050032.959      -27577.259        -804.310          39.750  
G11  23099903.223       63426.866        2027.310          42.750  
> 2018  4 22 11 21 29.5688020  0  3                     
G 1  22439855.592       69355.666        2019.307          48.750  
G 3  21051847.247      -27657.675        -804.837          39.250  
G11  23101773.879       63629.542        2027.062          42.750  
> 2018  4 22 11 21 29.6688020  0  3                     
G 1  22441725.138       69557.543        2019.186          48.500  
G 3  21053664.307      -27738.077        -805.009          39.750  
G11  23103642.923       63832.264        2027.004          42.750  
> 2018  4 22 11 21 29.7688020  0  3                     
G 1  22443595.072       69759.482        2019.954          48.750  
G 3  21055481.637      -27818.406        -804.041          40.000  
G11  23105512.141       64035.047        2027.815          43.000  
> 2018  4 22 11 21 29.8688020  0  3                     
G 1  22445465.409       69961.384        2018.853          48.750  
G 3  21057299.316      -27898.757        -804.372          39.500  
G11  23107382.507       64237.797        2027.476          42.500  
> 2018  4 22 11 21 29.9688020  0  3                     
G 1  22447336.142       70163.256        2018.511          48.750  
G 3  21059116.653      -27979.119        -804.352          40.250  
G11  23109252.779       64440.521        2026.475          42.500  
> 2018  4 22 11 21 30.0688020  0  3                     
G 1  22449205.624       70365.084        2018.444          48.750  
G 3  21060932.584      -28059.541        -804.045          40.500  
G11  23111123.045       64642.954        1997.638          42.750  
> 2018  4 22 11 21 30.1688020  0  3                     
G 1  22451075.270       70566.928        2018.427          48.750  
G 3  21062749.845      -28139.951        -803.196          40.500  
G11  23112993.126       64846.110        2068.188          42.500  
> 2018  4 22 11 21 30.2688020  0  3                     
G 1  22452944.336       70768.692        2017.453          48.750  
G 3  21064567.272      -28220.434        -805.756          40.750  
G11  23114863.514       65048.481        2025.751          42.750  
> 2018  4 22 11 21 30.3688020  0  3                     
G 1  22454814.245       70970.436        2017.437          49.000  
G 3  21066382.538      -28300.913        -805.256          39.750  
G11  23116732.788       65251.060        2025.765          42.750  
> 2018  4 22 11 21 30.4688020  0  3                     
G 1  22456684.277       71172.181        2017.388          48.750  
G 3  21068199.140      -28381.396        -804.589          40.000  
G11  23118603.951       65453.654        2025.413          42.750  
> 2018  4 22 11 21 30.5688020  0  3                     
G 1  22458553.938       71373.903        2017.272          48.750  
G 3  21070014.697      -28461.886        -804.553          39.500  
G11  23120473.585       65656.217        2026.071          42.500  
> 2018  4 22 11 21 30.6688020  0  3                     
G 1  22460424.443       71575.714        2018.838          48.750  
G 3  21071829.825      -28542.281        -803.495          39.500  
G11  23122342.745       65858.877        2027.318          43.000  
> 2018  4 22 11 21 30.7688020  0  3                     
G 1  22462294.980       71777.537        2019.172          48.500  
G 3  21073645.741      -28622.668        -804.351          40.000  
G11  23124212.805       66061.549        2027.183          42.500  
> 2018  4 22 11 21 30.8688020  0  3                     
G 1  22464165.243       71979.406        2018.879          49.000  
G 3  21075461.944      -28703.023        -802.427          39.500  
G11  23126083.112       66264.240        2027.205          42.750  
> 2018  4 22 11 21 30.9688020  0  3                     
G 1  22466034.659       72181.264        2018.022          49.000  
G 3  21077278.255      -28783.331        -804.089          39.500  
G11  23127952.180       66466.945        2026.492          42.500  
> 2018  4 22 11 21 31.0688020  0  3                     
G 1  22467904.661       72383.109        2018.398          49.000  
G 3  21079093.216      -28863.662        -803.453          39.000  
G11  23129822.085       66669.626        2027.688          42.500  
> 2018  4 22 11 21 31.1688020  0  3                     
G 1  22469774.402       72584.935        2017.916          48.750  
G 3  21080907.477      -28944.037        -804.301          38.750  
G11  23131692.666       66872.296        2026.395          42.750  
> 2018  4 22 11 21 31.2688020  0  3                     
G 1  22471644.735       72786.726        2017.962          48.750  
G 3  21082724.335      -29024.390        -803.229          39.250  
G11  23133563.548       67074.930        2026.151          42.250  
> 2018  4 22 11 21 31.3688020  0  3                     
G 1  22473515.458       72988.512        2017.823          48.750  
G 3  21084541.515      -29104.802        -805.315          39.250  
G11  23135435.504       67277.549        2025.335          42.500  
> 2018  4 22 11 21 31.4688020  0  3                     
G 1  22475385.211       73190.189        2016.767          49.000  
G 3  21086356.550      -29185.294        -805.329          40.000  
G11  23137305.716       67480.061        2025.323          42.500  
> 2018  4 22 11 21 31.5688020  0  3                     
G 1  22477254.999       73391.862        2017.245          49.000  
G 3  21088173.632      -29265.794        -804.111          40.000  
G11  23139174.899       67682.585        2024.684          42.500  
> 2018  4 22 11 21 31.6688020  0  3                     
G 1  22479125.318       73593.525        2016.556          48.750  
G 3  21089990.426      -29346.293        -805.387          40.000  
G11  23141045.631       67885.085        2025.484          42.500  
> 2018  4 22 11 21 31.7688020  0  3                     
G 1  22480995.473       73795.149        2016.402          49.000  
G 3  21091808.502      -29426.809        -804.980          40.250  
G11  23142915.129       68087.551        2025.068          43.000  
> 2018  4 22 11 21 31.8688020  0  3                     
G 1  22482864.853       73996.778        2016.347          48.750  
G 3  21093624.402      -29507.335        -805.738          40.250  
G11  23144785.223       68290.020        2024.347          43.000  
> 2018  4 22 11 21 31.9688020  0  3                     
G 1  22484735.007       74198.360        2015.893          48.750  
G 3  21095441.296      -29587.904        -805.632          40.000  
G11  23146654.770       68492.426        2023.580          42.750  
> 2018  4 22 11 21 32.0688020  0  3                     
G 1  22486605.253       74399.870        2015.186          49.000  
G 3  21097257.628      -29668.523        -804.505          40.000  
G11  23148524.501       68694.775        2023.188          42.750  
> 2018  4 22 11 21 32.1688020  0  3                     
G 1  22488474.665       74601.385        2015.373          48.750  
G 3  21099073.285      -29749.136        -806.756          39.000  
G11  23150394.683       68897.136        2023.298          42.750  
> 2018  4 22 11 21 32.2688020  0  3                     
G 1  22490344.395       74802.930        2016.057          48.750  
G 3  21100889.694      -29829.702        -805.028          39.250  
G11  23152265.508       69099.513        2024.152          42.500  
> 2018  4 22 11 21 32.3688020  0  3                     
G 1  22492213.959       75004.577        2016.807          48.750  
G 3  21102706.506      -29910.186        -804.417          39.250  
G11  23154136.944       69302.013        2025.484          42.500  
> 2018  4 22 11 21 32.4688020  0  3                     
G 1  22494084.035       75206.250        2017.884          48.750  
G 3  21104520.654      -29990.623        -803.267          38.750  
G11  23156008.269       69504.534        2024.919          42.500  
> 2018  4 22 11 21 32.5688020  0  3                     
G 1  22495953.951       75408.039        2018.748          48.750  
G 3  21106335.534      -30070.937        -802.326          38.750  
G11  23157878.757       69707.137        2026.561          42.750  
> 2018  4 22 11 21 32.6688020  0  3                     
G 1  22497824.716       75609.884        2019.303          48.750  
G 3  21108151.742      -30151.182        -801.440          39.000  
G11  23159748.473       69909.830        2027.753          43.000  
> 2018  4 22 11 21 32.7688020  0  3                     
G 1  22499694.744       75811.761        2018.207          49.000  
G 3  21109968.988      -30231.404        -801.196          39.250  
G11  23161618.259       70112.540        2026.245          43.250  
> 2018  4 22 11 21 32.8688020  0  3                     
G 1  22501564.378       76013.648        2019.653          49.000  
G 3  21111785.841      -30311.583        -800.372          39.250  
G11  23163486.345       70315.268        2027.939          43.000  
> 2018  4 22 11 21 32.9688020  0  3                     
G 1  22503434.098       76215.613        2019.757          48.750  
G 3  21113601.666      -30391.689        -800.025          39.000  
G11  23165356.834       70518.064        2027.827          42.750  
> 2018  4 22 11 21 33.0688020  0  3                     
G 1  22505304.781       76417.585        2019.985          49.000  
G 3  21115417.938      -30471.826        -801.595          39.750  
G11  23167227.976       70720.879        2027.891          42.750  
> 2018  4 22 11 21 33.1688020  0  3                     
G 1  22507174.361       76619.562        2020.389          48.750  
G 3  21117235.358      -30551.922        -801.064          39.000  
G11  23169098.457       70923.691        2027.778          43.000  
> 2018  4 22 11 21 33.2688020  0  3                     
G 1  22509044.203       76821.565        2019.958          48.750  
G 3  21119051.754      -30631.993        -800.390          39.750  
G11  23170969.806       71126.532        2028.992          43.000  
> 2018  4 22 11 21 33.3688020  0  3                     
G 1  22510914.980       77023.529        2019.515          49.000  
G 3  21120868.994      -30712.097        -801.646          40.250  
G11  23172838.638       71329.338        2027.714          43.250  
> 2018  4 22 11 21 33.4688020  0  3                     
G 1  22512784.995       77225.516        2020.577          49.000  
G 3  21122685.593      -30792.178        -800.110          40.000  
G11  23174708.019       71532.139        2028.151          43.000  
> 2018  4 22 11 21 33.5688020  0  3                     
G 1  22514654.771       77427.511        2019.217          48.750  
G 3  21124501.959      -30872.202        -801.243          40.000  
G11  23176578.774       71734.983        2026.335          42.500  
> 2018  4 22 11 21 33.6688020  0  3                     
G 1  22516524.628       77629.459        2018.812          48.750  
G 3  21126316.449      -30952.310        -801.235          39.250  
G11  23178449.527       71937.775        2027.496          43.000  
> 2018  4 22 11 21 33.7688020  0  3                     
G 1  22518395.486       77831.422        2019.960          49.000  
G 3  21128131.494      -31032.386        -799.874          39.000  
G11  23180318.966       72140.562        2026.837          43.000  
> 2018  4 22 11 21 33.8688020  0  3                     
G 1  22520265.786       78033.396        2019.776          49.000  
G 3  21129950.195      -31112.435        -799.283          38.500  
G11  23182189.183       72343.367        2028.046          43.250  
> 2018  4 22 11 21 33.9688020  0  3                     
G 1  22522135.290       78235.349        2020.505          48.750  
G 3  21131767.615      -31192.509        -799.772          39.000  
G11  23184059.393       72546.164        2029.052          43.250  
> 2018  4 22 11 21 34.0688020  0  3                     
G 1  22524005.295       78437.287        2019.513          49.000  
G 3  21133583.764      -31272.580        -799.801          39.250  
G11  23185931.426       72748.932        2027.266          43.500  
> 2018  4 22 11 21 34.1688020  0  3                     
G 1  22525875.180       78639.203        2019.096          48.750  
G 3  21135400.207      -31352.694        -801.316          39.250  
G11  23187801.833       72951.676        2027.375          43.250  
> 2018  4 22 11 21 34.2688020  0  3                     
G 1  22527744.814       78841.025        2018.045          48.750  
G 3  21137216.451      -31432.871        -802.408          40.000  
G11  23189672.080       73154.324        2025.805          43.250  
> 2018  4 22 11 21 34.3688020  0  3                     
G 1  22529615.014       79042.767        2017.249          48.750  
G 3  21139033.489      -31513.122        -803.224          39.750  
G11  23191541.980       73356.913        2025.549          43.250  
> 2018  4 22 11 21 34.4688020  0  3                     
G 1  22531484.884       79244.503        2017.274          48.500  
G 3  21140852.510      -31593.407        -803.933          40.000  
G11  23193411.707       73559.475        2025.761          43.250  
> 2018  4 22 11 21 34.5688020  0  3                     
G 1  22533354.647       79446.227        2017.629          48.750  
G 3  21142669.644      -31673.656        -802.190          39.500  
G11  23195281.277       73762.049        2025.542          43.000  
> 2018  4 22 11 21 34.6688020  0  3                     
G 1  22535224.258       79647.959        2016.656          49.000  
G 3  21144485.498      -31753.947        -802.202          39.750  
G11  23197151.426       73964.598        2025.155          43.250  
> 2018  4 22 11 21 34.7688020  0  3                     
G 1  22537094.365       79849.660        2017.230          48.750  
G 3  21146300.525      -31834.218        -801.683          39.750  
G11  23199021.764       74167.128        2025.107          43.250  
> 2018  4 22 11 21 34.8688020  0  3                     
G 1  22538964.512       80051.414        2017.715          48.750  
G 3  21148115.837      -31914.449        -801.957          39.750  
G11  23200893.116       74369.706        2026.069          43.000  
> 2018  4 22 11 21 34.9688020  0  3                     
G 1  22540834.613       80253.199        2017.861          48.750  
G 3  21149930.759      -31994.622        -801.513          39.500  
G11  23202762.394       74572.351        2026.810          43.000  
> 2018  4 22 11 21 35.0688020  0  3                     
G 1  22542704.759       80455.060        2019.008          49.000  
G 3  21151747.376      -32074.718        -800.051          39.750  
G11  23204632.608       74775.028        2028.067          43.250  
> 2018  4 22 11 21 35.1688020  0  3                     
G 1  22544574.600       80656.986        2019.701          48.500  
G 3  21153561.894      -32154.769        -800.690          38.750  
G11  23206503.379       74977.775        2027.457          43.250  
> 2018  4 22 11 21 35.2688020  0  3                     
G 1  22546444.005       80858.942        2019.839          48.750  
G 3  21155377.560      -32234.780        -800.423          39.000  
G11  23208373.741       75180.570        2028.395          43.500  
> 2018  4 22 11 21 35.3688020  0  3                     
G 1  22548313.750       81060.962        2021.135          48.750  
G 3  21157194.557      -32314.713        -798.706          39.000  
G11  23210244.279       75383.416        2027.991          43.500  
> 2018  4 22 11 21 35.4688020  0  3                     
G 1  22550183.956       81263.037        2020.580          48.750  
G 3  21159011.732      -32394.587        -798.632          39.250  
G11  23212113.934       75586.324        2029.000          43.500  
> 2018  4 22 11 21 35.5688020  0  3                     
G 1  22552053.597       81465.037        2020.417          48.750  
G 3  21160827.918      -32474.521        -799.811          39.250  
G11  23213984.217       75789.154        2028.807          43.750  
> 2018  4 22 11 21 35.6688020  0  3                     
G 1  22553923.155       81667.047        2020.550          48.750  
G 3  21162645.301      -32554.449        -799.919          39.000  
G11  23215854.878       75991.992        2029.068          43.500  
> 2018  4 22 11 21 35.7688020  0  3                     
G 1  22555793.391       81869.054        2020.609          48.500  
G 3  21164462.416      -32634.368        -799.068          39.000  
G11  23217725.758       76194.839        2029.219          43.750  
> 2018  4 22 11 21 35.8688020  0  3                     
G 1  22557663.695       82071.032        2020.847          48.750  
G 3  21166278.893      -32714.295        -798.143          39.000  
G11  23219596.634       76397.630        2027.200          43.750  
> 2018  4 22 11 21 35.9688020  0  3                     
G 1  22559534.177       82273.039        2019.960          48.500  
G 3  21168094.221      -32794.207        -798.351          39.250  
G11  23221466.542       76600.478        2028.196          43.750  
> 2018  4 22 11 21 36.0688020  0  7                     
G 1  23175532.265       82470.919        2020.799          48.750  
G 3  21784038.102      -32872.459        -798.805          39.250  
G11  23837463.938       76799.173        2029.733          43.750  
G17  21485038.637      -82781.197       -2305.329          51.000  
G19  21907423.400     -110042.825       -3159.643          42.750  
G22  23344330.327       27636.296         851.554          47.750  
G28  21066355.505       11905.426         380.802          47.750  
> 2018  4 22 11 21 36.4688020  0  7                     
G 1  23183011.723       83279.191        2020.921          48.750  
G 3  21791302.708      -33191.777        -797.648          38.750  
G11  23844944.653       77610.764        2029.590          43.750  
G17  21492189.149      -83703.159       -2304.518          50.750  
G19  21914509.792     -111306.519       -3159.260          43.000  
G22  23351721.581       27967.469         829.101          47.500  
G28  21073708.432       12057.887         381.638          47.500  
> 2018  4 22 11 21 36.5688020  0  7                     
G 1  23184881.717       83481.301        2021.481          48.750  
G 3  21793117.847      -33271.559        -797.382          39.750  
G11  23846814.936       77813.704        2029.451          43.750  
G17  21493976.897      -83933.605       -2304.221          51.000  
G19  21916281.294     -111622.411       -3158.523          43.000  
G22  23353568.125       28050.311         827.985          47.500  
G28  21075549.623       12096.054         381.600          47.500  
> 2018  4 22 11 21 36.6688020  0  7                     
G 1  23186751.697       83683.433        2021.663          48.750  
G 3  21794934.047      -33351.314        -798.327          39.500  
G11  23848683.574       78016.657        2030.241          43.750  
G17  21495764.777      -84164.036       -2304.621          51.000  
G19  21918053.838     -111938.270       -3158.207          42.750  
G22  23355415.557       28133.192         828.306          47.500  
G28  21077386.404       12134.248         381.328          47.500  
> 2018  4 22 11 21 36.7688020  0  7                     
G 1  23188621.793       83885.577        2022.225          48.750  
G 3  21796751.554      -33431.036        -795.768          38.750  
G11  23850553.336       78219.624        2030.085          43.500  
G17  21497552.814      -84394.445       -2303.285          50.750  
G19  21919824.819     -112254.117       -3158.460          43.000  
G22  23357263.271       28216.081         830.355          47.500  
G28  21079226.082       12172.453         383.592          47.750  
> 2018  4 22 11 21 36.8688020  0  7                     
G 1  23190493.276       84087.707        2020.394          48.750  
G 3  21798568.927      -33510.760        -796.823          39.250  
G11  23852422.715       78422.599        2029.112          43.250  
G17  21499340.577      -84624.865       -2304.258          51.000  
G19  21921596.496     -112569.983       -3159.499          43.000  
G22  23359110.023       28298.978         827.611          47.500  
G28  21081064.959       12210.658         382.034          47.750  
> 2018  4 22 11 21 36.9688020  0  7                     
G 1  23192363.381       84289.836        2021.664          48.750  
G 3  21800386.481      -33590.491        -796.351          39.250  
G11  23854293.454       78625.537        2029.202          43.500  
G17  21501128.150      -84855.284       -2304.211          50.750  
G19  21923368.509     -112885.830       -3158.413          42.500  
G22  23360957.352       28381.868         829.519          47.250  
G28  21082902.307       12248.855         382.346          47.500  
> 2018  4 22 11 21 37.0688020  0  7                     
G 1  23194233.051       84491.977        2021.764          48.750  
G 3  21802201.601      -33670.191        -797.054          39.000  
G11  23856162.760       78828.498        2029.210          43.500  
G17  21502915.756      -85085.708       -2304.236          50.750  
G19  21925139.035     -113201.677       -3158.566          43.000  
G22  23362804.438       28464.761         829.864          47.500  
G28  21084742.766       12287.058         381.740          47.750  
> 2018  4 22 11 21 37.1688020  0  7                     
G 1  23196103.003       84694.111        2020.992          48.750  
G 3  21804016.357      -33749.951        -796.114          39.250  
G11  23858033.121       79031.452        2029.557          43.750  
G17  21504702.837      -85316.135       -2304.604          50.750  
G19  21926911.645     -113517.559       -3159.282          43.250  
G22  23364651.205       28547.647         828.185          47.500  
G28  21086581.447       12325.276         382.189          47.500  
> 2018  4 22 11 21 37.2688020  0  7                     
G 1  23197972.615       84896.164        2020.182          48.750  
G 3  21805832.841      -33829.729        -799.046          39.250  
G11  23859903.594       79234.354        2028.844          43.500  
G17  21506490.457      -85546.627       -2305.722          50.750  
G19  21928682.331     -113833.469       -3159.859          43.000  
G22  23366498.472       28630.487         827.632          47.500  
G28  21088421.111       12363.418         380.493          47.750  
> 2018  4 22 11 21 37.3688020  0  7                     
G 1  23199843.058       85098.189        2020.020          48.500  
G 3  21807647.878      -33909.535        -798.628          39.000  
G11  23861772.712       79437.187        2027.847          43.750  
G17  21508278.327      -85777.148       -2305.518          50.750  
G19  21930454.606     -114149.425       -3161.155          42.750  
G22  23368346.607       28713.275         827.572          47.250  
G28  21090259.631       12401.532         380.864          47.500  
> 2018  4 22 11 21 37.4688020  0  7                     
G 1  23201712.833       85300.169        2020.059          48.750  
G 3  21809464.371      -33989.375        -798.057          38.750  
G11  23863643.638       79639.997        2027.926          43.750  
G17  21510065.959      -86007.717       -2305.862          51.000  
G19  21932224.279     -114465.432       -3159.435          42.500  
G22  23370193.625       28796.041         827.515          47.500  
G28  21092097.813       12439.609         380.400          47.750  
> 2018  4 22 11 21 37.5688020  0  7                     
G 1  23203582.696       85502.148        2020.291          48.500  
G 3  21811281.466      -34069.238        -798.004          39.000  
G11  23865514.521       79842.801        2028.883          43.750  
G17  21511854.037      -86238.290       -2305.687          51.000  
G19  21933996.516     -114781.448       -3159.853          43.000  
G22  23372041.279       28878.792         827.561          47.750  
G28  21093938.108       12477.683         381.131          47.750  
> 2018  4 22 11 21 37.6688020  0  7                     
G 1  23205453.134       85704.115        2020.308          48.750  
G 3  21813098.777      -34149.080        -797.574          38.750  
G11  23867385.663       80045.618        2028.949          43.750  
G17  21513641.792      -86468.867       -2305.114          50.750  
G19  21935767.875     -115097.447       -3159.807          42.750  
G22  23373888.979       28961.553         828.262          47.500  
G28  21095774.331       12515.752         380.930          47.750  
> 2018  4 22 11 21 37.7688020  0  7                     
G 1  23207323.061       85906.164        2020.576          48.750  
G 3  21814913.218      -34228.854        -797.470          39.250  
G11  23869255.176       80248.479        2027.663          43.750  
G17  21515429.088      -86699.358       -2305.181          50.750  
G19  21937538.835     -115413.387       -3159.743          43.000  
G22  23375737.550       29044.391         828.215          47.750  
G28  21097613.614       12553.916         381.029          47.500  
> 2018  4 22 11 21 37.8688020  0  7                     
G 1  23209193.709       86108.278        2021.762          48.750  
G 3  21816729.331      -34308.558        -798.715          38.750  
G11  23871125.514       80451.419        2030.423          43.750  
G17  21517217.231      -86929.799       -2303.768          50.750  
G19  21939310.267     -115729.250       -3159.290          43.000  
G22  23377583.920       29127.297         829.202          47.500  
G28  21099453.292       12592.140         383.136          47.500  
> 2018  4 22 11 21 37.9688020  0  7                     
G 1  23211062.726       86310.448        2021.558          48.500  
G 3  21818547.180      -34388.182        -797.197          38.000  
G11  23872996.107       80654.406        2030.286          43.750  
G17  21519004.515      -87160.187       -2303.816          50.500  
G19  21941081.882     -116045.064       -3157.741          43.000  
G22  23379430.883       29210.262         830.335          47.500  
G28  21101290.503       12630.418         382.606          47.750  
> 2018  4 22 11 21 38.0688020  0  7                     
G 1  23212932.474       86512.641        2021.593          48.500  
G 3  21820365.049      -34467.798        -795.664          38.750  
G11  23874866.874       80857.415        2029.965          43.750  
G17  21520793.019      -87390.534       -2303.473          50.750  
G19  21942854.252     -116360.844       -3157.809          42.500  
G22  23381278.126       29293.246         829.359          47.750  
G28  21103130.524       12668.727         383.177          47.500  
> 2018  4 22 11 21 38.1688020  0  7                     
G 1  23214802.778       86714.827        2022.351          48.500  
G 3  21822179.941      -34547.411        -797.035          38.500  
G11  23876737.561       81060.432        2030.790          44.000  
G17  21522580.991      -87620.896       -2303.766          51.000  
G19  21944625.047     -116676.655       -3158.741          43.000  
G22  23383124.978       29376.230         830.074          47.500  
G28  21104968.160       12707.039         383.445          47.500  
> 2018  4 22 11 21 38.2688020  0  7                     
G 1  23216672.978       86917.027        2021.876          48.750  
G 3  21823996.525      -34626.997        -795.632          38.750  
G11  23878607.323       81263.444        2030.308          43.750  
G17  21524368.576      -87851.235       -2303.778          50.500  
G19  21946397.201     -116992.419       -3158.110          42.750  
G22  23384972.484       29459.248         830.115          47.500  
G28  21106806.825       12745.364         382.674          47.500  
> 2018  4 22 11 21 38.3688020  0  7                     
G 1  23218543.487       87119.175        2020.913          48.500  
G 3  21825813.238      -34706.622        -796.082          38.750  
G11  23880476.892       81466.439        2029.902          44.000  
G17  21526156.257      -88081.627       -2304.223          50.750  
G19  21948167.263     -117308.239       -3158.582          43.000  
G22  23386820.441       29542.210         829.569          47.500  
G28  21108647.596       12783.655         383.328          47.500  
> 2018  4 22 11 21 38.4688020  0  7                     
G 1  23220413.214       87321.329        2021.442          48.750  
G 3  21827628.903      -34786.237        -794.817          38.750  
G11  23882347.020       81669.411        2029.749          43.750  
G17  21527943.472      -88312.019       -2304.497          50.750  
G19  21949940.859     -117624.055       -3159.068          42.750  
G22  23388668.839       29625.184         829.686          47.750  
G28  21110485.125       12821.941         382.604          47.750  
> 2018  4 22 11 21 38.5688020  0  7                     
G 1  23222284.044       87523.441        2021.127          48.750  
G 3  21829444.324      -34865.901        -796.867          38.750  
G11  23884216.410       81872.328        2028.955          44.000  
G17  21529730.896      -88542.454       -2304.446          50.750  
G19  21951711.697     -117939.923       -3158.769          43.000  
G22  23390515.426       29708.108         829.375          47.750  
G28  21112326.396       12860.185         381.975          47.750  
> 2018  4 22 11 21 38.6688020  0  7                     
G 1  23224154.259       87725.559        2021.018          48.500  
G 3  21831261.221      -34945.553        -796.431          38.750  
G11  23886087.860       82075.277        2029.720          44.000  
G17  21531518.192      -88772.876       -2304.519          50.750  
G19  21953482.951     -118255.774       -3157.968          42.750  
G22  23392363.195       29791.046         830.021          47.750  
G28  21114164.233       12898.454         383.172          47.500  
> 2018  4 22 11 21 38.7688020  0  7                     
G 1  23226024.689       87927.635        2020.589          48.500  
G 3  21833077.799      -35025.231        -797.050          38.750  
G11  23887957.728       82278.181        2029.765          43.500  
G17  21533305.946      -89003.329       -2304.355          50.750  
G19  21955253.967     -118571.660       -3159.181          43.000  
G22  23394210.509       29873.949         829.421          47.750  
G28  21116002.959       12936.683         382.283          47.500  
> 2018  4 22 11 21 38.8688020  0  7                     
G 1  23227894.201       88129.736        2021.625          48.500  
G 3  21834893.808      -35104.873        -795.383          38.250  
G11  23889828.988       82481.095        2029.199          43.750  
G17  21535094.228      -89233.780       -2304.523          50.750  
G19  21957025.629     -118887.529       -3158.687          42.500  
G22  23396057.442       29956.877         829.286          47.500  
G28  21117842.405       12974.921         382.795          47.750  
> 2018  4 22 11 21 38.9688020  0  7                     
G 1  23229763.784       88331.818        2021.605          48.750  
G 3  21836711.104      -35184.556        -795.695          38.500  
G11  23891698.459       82684.000        2029.835          44.000  
G17  21536881.430      -89464.233       -2303.928          50.750  
G19  21958798.858     -119203.431       -3158.932          43.000  
G22  23397904.919       30039.784         829.232          47.750  
G28  21119680.288       13013.170         383.152          47.750  
> 2018  4 22 11 21 39.0688020  0  7                     
G 1  23231633.875       88533.961        2021.517          48.250  
G 3  21838527.650      -35264.157        -796.012          38.750  
G11  23893568.656       82886.969        2030.018          43.750  
G17  21538669.936      -89694.626       -2303.727          50.750  
G19  21960571.702     -119519.245       -3158.379          42.750  
G22  23399753.495       30122.766         829.660          47.750  
G28  21121520.100       13051.469         383.120          47.500  
> 2018  4 22 11 21 39.1688020  0  7                     
G 1  23233503.734       88736.140        2022.278          48.750  
G 3  21840344.602      -35343.718        -795.096          38.500  
G11  23895438.989       83089.949        2029.610          43.750  
G17  21540457.631      -89924.981       -2302.987          50.750  
G19  21962343.883     -119835.048       -3157.373          43.000  
G22  23401601.301       30205.789         830.247          47.750  
G28  21123357.461       13089.808         383.850          47.750  
> 2018  4 22 11 21 39.2688020  0  7                     
G 1  23235373.559       88938.390        2022.401          48.500  
G 3  21842160.242      -35423.190        -795.611          38.250  
G11  23897308.558       83293.048        2030.082          43.750  
G17  21542245.621      -90155.261       -2302.711          50.750  
G19  21964113.240     -120150.745       -3156.628          43.000  
G22  23403448.554       30288.893         831.308          47.750  
G28  21125196.607       13128.238         384.048          47.500  
> 2018  4 22 11 21 39.3688020  0  7                     
G 1  23237243.461       89140.737        2024.594          48.500  
G 3  21843977.514      -35502.554        -790.048          38.000  
G11  23899178.615       83496.202        2033.176          44.000  
G17  21544033.715      -90385.459       -2300.792          50.750  
G19  21965885.218     -120466.379       -3154.238          43.250  
G22  23405295.519       30372.081         832.902          47.750  
G28  21127036.353       13166.750         385.908          47.500  
> 2018  4 22 11 21 39.4688020  0  7                     
G 1  23239114.052       89343.092        2023.638          48.500  
G 3  21845791.521      -35581.915        -793.645          38.500  
G11  23901049.256       83699.383        2031.303          44.000  
G17  21545821.592      -90615.637       -2302.301          50.750  
G19  21967656.356     -120781.995       -3156.867          43.250  
G22  23407142.068       30455.289         832.220          47.750  
G28  21128873.469       13205.295         385.271          47.750  
> 2018  4 22 11 21 39.5688020  0  7                     
G 1  23240984.064       89545.417        2023.002          48.500  
G 3  21847606.583      -35661.324        -794.843          38.750  
G11  23902919.061       83902.521        2031.643          44.000  
G17  21547609.231      -90845.854       -2302.894          50.750  
G19  21969428.354     -121097.630       -3156.706          43.250  
G22  23408989.636       30538.465         831.705          47.750  
G28  21130713.653       13243.791         384.650          47.750  
> 2018  4 22 11 21 39.6688020  0  7                     
G 1  23242854.611       89747.719        2024.071          48.750  
G 3  21849422.917      -35740.739        -794.253          38.750  
G11  23904789.935       84105.642        2032.076          44.000  
G17  21549396.422      -91076.095       -2302.481          50.750  
G19  21971199.593     -121413.308       -3157.367          42.750  
G22  23410836.699       30621.611         830.930          47.750  
G28  21132552.172       13282.264         384.612          47.750  
> 2018  4 22 11 21 39.7688020  0  7                     
G 1  23244723.676       89949.985        2022.985          48.500  
G 3  21851239.607      -35820.174        -794.182          38.000  
G11  23906660.377       84308.734        2030.754          44.250  
G17  21551184.005      -91306.356       -2302.790          50.750  
G19  21972972.784     -121729.004       -3157.738          43.000  
G22  23412684.390       30704.745         830.957          47.500  
G28  21134390.996       13320.727         384.063          47.500  
> 2018  4 22 11 21 39.8688020  0  7                     
G 1  23246593.657       90152.270        2023.136          48.750  
G 3  21853058.167      -35899.564        -793.808          38.750  
G11  23908531.005       84511.831        2030.857          44.000  
G17  21552971.736      -91536.595       -2302.557          50.500  
G19  21974743.435     -122044.678       -3157.440          43.000  
G22  23414532.530       30787.900         831.304          47.750  
G28  21136231.423       13359.208         384.794          47.750  
> 2018  4 22 11 21 39.9688020  0  7                     
G 1  23248463.725       90354.512        2022.300          48.500  
G 3  21854874.679      -35979.037        -795.194          38.000  
G11  23910400.983       84714.893        2031.184          43.750  
G17  21554759.329      -91766.883       -2303.114          50.750  
G19  21976513.730     -122360.387       -3157.177          42.750  
G22  23416381.122       30871.026         831.228          47.500  
G28  21138068.492       13397.661         384.267          47.750  
> 2018  4 22 11 21 40.0688020  0  7                     
G 1  23250333.636       90556.767        2021.920          48.750  
G 3  21856690.560      -36058.463        -793.665          38.750  
G11  23912271.125       84917.970        2029.788          44.000  
G17  21556547.427      -91997.162       -2302.768          50.750  
G19  21978285.049     -122676.085       -3156.601          42.750  
G22  23418228.618       30954.144         831.000          47.750  
G28  21139908.896       13436.106         384.405          47.500  
> 2018  4 22 11 21 40.1688020  0  7                     
G 1  23252203.522       90759.023        2023.203          48.750  
G 3  21858507.292      -36137.905        -795.190          38.500  
G11  23914142.301       85121.038        2029.814          44.000  
G17  21558335.362      -92227.443       -2303.237          50.750  
G19  21980056.207     -122991.804       -3157.585          43.250  
G22  23420074.531       31037.274         830.606          47.750  
G28  21141747.124       13474.562         384.439          47.500  
> 2018  4 22 11 21 40.2688020  0  7                     
G 1  23254073.281       90961.215        2021.917          48.750  
G 3  21860324.393      -36217.392        -795.555          38.250  
G11  23916012.496       85324.055        2030.990          44.250  
G17  21560122.716      -92457.778       -2303.983          50.750  
G19  21981826.852     -123307.558       -3157.458          43.000  
G22  23421921.615       31120.355         831.922          47.750  
G28  21143586.149       13512.970         384.023          47.750  
> 2018  4 22 11 21 40.3688020  0  7                     
G 1  23255943.281       91163.377        2021.293          48.500  
G 3  21862139.529      -36296.899        -793.595          39.000  
G11  23917882.931       85527.040        2029.953          44.000  
G17  21561910.831      -92688.131       -2303.683          50.750  
G19  21983598.634     -123623.347       -3157.512          42.750  
G22  23423769.059       31203.400         830.598          47.750  
G28  21145426.323       13551.351         383.678          47.750  
> 2018  4 22 11 21 40.4688020  0  7                     
G 1  23257813.846       91365.523        2021.765          48.750  
G 3  21863955.586      -36376.416        -793.958          38.500  
G11  23919753.488       85729.987        2030.402          44.000  
G17  21563698.636      -92918.531       -2304.210          50.750  
G19  21985369.840     -123939.174       -3158.475          42.750  
G22  23425615.867       31286.431         830.698          47.750  
G28  21147263.395       13589.707         383.595          47.500  
> 2018  4 22 11 21 40.5688020  0  7                     
G 1  23259684.421       91567.669        2021.275          48.500  
G 3  21865771.541      -36455.934        -794.902          38.250  
G11  23921623.974       85932.957        2028.713          44.250  
G17  21565486.511      -93148.901       -2304.543          50.750  
G19  21987141.291     -124254.972       -3157.408          43.250  
G22  23427463.064       31369.474         829.879          47.750  
G28  21149103.387       13628.087         383.805          47.750  
> 2018  4 22 11 21 40.6688020  0  7                     
G 1  23261554.757       91769.788        2021.112          48.500  
G 3  21867589.090      -36535.452        -795.462          38.000  
G11  23923493.617       86135.884        2029.417          44.000  
G17  21567274.430      -93379.308       -2304.714          50.500  
G19  21988913.036     -124570.833       -3159.475          43.000  
G22  23429310.684       31452.496         829.968          47.750  
G28  21150941.811       13666.434         383.295          47.500  
> 2018  4 22 11 21 40.7688020  0  7                     
G 1  23263424.957       91971.911        2021.382          48.500  
G 3  21869405.192      -36614.971        -794.428          38.000  
G11  23925363.799       86338.846        2029.237          44.250  
G17  21569062.189      -93609.706       -2304.435          50.750  
G19  21990684.950     -124886.629       -3158.189          43.000  
G22  23431158.220       31535.524         829.651          47.750  
G28  21152780.269       13704.798         383.299          47.750  
> 2018  4 22 11 21 40.8688020  0  7                     
G 1  23265294.270       92173.996        2021.133          48.750  
G 3  21871220.606      -36694.545        -796.221          38.000  
G11  23927233.904       86541.727        2027.713          44.250  
G17  21570849.868      -93840.155       -2304.761          50.500  
G19  21992457.760     -125202.501       -3159.352          42.750  
G22  23433004.538       31618.511         830.614          47.500  
G28  21154619.839       13743.107         382.652          47.500  
> 2018  4 22 11 21 40.9688020  0  7                     
G 1  23267164.276       92376.080        2020.649          48.500  
G 3  21873037.332      -36774.112        -796.413          38.000  
G11  23929104.955       86744.631        2028.662          44.000  
G17  21572637.295      -94070.601       -2305.114          50.750  
G19  21994228.918     -125518.394       -3160.724          43.000  
G22  23434851.977       31701.486         829.787          47.750  
G28  21156457.676       13781.429         383.156          47.500  
> 2018  4 22 11 21 41.0688020  0  7                     
G 1  23269034.969       92578.146        2021.174          48.500  
G 3  21874853.567      -36853.681        -795.301          38.250  
G11  23930975.170       86947.513        2029.356          43.750  
G17  21574425.091      -94301.047       -2304.479          50.500  
G19  21995999.490     -125834.259       -3158.666          42.750  
G22  23436699.946       31784.465         830.150          48.000  
G28  21158298.204       13819.748         383.165          47.500  
> 2018  4 22 11 21 41.1688020  0  7                     
G 1  23270904.816       92780.215        2020.491          48.750  
G 3  21876669.331      -36933.202        -796.249          38.250  
G11  23932844.739       87150.406        2028.563          44.250  
G17  21576213.008      -94531.500       -2305.092          50.750  
G19  21997771.617     -126150.130       -3159.137          43.000  
G22  23438547.447       31867.452         829.772          47.750  
G28  21160136.467       13858.066         383.082          47.500  
> 2018  4 22 11 21 41.2688020  0  7                     
G 1  23272775.106       92982.269        2021.244          48.750  
G 3  21878484.904      -37012.768        -794.248          38.250  
G11  23934714.245       87353.282        2028.581          44.000  
G17  21578000.852      -94761.962       -2304.627          50.750  
G19  21999544.203     -126466.021       -3159.017          42.750  
G22  23440394.675       31950.436         829.602          48.000  
G28  21161974.986       13896.377         383.162          47.750  
> 2018  4 22 11 21 41.3688020  0  7                     
G 1  23274645.191       93184.304        2020.426          48.500  
G 3  21880299.765      -37092.346        -796.324          38.000  
G11  23936584.426       87556.126        2028.652          44.000  
G17  21579788.982      -94992.445       -2304.910          50.500  
G19  22001315.045     -126781.943       -3159.411          42.750  
G22  23442242.755       32033.382         829.241          47.750  
G28  21163815.148       13934.666         383.053          47.750  
> 2018  4 22 11 21 41.4688020  0  7                     
G 1  23276514.482       93386.311        2020.067          48.750  
G 3  21882116.746      -37171.941        -794.584          38.500  
G11  23938454.520       87758.958        2029.193          44.250  
G17  21581576.512      -95222.950       -2304.660          50.750  
G19  22003086.495     -127097.879       -3159.391          42.500  
G22  23444090.298       32116.329         829.730          48.000  
G28  21165653.076       13972.937         382.634          47.500  
> 2018  4 22 11 21 41.5688020  0  7                     
G 1  23278384.184       93588.358        2020.252          48.750  
G 3  21883936.949      -37251.516        -796.343          38.500  
G11  23940324.743       87961.803        2028.970          44.250  
G17  21583364.464      -95453.435       -2305.201          50.750  
G19  22004858.578     -127413.785       -3160.180          43.000  
G22  23445937.277       32199.301         829.666          47.750  
G28  21167493.809       14011.236         382.647          47.500  
> 2018  4 22 11 21 41.6688020  0  7                     
G 1  23280254.744       93790.379        2020.357          48.500  
G 3  21885754.380      -37331.113        -795.988          38.500  
G11  23942195.338       88164.636        2028.063          44.500  
G17  21585152.011      -95683.927       -2305.403          50.750  
G19  22006629.705     -127729.700       -3159.045          43.250  
G22  23447784.805       32282.260         829.723          48.000  
G28  21169331.383       14049.540         382.920          47.500  
> 2018  4 22 11 21 41.7688020  0  7                     
G 1  23282125.049       93992.405        2020.444          48.500  
G 3  21887572.150      -37410.664        -797.111          38.250  
G11  23944066.104       88367.485        2028.818          44.250  
G17  21586938.759      -95914.423       -2304.827          50.750  
G19  22008400.512     -128045.625       -3159.521          42.750  
G22  23449632.403       32365.214         830.174          48.000  
G28  21171169.541       14087.835         383.066          47.500  
> 2018  4 22 11 21 41.8688020  0  7                     
G 1  23283995.263       94194.435        2020.083          48.500  
G 3  21889388.985      -37490.208        -794.087          38.500  
G11  23945935.974       88570.332        2029.156          44.250  
G17  21588726.582      -96144.908       -2304.495          50.500  
G19  22010172.412     -128361.534       -3159.254          43.000  
G22  23451479.465       32448.187         829.817          48.000  
G28  21173009.500       14126.148         383.260          47.750  
> 2018  4 22 11 21 41.9688020  0  7                     
G 1  23285865.242       94396.519        2020.925          48.500  
G 3  21891203.017      -37569.715        -795.637          38.000  
G11  23947805.695       88773.220        2028.699          44.250  
G17  21590513.533      -96375.349       -2304.722          50.500  
G19  22011944.733     -128677.382       -3157.306          43.000  
G22  23453327.532       32531.204         830.131          47.750  
G28  21174847.734       14164.505         383.513          47.750  
> 2018  4 22 11 21 42.0688020  0  7                     
G 1  23287735.580       94598.612        2021.559          48.500  
G 3  21893019.511      -37649.211        -795.119          38.500  
G11  23949676.137       88976.250        2075.765          44.250  
G17  21592301.324      -96605.772       -2304.456          50.500  
G19  22013715.536     -128993.235       -3157.937          43.000  
G22  23455175.216       32614.255         831.039          47.750  
G28  21176687.765       14202.880         383.816          47.500  
> 2018  4 22 11 21 42.1688020  0  7                     
G 1  23289605.342       94800.637        2020.131          48.500  
G 3  21894837.026      -37728.727        -794.300          38.500  
G11  23951546.843       89178.985        2040.485          44.500  
G17  21594089.120      -96836.249       -2304.847          50.500  
G19  22015487.005     -129309.146       -3159.633          43.000  
G22  23457022.080       32697.229         829.448          48.000  
G28  21178525.113       14241.203         383.027          47.500  
> 2018  4 22 11 21 42.2688020  0  7                     
G 1  23291475.258       95002.731        2020.587          48.500  
G 3  21896652.998      -37808.201        -794.677          38.500  
G11  23953415.658       89382.093        2063.649          44.250  
G17  21595876.569      -97066.682       -2304.969          50.500  
G19  22017258.903     -129625.004       -3158.790          42.750  
G22  23458868.747       32780.281         831.000          48.000  
G28  21180362.942       14279.593         383.379          47.500  
> 2018  4 22 11 21 42.3688020  0  7                     
G 1  23293345.173       95204.801        2020.695          48.500  
G 3  21898468.380      -37887.703        -795.496          38.250  
G11  23955286.421       89584.761        2029.146          44.500  
G17  21597664.349      -97297.115       -2304.188          50.500  
G19  22019029.252     -129940.867       -3158.585          42.750  
G22  23460716.108       32863.312         830.414          47.750  
G28  21182203.639       14317.965         384.056          47.500  
> 2018  4 22 11 21 42.4688020  0  7                     
G 1  23295215.293       95406.898        2020.780          48.750  
G 3  21900284.613      -37967.167        -795.729          38.250  
G11  23957156.220       89787.673        2029.071          44.500  
G17  21599451.728      -97527.529       -2304.179          50.500  
G19  22020800.403     -130256.711       -3158.711          43.000  
G22  23462563.652       32946.373         830.647          47.500  
G28  21184041.033       14356.373         383.887          47.750  
> 2018  4 22 11 21 42.5688020  0  7                     
G 1  23297084.946       95609.003        2021.475          48.500  
G 3  21902101.006      -38046.599        -796.373          38.250  
G11  23959026.168       89990.583        2028.995          44.250  
G17  21601238.824      -97757.943       -2303.691          50.500  
G19  22022572.263     -130572.546       -3158.227          43.000  
G22  23464411.173       33029.435         830.661          48.000  
G28  21185880.424       14394.773         383.933          47.500  
> 2018  4 22 11 21 42.6688020  0  7                     
G 1  23298955.321       95811.091        2021.577          48.750  
G 3  21903919.649      -38126.041        -793.460          38.000  
G11  23960896.318       90193.506        2030.202          44.500  
G17  21603026.528      -97988.349       -2303.405          50.500  
G19  22024343.720     -130888.366       -3157.448          43.000  
G22  23466258.868       33112.511         831.360          47.750  
G28  21187719.207       14433.183         385.331          47.750  
> 2018  4 22 11 21 42.7688020  0  7                     
G 1  23300825.092       96013.213        2020.851          48.500  
G 3  21905735.565      -38205.472        -794.150          37.750  
G11  23962767.158       90396.417        2029.164          44.250  
G17  21604813.900      -98218.755       -2304.111          50.250  
G19  22026115.083     -131204.194       -3157.263          43.000  
G22  23468106.084       33195.586         830.755          47.500  
G28  21189557.584       14471.613         385.222          47.500  
> 2018  4 22 11 21 42.8688020  0  7                     
G 1  23302695.526       96215.343        2021.238          48.500  
G 3  21907552.488      -38284.876        -792.680          38.250  
G11  23964637.705       90599.360        2028.653          44.500  
G17  21606602.469      -98449.124       -2304.176          50.500  
G19  22027886.215     -131520.002       -3158.676          42.750  
G22  23469953.194       33278.710         830.897          47.750  
G28  21191397.697       14510.048         383.604          47.500  
> 2018  4 22 11 21 42.9688020  0  7                     
G 1  23304565.214       96417.487        2021.110          48.750  
G 3  21909369.692      -38364.241        -795.315          38.250  
G11  23966507.922       90802.298        2028.728          44.500  
G17  21608390.038      -98679.493       -2304.067          50.500  
G19  22029658.326     -131835.794       -3158.437          42.750  
G22  23471799.905       33361.830         831.407          47.750  
G28  21193235.396       14548.519         384.281          47.750  
> 2018  4 22 11 21 43.0688020  0  7                     
G 1  23306435.087       96619.610        2021.452          48.500  
G 3  21911185.828      -38443.640        -793.531          38.000  
G11  23968377.517       91005.247        2030.050          44.500  
G17  21610177.809      -98909.876       -2303.651          50.500  
G19  22031429.773     -132151.593       -3157.080          42.750  
G22  23473646.722       33444.940         831.605          47.750  
G28  21195075.174       14586.977         385.280          47.750  
> 2018  4 22 11 21 43.1688020  0  7                     
G 1  23308304.865       96821.754        2021.527          48.750  
G 3  21913001.241      -38523.004        -794.200          38.250  
G11  23970247.221       91208.203        2030.345          44.500  
G17  21611965.666      -99140.242       -2303.805          50.500  
G19  22033201.895     -132467.375       -3158.449          43.000  
G22  23475494.448       33528.073         831.552          48.000  
G28  21196914.075       14625.451         384.764          47.500  
> 2018  4 22 11 21 43.2688020  0  7                     
G 1  23310174.739       97023.845        2020.861          48.750  
G 3  21914817.245      -38602.445        -793.744          38.000  
G11  23972117.635       91411.118        2029.856          44.500  
G17  21613753.284      -99370.646       -2303.750          50.500  
G19  22034974.049     -132783.198       -3158.204          43.500  
G22  23477341.527       33611.170         831.714          48.000  
G28  21198752.972       14663.883         384.492          47.750  
> 2018  4 22 11 21 43.3688020  0  7                     
G 1  23312044.592       97225.917        2021.231          48.500  
G 3  21916634.196      -38681.858        -794.194          38.250  
G11  23973988.509       91613.986        2028.921          44.500  
G17  21615541.201      -99601.078       -2304.188          50.500  
G19  22036745.957     -133099.073       -3159.702          43.000  
G22  23479188.924       33694.231         830.405          48.000  
G28  21200593.024       14702.304         384.221          47.750  
> 2018  4 22 11 21 43.4688020  0  7                     
G 1  23313914.460       97427.931        2020.489          48.750  
G 3  21918450.810      -38761.337        -794.803          38.500  
G11  23975858.985       91816.812        2028.406          44.750  
G17  21617328.882      -99831.574       -2305.640          50.500  
G19  22038515.659     -133414.977       -3158.745          43.000  
G22  23481037.303       33777.244         830.256          47.750  
G28  21202430.195       14740.651         383.046          47.500  
> 2018  4 22 11 21 43.5688020  0  7                     
G 1  23315784.183       97629.866        2019.171          48.500  
G 3  21920267.365      -38840.909        -795.777          38.250  
G11  23977729.215       92019.551        2026.889          44.500  
G17  21619116.077     -100062.152       -2306.503          50.500  
G19  22040286.779     -133730.977       -3159.773          43.000  
G22  23482884.977       33860.183         829.061          48.000  
G28  21204270.817       14778.930         382.350          47.500  
> 2018  4 22 11 21 43.6688020  0  7                     
G 1  23317653.945       97831.703        2017.754          48.500  
G 3  21922082.437      -38920.546        -795.970          38.250  
G11  23979600.017       92222.194        2025.871          44.500  
G17  21620903.261     -100292.816       -2307.427          50.500  
G19  22042058.852     -134047.074       -3161.865          42.750  
G22  23484731.187       33943.015         827.365          47.750  
G28  21206108.096       14817.125         382.023          47.500  
> 2018  4 22 11 21 43.7688020  0  7                     
G 1  23319523.784       98033.429        2017.599          48.500  
G 3  21923897.528      -39000.308        -797.273          38.250  
G11  23981468.765       92424.731        2025.355          44.500  
G17  21622690.605     -100523.589       -2308.076          50.500  
G19  22043829.239     -134363.267       -3162.043          43.000  
G22  23486579.581       34025.767         827.550          47.750  
G28  21207947.090       14855.209         380.277          47.500  
> 2018  4 22 11 21 43.8688020  0  7                     
G 1  23321394.664       98235.122        2017.164          48.500  
G 3  21925714.234      -39080.088        -799.005          37.750  
G11  23983338.479       92627.231        2024.769          44.750  
G17  21624478.040     -100754.391       -2308.515          50.500  
G19  22045600.432     -134679.500       -3162.984          42.750  
G22  23488426.026       34108.472         826.523          47.750  
G28  21209787.097       14893.256         380.987          47.500  
> 2018  4 22 11 21 43.9688020  0  7                     
G 1  23323264.127       98436.789        2017.464          48.500  
G 3  21927531.470      -39159.887        -797.468          38.250  
G11  23985208.008       92829.715        2025.037          44.500  
G17  21626265.589     -100985.222       -2307.773          50.500  
G19  22047373.007     -134995.735       -3161.397          43.000  
G22  23490273.219       34191.156         827.427          47.750  
G28  21211624.642       14931.303         380.651          47.500  
> 2018  4 22 11 21 44.0688020  0  7                     
G 1  23325133.641       98638.589        2018.526          48.500  
G 3  21929346.373      -39239.544        -796.765          37.750  
G11  23987077.742       93032.328        2027.346          44.250  
G17  21628053.196     -101215.925       -2306.455          50.250  
G19  22049143.777     -135311.863       -3161.194          43.000  
G22  23492121.114       34273.980         828.946          47.750  
G28  21213464.492       14969.470         382.230          47.750  
> 2018  4 22 11 21 44.1688020  0  7                     
G 1  23327003.983       98840.502        2019.942          48.250  
G 3  21931165.041      -39319.102        -794.465          38.250  
G11  23988947.936       93235.035        2027.757          44.250  
G17  21629840.918     -101446.508       -2305.527          50.500  
G19  22050915.725     -135627.862       -3159.594          43.000  
G22  23493968.512       34356.919         829.982          48.000  
G28  21215302.673       15007.755         383.806          47.250  
> 2018  4 22 11 21 44.2688020  0  7                     
G 1  23328873.756       99042.490        2020.240          48.500  
G 3  21932983.137      -39398.554        -795.433          38.000  
G11  23990817.295       93437.849        2028.994          44.750  
G17  21631628.631     -101677.014       -2305.140          50.500  
G19  22052686.032     -135943.791       -3158.635          43.250  
G22  23495815.735       34439.941         830.098          48.000  
G28  21217141.548       15046.120         383.726          47.500  
> 2018  4 22 11 21 44.3688020  0  7                     
G 1  23330743.263       99244.548        2020.294          48.500  
G 3  21934798.604      -39477.954        -794.366          38.000  
G11  23992687.418       93640.713        2029.083          44.500  
G17  21633416.601     -101907.454       -2304.303          50.250  
G19  22054458.507     -136259.662       -3159.429          43.000  
G22  23497662.358       34523.039         831.332          48.000  
G28  21218981.526       15084.561         384.502          47.750  
> 2018  4 22 11 21 44.4688020  0  7                     
G 1  23332613.749       99446.586        2020.948          48.500  
G 3  21936613.744      -39557.335        -794.101          38.000  
G11  23994558.237       93843.553        2028.523          44.750  
G17  21635204.810     -102137.915       -2304.518          50.500  
G19  22056228.500     -136575.536       -3159.378          43.000  
G22  23499508.828       34606.112         831.138          47.750  
G28  21220818.890       15122.993         384.942          47.500  
> 2018  4 22 11 21 44.5688020  0  7                     
G 1  23334483.625       99648.602        2020.549          48.500  
G 3  21938430.148      -39636.765        -795.271          38.250  
G11  23996428.561       94046.388        2028.871          44.750  
G17  21636992.449     -102368.394       -2304.833          50.500  
G19  22057999.400     -136891.445       -3159.012          43.000  
G22  23501355.842       34689.186         831.231          48.000  
G28  21222659.825       15161.399         384.501          47.750  
> 2018  4 22 11 21 44.6688020  0  7                     
G 1  23336354.090       99850.585        2020.299          48.500  
G 3  21940247.478      -39716.194        -794.004          37.750  
G11  23998298.787       94249.168        2027.888          44.500  
G17  21638780.017     -102598.906       -2305.425          50.250  
G19  22059771.369     -137207.379       -3159.579          42.750  
G22  23503203.476       34772.208         830.463          48.000  
G28  21224497.875       15199.783         383.708          47.500  
> 2018  4 22 11 21 44.7688020  0  7                     
G 1  23338224.667      100052.540        2019.120          48.500  
G 3  21942064.702      -39795.701        -796.468          38.000  
G11  24000168.972       94451.920        2027.222          44.750  
G17  21640567.506     -102829.452       -2306.160          50.250  
G19  22061543.620     -137523.340       -3160.982          43.000  
G22  23505051.693       34855.198         830.020          48.000  
G28  21226337.167       15238.117         383.053          47.500  
> 2018  4 22 11 21 44.8688020  0  7                     
G 1  23340094.412      100254.421        2018.807          48.500  
G 3  21943880.674      -39875.203        -796.161          38.000  
G11  24002038.268       94654.615        2026.565          44.500  
G17  21642355.756     -103060.055       -2306.245          50.500  
G19  22063315.014     -137839.371       -3160.526          43.000  
G22  23506899.612       34938.137         829.161          48.000  
G28  21228176.732       15276.405         382.118          47.500  
> 2018  4 22 11 21 44.9688020  0  7                     
G 1  23341964.496      100456.292        2018.050          48.500  
G 3  21945696.705      -39954.742        -795.442          38.250  
G11  24003908.424       94857.304        2027.281          44.750  
G17  21644142.914     -103290.678       -2306.796          50.500  
G19  22065085.900     -138155.400       -3160.399          42.750  
G22  23508748.100       35021.077         828.721          47.750  
G28  21230013.813       15314.696         382.748          47.500  
> 2018  4 22 11 21 45.0688020  0  7                     
G 1  23343834.751      100658.128        2018.602          48.500  
G 3  21947513.410      -40034.349        -795.611          37.500  
G11  24005779.298       95059.939        2026.484          44.750  
G17  21645930.685     -103521.334       -2306.908          50.500  
G19  22066858.187     -138471.488       -3161.334          43.250  
G22  23510595.589       35103.960         828.244          47.750  
G28  21231853.922       15352.940         382.464          47.750  
> 2018  4 22 11 21 45.1688020  0  7                     
G 1  23345704.281      100859.909        2017.828          48.250  
G 3  21949329.157      -40113.931        -795.408          38.000  
G11  24007648.470       95262.527        2026.432          44.500  
G17  21647718.708     -103752.044       -2307.531          50.250  
G19  22068629.193     -138787.604       -3161.535          42.750  
G22  23512442.171       35186.812         828.371          48.000  
G28  21233692.275       15391.141         383.220          47.500  
> 2018  4 22 11 21 45.2688020  0  7                     
G 1  23347573.812      101061.658        2017.001          48.250  
G 3  21951144.388      -40193.595        -796.670          37.750  
G11  24009519.371       95465.083        2025.044          45.000  
G17  21649506.353     -103982.790       -2307.929          50.250  
G19  22070399.538     -139103.768       -3162.329          43.250  
G22  23514288.960       35269.632         828.214          47.750  
G28  21235530.092       15429.304         381.196          47.750  
> 2018  4 22 11 21 45.3688020  0  7                     
G 1  23349443.750      101263.415        2018.015          48.250  
G 3  21952960.460      -40273.219        -795.109          38.250  
G11  24011389.525       95667.638        2025.621          44.750  
G17  21651293.736     -104213.506       -2307.416          50.500  
G19  22072172.410     -139419.914       -3160.785          43.000  
G22  23516136.649       35352.450         827.842          48.000  
G28  21237370.192       15467.494         382.497          47.500  
> 2018  4 22 11 21 45.4688020  0  7                     
G 1  23351312.976      101465.141        2017.711          48.250  
G 3  21954777.074      -40352.892        -798.314          37.500  
G11  24013259.655       95870.180        2026.099          44.500  
G17  21653081.288     -104444.274       -2307.954          50.250  
G19  22073943.640     -139736.085       -3162.265          42.750  
G22  23517984.693       35435.265         828.466          47.500  
G28  21239207.725       15505.647         382.252          47.250  
> 2018  4 22 11 21 45.5688020  0  7                     
G 1  23353183.080      101666.891        2017.129          48.250  
G 3  21956595.596      -40432.521        -796.290          37.750  
G11  24015130.127       96072.726        2025.219          44.750  
G17  21654868.724     -104675.013       -2307.488          50.500  
G19  22075714.987     -140052.249       -3161.741          43.000  
G22  23519831.734       35518.089         827.786          48.000  
G28  21241046.137       15543.833         382.026          47.500  
> 2018  4 22 11 21 45.6688020  0  7                     
G 1  23355053.136      101868.627        2017.033          48.500  
G 3  21958415.161      -40512.159        -796.308          37.750  
G11  24017000.803       96275.259        2025.207          44.750  
G17  21656656.453     -104905.773       -2308.110          50.500  
G19  22077487.691     -140368.433       -3161.656          43.000  
G22  23521679.072       35600.896         827.931          48.000  
G28  21242884.632       15581.989         381.205          47.750  
> 2018  4 22 11 21 45.7688020  0  7                     
G 1  23356922.946      102070.295        2016.848          48.250  
G 3  21960231.357      -40591.858        -797.679          37.500  
G11  24018871.319       96477.734        2024.557          44.750  
G17  21658443.830     -105136.589       -2308.044          50.250  
G19  22079258.503     -140684.670       -3162.369          43.250  
G22  23523526.449       35683.660         827.170          48.000  
G28  21244721.993       15620.105         380.866          47.500  
> 2018  4 22 11 21 45.8688020  0  7                     
G 1  23358792.802      102271.952        2017.340          48.250  
G 3  21962045.811      -40671.578        -800.007          37.750  
G11  24020741.566       96680.205        2025.563          45.000  
G17  21660232.136     -105367.414       -2308.388          50.500  
G19  22081030.783     -141000.914       -3162.992          42.750  
G22  23525373.832       35766.411         827.778          48.000  
G28  21246562.926       15658.212         381.364          47.750  
> 2018  4 22 11 21 45.9688020  0  7                     
G 1  23360662.801      102473.668        2017.463          48.250  
G 3  21963861.046      -40751.187        -795.943          37.750  
G11  24022611.026       96882.717        2025.227          45.000  
G17  21662020.184     -105598.193       -2307.684          50.500  
G19  22082801.245     -141317.107       -3161.425          43.000  
G22  23527220.737       35849.210         828.458          48.250  
G28  21248400.731       15696.373         381.851          47.500  
> 2018  4 22 11 21 46.0688020  0  7                     
G 1  23362533.303      102675.392        2017.637          48.250  
G 3  21965677.645      -40830.858        -796.388          37.500  
G11  24024481.245       97085.246        2025.970          45.000  
G17  21663807.359     -105828.941       -2307.335          50.250  
G19  22084572.196     -141633.272       -3161.169          43.000  
G22  23529068.576       35932.039         828.717          48.000  
G28  21250240.445       15734.546         382.404          47.500  
> 2018  4 22 11 21 46.1688020  0  7                     
G 1  23364403.128      102877.180        2018.065          48.250  
G 3  21967494.487      -40910.416        -795.849          38.000  
G11  24026352.060       97287.837        2025.671          45.000  
G17  21665595.131     -106059.643       -2306.472          50.500  
G19  22086344.097     -141949.380       -3160.402          43.250  
G22  23530916.444       36014.920         829.311          48.000  
G28  21252080.097       15772.792         382.940          47.750  
> 2018  4 22 11 21 46.2688020  0  7                     
G 1  23366273.198      103079.040        2019.093          48.250  
G 3  21969313.027      -40989.870        -792.419          37.500  
G11  24028221.715       97490.515        2028.032          45.000  
G17  21667382.391     -106290.258       -2305.790          50.250  
G19  22088115.461     -142265.439       -3159.339          43.500  
G22  23532763.590       36097.898         830.975          47.750  
G28  21253918.624       15811.122         384.602          47.500  
> 2018  4 22 11 21 46.3688020  0  7                     
G 1  23368143.498      103280.931        2019.444          48.000  
G 3  21971128.187      -41069.304        -793.212          38.000  
G11  24030093.009       97693.196        2027.397          44.500  
G17  21669170.275     -106520.845       -2305.507          50.250  
G19  22089887.090     -142581.417       -3158.583          42.500  
G22  23534610.580       36180.894         829.861          48.000  
G28  21255759.468       15849.470         384.052          47.250  
> 2018  4 22 11 21 46.4688020  0  7                     
G 1  23370012.713      103482.855        2019.411          48.250  
G 3  21972944.830      -41148.681        -792.787          38.000  
G11  24031963.455       97895.927        2027.283          44.750  
G17  21670958.091     -106751.395       -2305.288          50.250  
G19  22091658.663     -142897.400       -3158.571          43.000  
G22  23536458.435       36263.949         830.315          48.250  
G28  21257596.728       15887.878         383.962          47.500  
> 2018  4 22 11 21 46.5688020  0  7                     
G 1  23371882.877      103684.827        2019.661          48.000  
G 3  21974760.661      -41228.061        -792.673          37.500  
G11  24033833.561       98098.710        2027.301          44.750  
G17  21672745.518     -106981.910       -2305.046          50.000  
G19  22093429.871     -143213.313       -3157.805          43.000  
G22  23538305.845       36347.032         830.890          47.750  
G28  21259435.452       15926.324         384.782          47.250  
> 2018  4 22 11 21 46.6688020  0  7                     
G 1  23373751.749      103886.783        2019.752          48.000  
G 3  21976576.280      -41307.433        -792.945          38.250  
G11  24035703.665       98301.467        2028.281          44.750  
G17  21674533.335     -107212.433       -2305.352          50.500  
G19  22095200.697     -143529.256       -3158.844          42.500  
G22  23540153.288       36430.102         831.007          48.000  
G28  21261273.982       15964.750         384.707          47.250  
> 2018  4 22 11 21 46.7688020  0  7                     
G 1  23375622.016      104088.669        2017.820          47.750  
G 3  21978392.123      -41386.836        -795.429          37.250  
G11  24037573.667       98504.157        2026.524          44.500  
G17  21676320.970     -107443.021       -2306.413          50.000  
G19  22096971.670     -143845.276       -3162.269          42.750  
G22  23542000.228       36513.127         830.447          47.750  
G28  21263112.266       16003.126         383.360          47.250  
> 2018  4 22 11 21 46.8688020  0  7                     
G 1  23377492.403      104290.439        2017.950          48.000  
G 3  21980206.995      -41466.397        -795.184          37.750  
G11  24039443.512       98706.719        2024.624          45.000  
G17  21678108.472     -107673.739       -2307.355          50.250  
G19  22098743.009     -144161.405       -3162.591          42.750  
G22  23543847.175       36596.003         828.523          48.000  
G28  21264953.218       16041.369         382.229          47.250  
> 2018  4 22 11 21 46.9688020  0  7                     
G 1  23379363.109      104492.110        2016.187          48.000  
G 3  21982023.746      -41546.009        -795.570          37.500  
G11  24041313.162       98909.182        2023.744          45.000  
G17  21679896.489     -107904.555       -2308.851          50.250  
G19  22100513.893     -144477.633       -3163.930          43.000  
G22  23545694.732       36678.803         827.254          48.000  
G28  21266790.268       16079.537         381.249          47.500  
> 2018  4 22 11 21 47.0688020  0  7                     
G 1  23381233.281      104693.744        2016.767          48.250  
G 3  21983841.306      -41625.668        -795.410          38.000  
G11  24043183.430       99111.634        2025.396          45.000  
G17  21681684.351     -108135.396       -2307.812          50.500  
G19  22102286.163     -144793.895       -3162.826          43.000  
G22  23547542.177       36761.573         828.300          48.000  
G28  21268629.368       16117.664         382.025          47.500  
> 2018  4 22 11 21 47.1688020  0  7                     
G 1  23383103.677      104895.407        2017.627          48.250  
G 3  21985658.164      -41705.344        -797.109          37.750  
G11  24045053.153       99314.090        2024.246          45.000  
G17  21683472.134     -108366.212       -2308.455          50.250  
G19  22104057.485     -145110.133       -3163.806          43.250  
G22  23549389.181       36844.361         827.618          48.000  
G28  21270468.932       16155.808         381.047          47.500  
> 2018  4 22 11 21 47.2688020  0  7                     
G 1  23384973.589      105097.054        2017.080          48.250  
G 3  21987475.707      -41784.944        -795.835          38.000  
G11  24046924.012       99516.533        2025.357          45.250  
G17  21685259.567     -108597.037       -2308.282          50.500  
G19  22105828.400     -145426.357       -3162.257          43.000  
G22  23551236.684       36927.156         828.128          48.000  
G28  21272306.926       16193.967         381.686          47.500  
> 2018  4 22 11 21 47.3688020  0  7                     
G 1  23386843.619      105298.827        2017.787          48.000  
G 3  21989289.849      -41864.455        -795.275          37.250  
G11  24048793.347       99719.103        2025.457          45.250  
G17  21687047.436     -108827.736       -2307.030          50.250  
G19  22107600.570     -145742.472       -3161.782          43.250  
G22  23553083.721       37010.080         829.710          48.250  
G28  21274146.755       16232.250         382.546          47.500  
> 2018  4 22 11 21 47.4688020  0  7                     
G 1  23388713.325      105500.628        2018.266          48.250  
G 3  21991107.136      -41943.923        -794.626          37.750  
G11  24050664.086       99921.704        2026.686          45.250  
G17  21688834.751     -109058.411       -2307.248          50.250  
G19  22109371.863     -146058.554       -3160.906          43.000  
G22  23554930.787       37093.024         829.100          48.250  
G28  21275983.759       16270.565         383.125          47.500  
> 2018  4 22 11 21 47.5688020  0  7                     
G 1  23390582.525      105702.492        2018.637          48.000  
G 3  21992924.215      -42023.315        -794.849          37.500  
G11  24052533.766      100124.384        2027.284          45.000  
G17  21690621.933     -109289.013       -2305.904          50.250  
G19  22111143.901     -146374.556       -3160.075          42.750  
G22  23556779.210       37176.050         829.929          48.000  
G28  21277823.067       16308.948         383.745          47.500  
> 2018  4 22 11 21 47.6688020  0  7                     
G 1  23392452.213      105904.374        2018.755          48.000  
G 3  21994740.464      -42102.727        -793.325          38.000  
G11  24054404.035      100327.053        2026.299          45.250  
G17  21692410.004     -109519.598       -2305.100          50.250  
G19  22112915.170     -146690.579       -3159.671          43.000  
G22  23558626.762       37259.083         830.580          47.750  
G28  21279662.737       16347.343         384.352          47.500  
> 2018  4 22 11 21 47.7688020  0  7                     
G 1  23394322.204      106106.344        2020.515          48.000  
G 3  21996558.110      -42182.000        -792.779          37.250  
G11  24056274.963      100529.824        2028.221          45.000  
G17  21694197.549     -109750.120       -2305.255          50.250  
G19  22114686.316     -147006.509       -3160.114          42.750  
G22  23560474.368       37342.213         832.120          48.000  
G28  21281500.913       16385.831         385.364          47.500  
> 2018  4 22 11 21 47.8688020  0  7                     
G 1  23396192.302      106308.350        2021.601          48.250  
G 3  21998373.705      -42261.227        -789.729          38.000  
G11  24058144.608      100732.644        2029.609          45.250  
G17  21695985.438     -109980.575       -2303.908          50.250  
G19  22116458.357     -147322.384       -3158.809          43.000  
G22  23562321.382       37425.398         833.351          48.000  
G28  21283341.249       16424.375         387.148          47.500  
> 2018  4 22 11 21 47.9688020  0  7                     
G 1  23398062.875      106510.532        2022.271          48.000  
G 3  22000190.791      -42340.297        -789.598          37.750  
G11  24060015.821      100935.609        2030.340          45.250  
G17  21697773.454     -110210.865       -2302.944          50.500  
G19  22118229.706     -147638.093       -3156.748          43.000  
G22  23564168.728       37508.736         833.519          48.000  
G28  21285180.093       16463.085         387.254          47.500  
> 2018  4 22 11 21 48.0688020  0  7                     
G 1  23399933.756      106712.742        2022.473          48.250  
G 3  22002006.479      -42419.335        -791.557          38.250  
G11  24061886.738      101138.628        2030.748          45.250  
G17  21699560.957     -110441.118       -2302.971          50.250  
G19  22120000.269     -147953.744       -3156.278          43.000  
G22  23566015.704       37591.959         797.939          48.000  
G28  21287020.033       16501.826         386.888          47.500  
> 2018  4 22 11 21 48.1688020  0  7                     
G 1  23401803.054      106914.881        2021.288          48.250  
G 3  22003822.392      -42498.433        -790.972          37.750  
G11  24063756.788      101341.550        2028.870          45.250  
G17  21701348.864     -110671.442       -2303.815          50.250  
G19  22121771.513     -148269.490       -3158.595          43.000  
G22  23567862.998       37675.574         839.054          48.000  
G28  21288858.497       16540.513         387.051          47.500  
> 2018  4 22 11 21 48.2688020  0  7                     
G 1  23403673.237      107116.924        2020.523          48.250  
G 3  22005639.713      -42577.613        -790.359          37.750  
G11  24065626.286      101544.415        2029.275          45.250  
G17  21703137.280     -110901.878       -2304.935          50.250  
G19  22123542.993     -148585.323       -3158.737          43.000  
G22  23569710.208       37758.665         832.382          48.250  
G28  21290696.825       16579.102         384.989          47.500  
> 2018  4 22 11 21 48.3688020  0  7                     
G 1  23405543.553      107318.882        2020.074          48.500  
G 3  22007456.530      -42656.896        -793.267          37.750  
G11  24067497.081      101747.159        2027.221          45.500  
G17  21704924.982     -111132.390       -2305.624          50.250  
G19  22125314.248     -148901.252       -3159.550          43.250  
G22  23571557.767       37841.794         830.574          48.000  
G28  21292537.459       16617.607         384.922          47.750  
> 2018  4 22 11 21 48.4688020  0  7                     
G 1  23407414.247      107520.763        2019.093          48.000  
G 3  22009272.568      -42736.246        -793.448          37.750  
G11  24069367.073      101949.834        2027.732          45.250  
G17  21706712.530     -111362.977       -2306.108          50.500  
G19  22127085.085     -149217.251       -3160.333          43.000  
G22  23573405.702       37924.872         831.045          48.000  
G28  21294374.839       16656.044         384.485          47.250  
> 2018  4 22 11 21 48.5688020  0  7                     
G 1  23409283.668      107722.643        2018.704          48.250  
G 3  22011090.524      -42815.549        -791.725          38.000  
G11  24071237.297      102152.513        2026.216          45.500  
G17  21708499.939     -111593.557       -2306.191          50.500  
G19  22128857.295     -149533.237       -3161.042          42.750  
G22  23575252.975       38007.946         830.792          48.250  
G28  21296213.385       16694.489         384.664          47.500  
> 2018  4 22 11 21 48.6688020  0  7                     
G 1  23411153.540      107924.454        2018.000          48.250  
G 3  22012907.379      -42894.940        -792.346          37.500  
G11  24073107.310      102355.122        2025.879          45.500  
G17  21710287.790     -111824.199       -2306.140          50.250  
G19  22130629.516     -149849.298       -3160.719          43.500  
G22  23577101.120       38090.942         830.540          48.000  
G28  21298052.649       16732.856         384.187          47.250  
> 2018  4 22 11 21 48.7688020  0  7                     
G 1  23413022.790      108126.248        2018.040          48.250  
G 3  22014724.199      -42974.364        -793.254          38.250  
G11  24074977.775      102557.716        2025.807          45.500  
G17  21712075.737     -112054.870       -2306.926          50.250  
G19  22132401.547     -150165.382       -3159.653          43.250  
G22  23578947.475       38173.946         829.712          48.250  
G28  21299890.805       16771.222         383.821          47.250  
> 2018  4 22 11 21 48.8688020  0  7                     
G 1  23414892.729      108328.012        2017.908          48.000  
G 3  22016540.286      -43053.789        -793.394          37.750  
G11  24076847.265      102760.279        2026.013          45.500  
G17  21713862.858     -112285.575       -2307.083          50.500  
G19  22134174.146     -150481.509       -3161.431          43.250  
G22  23580795.102       38256.908         829.640          48.250  
G28  21301731.478       16809.550         383.561          47.500  
> 2018  4 22 11 21 48.9688020  0  7                     
G 1  23416763.219      108529.801        2018.238          48.250  
G 3  22018358.718      -43133.186        -795.294          38.000  
G11  24078716.882      102962.845        2025.859          45.250  
G17  21715650.816     -112516.260       -2307.292          50.250  
G19  22135946.395     -150797.611       -3161.052          43.500  
G22  23582641.749       38339.892         829.465          48.250  
G28  21303569.088       16847.894         383.155          47.750  
> 2018  4 22 11 21 49.0688020  0  7                     
G 1  23418632.769      108731.531        2017.912          48.250  
G 3  22020174.825      -43212.637        -794.868          37.750  
G11  24080586.972      103165.387        2026.076          45.250  
G17  21717438.216     -112746.979       -2307.118          50.500  
G19  22137715.863     -151113.742       -3161.652          43.250  
G22  23584488.923       38422.843         829.669          48.000  
G28  21305408.742       16886.220         383.232          47.500  
> 2018  4 22 11 21 49.1688020  0  7                     
G 1  23420503.202      108933.320        2018.139          48.000  
G 3  22021990.823      -43292.032        -793.085          38.000  
G11  24082456.351      103367.956        2025.492          45.000  
G17  21719226.135     -112977.656       -2307.061          50.250  
G19  22139487.690     -151429.819       -3161.101          43.000  
G22  23586336.019       38505.844         830.118          48.000  
G28  21307247.386       16924.592         383.473          47.250  
> 2018  4 22 11 21 49.2688020  0  7                     
G 1  23422372.839      109135.091        2016.980          48.250  
G 3  22023807.167      -43371.411        -793.232          38.250  
G11  24084326.112      103570.528        2025.926          45.500  
G17  21721013.781     -113208.341       -2307.605          50.500  
G19  22141259.807     -151745.918       -3162.148          43.000  
G22  23588183.596       38588.833         829.479          48.000  
G28  21309085.517       16962.944         383.076          47.500  
> 2018  4 22 11 21 49.3688020  0  7                     
G 1  23424242.993      109336.872        2018.644          48.250  
G 3  22025623.837      -43450.840        -795.237          38.000  
G11  24086195.945      103773.101        2025.305          45.250  
G17  21722801.313     -113439.022       -2306.536          50.500  
G19  22143031.050     -152061.991       -3161.008          43.500  
G22  23590031.660       38671.832         830.241          48.000  
G28  21310926.030       17001.320         383.575          47.500  
> 2018  4 22 11 21 49.4688020  0  7                     
G 1  23426112.283      109538.733        2019.380          48.250  
G 3  22027441.153      -43530.125        -792.802          37.750  
G11  24088066.291      103975.759        2028.400          45.250  
G17  21724589.200     -113669.622       -2305.136          50.250  
G19  22144801.424     -152378.008       -3159.141          43.250  
G22  23591878.563       38754.923         831.850          48.000  
G28  21312763.150       17039.778         385.858          47.500  
> 2018  4 22 11 21 49.5688020  0  7                     
G 1  23427982.826      109740.842        2021.760          48.000  
G 3  22029256.925      -43609.166        -789.080          37.500  
G11  24089936.649      104178.665        2029.661          45.000  
G17  21726376.518     -113899.970       -2302.553          50.000  
G19  22146573.088     -152693.775       -3156.940          43.000  
G22  23593725.894       38838.261         834.946          47.750  
G28  21314602.217       17078.478         387.132          47.250  
> 2018  4 22 11 21 49.6688020  0  7                     
G 1  23429852.428      109943.096        2023.705          48.000  
G 3  22031071.334      -43688.058        -787.788          38.000  
G11  24091806.612      104381.709        2030.421          44.750  
G17  21728164.662     -114130.163       -2301.345          50.250  
G19  22148343.519     -153009.378       -3155.012          42.500  
G22  23595573.120       38921.739         835.868          48.250  
G28  21316440.655       17117.343         389.535          47.000  
> 2018  4 22 11 21 49.7688020  0  7                     
G 1  23431722.833      110145.445        2023.568          48.250  
G 3  22032888.336      -43766.856        -790.508          37.250  
G11  24093677.191      104584.848        2031.484          45.250  
G17  21729952.326     -114360.283       -2302.024          50.000  
G19  22150114.886     -153324.916       -3156.012          43.250  
G22  23597420.632       39005.320         835.647          47.750  
G28  21318279.485       17156.294         388.626          47.500  
> 2018  4 22 11 21 49.8688020  0  7                     
G 1  23433592.984      110347.597        2020.404          48.000  
G 3  22034705.376      -43845.838        -789.926          38.000  
G11  24095547.282      104787.796        2027.742          45.000  
G17  21731740.167     -114590.584       -2304.228          50.250  
G19  22151886.327     -153640.600       -3157.429          43.250  
G22  23599268.165       39088.728         832.756          48.000  
G28  21320120.095       17195.069         387.009          47.250  
> 2018  4 22 11 21 49.9688020  0  7                     
G 1  23435463.025      110549.580        2019.592          48.000  
G 3  22036519.983      -43924.993        -792.053          37.500  
G11  24097416.775      104990.587        2026.639          45.250  
G17  21733528.148     -114821.042       -2304.926          50.500  
G19  22153658.598     -153956.501       -3160.302          42.750  
G22  23601115.709       39171.953         831.968          48.250  
G28  21321957.005       17233.678         385.692          47.500  
> 2018  4 22 11 21 50.0688020  0  7                     
G 1  23437333.373      110751.469        2019.449          48.250  
G 3  22038336.746      -44004.229        -792.567          38.000  
G11  24099286.745      105193.267        2027.263          45.250  
G17  21735315.774     -115051.617       -2305.609          50.500  
G19  22155430.535     -154272.476       -3159.637          43.250  
G22  23602963.255       39255.086         831.578          48.250  
G28  21323796.713       17272.174         385.288          47.500  
> 2018  4 22 11 21 50.1688020  0  7                     
G 1  23439203.267      110953.501        2021.979          48.250  
G 3  22040154.647      -44083.333        -789.531          38.000  
G11  24101156.903      105396.090        2029.847          45.000  
G17  21737104.085     -115282.034       -2302.166          50.250  
G19  22157201.971     -154588.289       -3157.085          43.500  
G22  23604811.435       39338.363         833.983          48.000  
G28  21325636.043       17310.839         388.485          47.500  
> 2018  4 22 11 21 50.2688020  0  7                     
G 1  23441074.005      111155.821        2023.777          48.000  
G 3  22041970.718      -44162.122        -786.965          37.750  
G11  24103027.495      105599.200        2031.989          45.250  
G17  21738891.860     -115512.175       -2300.799          50.250  
G19  22158973.084     -154903.834       -3154.565          43.250  
G22  23606658.149       39421.937         836.257          48.000  
G28  21327474.131       17349.786         390.607          47.250  
> 2018  4 22 11 21 50.3688020  0  7                     
G 1  23442944.433      111358.152        2023.361          48.250  
G 3  22043786.194      -44240.894        -788.567          38.000  
G11  24104898.210      105802.330        2032.074          45.000  
G17  21740679.658     -115742.298       -2301.310          50.250  
G19  22160744.965     -155219.373       -3156.226          43.250  
G22  23608505.311       39505.528         835.868          48.250  
G28  21329315.129       17388.748         390.314          47.500  
> 2018  4 22 11 21 50.4688020  0  7                     
G 1  23444814.315      111560.467        2022.697          48.250  
G 3  22045602.259      -44319.672        -788.482          37.500  
G11  24106768.404      106005.434        2031.065          45.000  
G17  21742467.327     -115972.424       -2301.703          50.500  
G19  22162517.277     -155534.906       -3156.000          43.500  
G22  23610352.629       39589.111         835.917          48.250  
G28  21331151.750       17427.711         389.657          47.500  
> 2018  4 22 11 21 50.5688020  0  7                     
G 1  23446683.887      111762.719        2023.315          48.000  
G 3  22047418.634      -44398.528        -788.856          38.250  
G11  24108638.797      106208.475        2030.833          45.000  
G17  21744254.438     -116202.616       -2301.370          50.500  
G19  22164288.814     -155850.508       -3154.843          43.250  
G22  23612200.279       39672.620         836.017          48.250  
G28  21332990.762       17466.599         389.954          47.500  
> 2018  4 22 11 21 50.6688020  0  7                     
G 1  23448554.647      111965.037        2022.878          48.000  
G 3  22049234.972      -44477.307        -786.678          37.750  
G11  24110508.785      106411.588        2031.409          45.000  
G17  21746042.829     -116432.756       -2301.580          50.250  
G19  22166060.323     -156166.056       -3155.917          43.250  
G22  23614047.993       39756.209         836.154          48.250  
G28  21334829.919       17505.553         389.413          47.250  
> 2018  4 22 11 21 50.7688020  0  7                     
G 1  23450424.641      112167.337        2022.881          48.250  
G 3  22051053.249      -44556.101        -788.375          37.750  
G11  24112379.058      106614.678        2031.374          45.250  
G17  21747830.557     -116662.904       -2301.922          50.500  
G19  22167831.600     -156481.608       -3155.783          43.000  
G22  23615896.006       39839.788         836.017          48.500  
G28  21336668.196       17544.515         389.292          47.500  
> 2018  4 22 11 21 50.8688020  0  7                     
G 1  23452294.189      112369.586        2022.131          48.250  
G 3  22052870.500      -44634.928        -788.124          38.250  
G11  24114249.004      106817.730        2030.455          45.250  
G17  21749617.913     -116893.099       -2302.649          50.500  
G19  22169603.533     -156797.224       -3157.212          43.250  
G22  23617743.767       39923.308         834.604          48.250  
G28  21338509.385       17583.409         388.937          47.500  
> 2018  4 22 11 21 50.9688020  0  7                     
G 1  23454164.313      112571.670        2020.141          47.750  
G 3  22054685.510      -44713.918        -789.383          37.250  
G11  24116119.743      107020.590        2027.838          44.500  
G17  21751405.769     -117123.468       -2304.280          49.750  
G19  22171374.517     -157113.008       -3160.368          43.000  
G22  23619591.117       40006.664         832.597          47.750  
G28  21340346.630       17622.148         386.777          47.250  
> 2018  4 22 11 21 51.0688020  0  7                     
G 1  23456034.139      112773.570        2019.003          47.750  
G 3  22056501.112      -44793.095        -791.692          37.750  
G11  24117988.648      107223.281        2025.862          44.500  
G17  21753193.147     -117354.014       -2306.256          49.750  
G19  22173145.941     -157428.943       -3161.005          42.750  
G22  23621437.643       40089.847         830.947          48.000  
G28  21342186.633       17660.706         384.798          47.000  
> 2018  4 22 11 21 51.1688020  0  7                     
G 1  23457904.224      112975.393        2018.341          48.000  
G 3  22058319.232      -44872.341        -791.174          38.500  
G11  24119858.941      107425.898        2026.612          45.000  
G17  21754980.577     -117584.636       -2305.746          50.250  
G19  22174918.187     -157744.962       -3159.988          43.250  
G22  23623284.806       40172.969         831.767          48.500  
G28  21344025.870       17699.197         385.802          47.250  
> 2018  4 22 11 21 51.2688020  0  7                     
G 1  23459773.701      113177.229        2018.701          48.250  
G 3  22060137.211      -44951.568        -791.310          37.750  
G11  24121728.873      107628.515        2026.280          45.000  
G17  21756768.832     -117815.248       -2306.053          50.250  
G19  22176689.166     -158060.977       -3160.681          43.500  
G22  23625132.937       40256.084         831.646          48.250  
G28  21345864.445       17737.700         384.487          47.500  
> 2018  4 22 11 21 51.3688020  0  7                     
G 1  23461644.648      113379.069        2017.986          48.000  
G 3  22061954.707      -45030.761        -792.299          37.750  
G11  24123599.363      107831.164        2026.448          44.750  
G17  21758556.591     -118045.841       -2305.590          50.250  
G19  22178459.949     -158376.987       -3161.088          43.250  
G22  23626980.315       40339.234         832.061          48.250  
G28  21347705.288       17776.233         385.082          47.250  
> 2018  4 22 11 21 51.4688020  0  7                     
G 1  23463513.851      113580.901        2018.676          48.500  
G 3  22063768.524      -45109.985        -791.181          38.000  
G11  24125469.521      108033.780        2026.200          45.250  
G17  21760344.449     -118276.465       -2305.835          50.500  
G19  22180232.022     -158693.016       -3160.458          43.500  
G22  23628827.883       40422.366         832.057          48.250  
G28  21349542.393       17814.733         385.204          47.250  
> 2018  4 22 11 21 51.5688020  0  7                     
G 1  23465384.308      113782.760        2018.758          48.250  
G 3  22065585.069      -45189.182        -791.839          38.000  
G11  24127339.815      108236.419        2027.793          45.250  
G17  21762132.057     -118507.041       -2305.553          50.500  
G19  22182002.881     -159009.001       -3159.487          43.500  
G22  23630676.198       40505.522         831.470          48.500  
G28  21351382.342       17853.282         386.320          47.500  
> 2018  4 22 11 21 51.6688020  0  7                     
G 1  23467254.301      113984.553        2018.163          48.250  
G 3  22067403.313      -45268.410        -790.163          38.250  
G11  24129209.592      108439.009        2025.625          45.000  
G17  21763919.808     -118737.690       -2306.445          50.500  
G19  22183774.173     -159325.071       -3160.758          43.500  
G22  23632523.982       40588.631         831.205          48.250  
G28  21353220.489       17891.762         384.528          47.500  
> 2018  4 22 11 21 51.7688020  0  7                     
G 1  23469124.479      114186.304        2016.836          48.250  
G 3  22069220.496      -45347.706        -792.695          38.000  
G11  24131080.346      108641.544        2024.274          45.000  
G17  21765707.121     -118968.386       -2306.905          50.500  
G19  22185546.560     -159641.166       -3161.902          43.250  
G22  23634371.088       40671.681         830.202          48.500  
G28  21355058.362       17930.205         384.975          47.500  
> 2018  4 22 11 21 51.8688020  0  7                     
G 1  23470993.715      114388.001        2017.132          48.250  
G 3  22071035.713      -45427.049        -793.712          37.750  
G11  24132949.545      108844.039        2024.724          45.250  
G17  21767494.564     -119199.121       -2307.750          50.500  
G19  22187317.585     -159957.296       -3162.846          43.500  
G22  23636217.483       40754.695         830.282          48.000  
G28  21356899.155       17968.607         384.266          47.750  
> 2018  4 22 11 21 51.9688020  0  7                     
G 1  23472864.544      114589.733        2017.988          47.750  
G 3  22072851.444      -45506.327        -792.969          37.000  
G11  24134818.868      109046.567        2025.661          44.750  
G17  21769282.586     -119429.832       -2307.240          50.250  
G19  22189088.953     -160273.416       -3161.293          43.250  
G22  23638064.687       40837.745         830.545          48.250  
G28  21358737.040       18007.027         384.178          47.250  
> 2018  4 22 11 21 52.0688020  0  7                     
G 1  23474734.409      114791.487        2018.116          48.000  
G 3  22074667.046      -45585.585        -791.386          38.250  
G11  24136689.535      109249.092        2025.553          45.000  
G17  21771069.926     -119660.526       -2306.754          50.500  
G19  22190860.753     -160589.502       -3159.485          43.250  
G22  23639912.429       40920.802         831.238          48.250  
G28  21360577.294       18045.470         384.570          47.500  
> 2018  4 22 11 21 52.1688020  0  7                     
G 1  23476604.529      114993.323        2018.325          48.250  
G 3  22076484.615      -45664.759        -790.871          38.000  
G11  24138559.539      109451.727        2026.546          44.750  
G17  21772857.844     -119891.122       -2305.954          50.500  
G19  22192631.863     -160905.514       -3160.009          43.500  
G22  23641760.055       41003.973         831.697          48.250  
G28  21362414.825       18084.023         385.614          47.250  
> 2018  4 22 11 21 52.2688020  0  7                     
G 1  23478473.783      115195.166        2018.854          48.250  
G 3  22078300.377      -45743.902        -789.891          37.750  
G11  24140430.156      109654.352        2027.156          45.000  
G17  21774645.763     -120121.720       -2306.436          50.250  
G19  22194403.874     -161221.510       -3160.441          43.250  
G22  23643607.254       41087.148         832.077          48.250  
G28  21364253.233       18122.591         385.940          47.500  
> 2018  4 22 11 21 52.3688020  0  7                     
G 1  23480343.723      115397.175        2022.399          48.000  
G 3  22080117.995      -45822.924        -788.615          38.250  
G11  24142300.392      109857.152        2029.954          44.500  
G17  21776434.333     -120352.150       -2302.206          50.000  
G19  22196173.974     -161537.354       -3156.076          43.500  
G22  23645454.855       41170.493         835.742          48.000  
G28  21366093.748       18161.311         389.763          47.250  
> 2018  4 22 11 21 52.4688020  0  7                     
G 1  23482213.108      115599.597        2024.935          48.000  
G 3  22081934.648      -45901.474        -784.695          38.250  
G11  24144170.998      110060.358        2032.873          44.500  
G17  21778222.108     -120582.166       -2299.648          50.250  
G19  22197946.259     -161852.765       -3154.077          42.750  
G22  23647301.714       41254.244         838.635          48.250  
G28  21367930.464       18200.445         391.533          47.250  
> 2018  4 22 11 21 52.5688020  0  7                     
G 1  23484083.522      115801.964        2022.514          48.250  
G 3  22083751.522      -45980.117        -787.872          38.000  
G11  24146040.939      110263.517        2031.316          44.750  
G17  21780009.192     -120812.234       -2302.273          50.500  
G19  22199718.491     -162168.219       -3156.324          43.500  
G22  23649148.781       41337.957         836.726          48.500  
G28  21369770.803       18239.546         390.065          47.500  
> 2018  4 22 11 21 52.6688020  0  7                     
G 1  23485953.722      116004.024        2019.724          48.000  
G 3  22085569.307      -46059.040        -791.255          37.250  
G11  24147911.339      110466.361        2027.170          44.750  
G17  21781796.975     -121042.596       -2304.901          50.250  
G19  22201488.242     -162484.006       -3158.931          43.250  
G22  23650997.134       41421.353         832.812          48.000  
G28  21371609.779       18278.338         387.506          47.500  
> 2018  4 22 11 21 52.7688020  0  7                     
G 1  23487824.095      116205.907        2018.467          48.000  
G 3  22087388.368      -46138.103        -790.277          38.000  
G11  24149781.436      110669.024        2026.039          45.000  
G17  21783584.825     -121273.144       -2306.340          50.250  
G19  22203259.602     -162799.969       -3159.921          43.250  
G22  23652844.415       41504.591         831.465          48.000  
G28  21373448.196       18316.951         385.732          47.250  
> 2018  4 22 11 21 52.8688020  0  7                     
G 1  23489694.632      116407.646        2017.519          48.000  
G 3  22089202.776      -46217.369        -792.734          38.750  
G11  24151651.057      110871.552        2024.839          44.750  
G17  21785372.042     -121503.848       -2307.490          50.500  
G19  22205031.878     -163116.085       -3161.849          43.250  
G22  23654692.202       41587.670         830.417          48.250  
G28  21375288.501       18355.413         384.082          47.500  
> 2018  4 22 11 21 52.9688020  0  7                     
G 1  23491564.930      116609.303        2015.761          48.000  
G 3  22091019.350      -46296.638        -793.243          37.750  
G11  24153521.818      111073.997        2023.647          45.000  
G17  21787160.121     -121734.624       -2308.318          50.500  
G19  22206803.394     -163432.244       -3162.892          43.500  
G22  23656540.234       41670.691         829.846          48.500  
G28  21377125.993       18393.821         383.792          47.500  
> 2018  4 22 11 21 53.0688020  0  7                     
G 1  23493434.283      116810.937        2017.090          48.250  
G 3  22092838.312      -46375.976        -793.029          38.250  
G11  24155391.486      111276.430        2025.277          45.000  
G17  21788947.454     -121965.415       -2307.340          50.500  
G19  22208575.110     -163748.425       -3161.964          43.250  
G22  23658387.318       41753.686         830.673          48.500  
G28  21378966.092       18432.208         384.405          47.500  
> 2018  4 22 11 21 53.1688020  0  7                     
G 1  23495304.434      117012.631        2016.196          48.250  
G 3  22094653.741      -46455.261        -792.964          38.000  
G11  24157261.884      111478.894        2023.813          44.750  
G17  21790735.053     -122196.155       -2307.840          50.500  
G19  22210346.266     -164064.576       -3161.659          43.500  
G22  23660234.687       41836.740         830.489          48.250  
G28  21380804.225       18470.642         384.770          47.250  
> 2018  4 22 11 21 53.2688020  0  7                     
G 1  23497175.199      117214.353        2017.177          48.250  
G 3  22096469.596      -46534.485        -791.544          38.000  
G11  24159132.762      111681.411        2025.088          45.000  
G17  21792523.137     -122426.852       -2306.604          50.500  
G19  22212117.323     -164380.673       -3160.813          43.750  
G22  23662081.797       41919.838         830.677          48.500  
G28  21382642.590       18509.127         385.021          47.500  
> 2018  4 22 11 21 53.3688020  0  7                     
G 1  23499044.863      117416.112        2017.158          48.250  
G 3  22098288.195      -46613.665        -791.124          38.250  
G11  24161003.186      111883.952        2025.879          44.750  
G17  21794310.829     -122657.527       -2306.988          50.500  
G19  22213889.157     -164696.762       -3161.712          43.500  
G22  23663929.233       42002.956         831.308          48.500  
G28  21384483.580       18547.642         385.031          47.500  
> 2018  4 22 11 21 53.4688020  0  7                     
G 1  23500914.671      117617.888        2018.404          48.500  
G 3  22100103.882      -46692.818        -791.228          38.000  
G11  24162872.569      112086.522        2026.455          45.000  
G17  21796098.985     -122888.174       -2306.336          50.500  
G19  22215661.042     -165012.800       -3160.450          43.750  
G22  23665776.166       42086.113         831.838          48.500  
G28  21386321.548       18586.190         386.504          47.500  
> 2018  4 22 11 21 53.5688020  0  7                     
G 1  23502784.276      117819.649        2017.783          48.250  
G 3  22101920.038      -46771.997        -791.611          38.250  
G11  24164743.109      112289.067        2025.453          45.000  
G17  21797886.583     -123118.843       -2307.171          50.500  
G19  22217431.812     -165328.870       -3161.322          43.500  
G22  23667622.924       42169.247         830.962          48.500  
G28  21388160.655       18624.699         385.069          47.500  
> 2018  4 22 11 21 53.6688020  0  7                     
G 1  23504654.394      118021.337        2016.632          48.250  
G 3  22103735.500      -46851.229        -792.823          38.250  
G11  24166613.157      112491.549        2024.702          45.000  
G17  21799674.014     -123349.581       -2307.732          50.500  
G19  22219203.619     -165645.019       -3161.802          43.500  
G22  23669470.274       42252.314         830.647          48.250  
G28  21389999.115       18663.170         384.489          47.500  
> 2018  4 22 11 21 53.7688020  0  7                     
G 1  23506524.573      118222.971        2015.938          48.250  
G 3  22105550.667      -46930.510        -793.247          38.000  
G11  24168482.918      112693.977        2023.908          44.750  
G17  21801461.401     -123580.365       -2308.715          50.500  
G19  22220973.848     -165961.195       -3162.459          43.750  
G22  23671318.510       42335.336         829.700          48.500  
G28  21391838.090       18701.580         383.592          47.750  
> 2018  4 22 11 21 53.8688020  0  7                     
G 1  23508394.060      118424.521        2014.729          48.250  
G 3  22107367.355      -47009.865        -793.207          38.000  
G11  24170354.226      112896.293        2021.869          45.000  
G17  21803248.970     -123811.250       -2310.039          50.500  
G19  22222745.586     -166277.483       -3164.030          43.500  
G22  23673165.910       42418.276         828.568          48.250  
G28  21393677.696       18739.902         382.984          47.500  
> 2018  4 22 11 21 53.9688020  0  7                     
G 1  23510263.059      118625.965        2013.581          48.250  
G 3  22109184.708      -47089.349        -796.152          37.750  
G11  24172222.830      113098.534        2022.414          44.750  
G17  21805036.309     -124042.225       -2309.965          50.500  
G19  22224518.028     -166593.866       -3165.119          43.750  
G22  23675012.200       42501.104         827.878          48.250  
G28  21395515.124       18778.126         381.529          47.500  
> 2018  4 22 11 21 54.0688020  0  7                     
G 1  23512133.317      118827.349        2015.028          48.000  
G 3  22111000.529      -47168.868        -794.672          38.000  
G11  24174093.050      113300.731        2034.116          45.000  
G17  21806823.593     -124273.269       -2310.350          50.500  
G19  22226288.997     -166910.296       -3164.418          43.500  
G22  23676859.603       42583.884         828.096          48.250  
G28  21397355.727       18816.303         382.420          47.500  
> 2018  4 22 11 21 54.1688020  0  7                     
G 1  23514003.504      119028.716        2014.165          48.000  
G 3  22112816.421      -47248.400        -794.768          38.000  
G11  24175962.723      113502.348        1966.119          44.750  
G17  21808610.994     -124504.319       -2310.237          50.500  
G19  22228060.167     -167226.760       -3164.032          43.500  
G22  23678707.337       42666.652         828.430          48.500  
G28  21399193.467       18854.458         382.646          47.500  
> 2018  4 22 11 21 54.2688020  0  7                     
G 1  23515873.258      119230.139        2014.626          48.000  
G 3  22114632.600      -47327.871        -795.374          38.000  
G11  24177832.198      113705.060        2022.351          44.750  
G17  21810398.622     -124735.314       -2309.747          50.500  
G19  22229831.902     -167543.164       -3163.453          43.750  
G22  23680555.014       42749.484         828.278          48.500  
G28  21401031.717       18892.681         381.868          47.500  
> 2018  4 22 11 21 54.3688020  0  7                     
G 1  23517743.112      119431.653        2016.363          48.250  
G 3  22116449.364      -47407.216        -791.756          38.500  
G11  24179702.074      113907.340        2024.601          44.750  
G17  21812186.090     -124966.221       -2308.157          50.500  
G19  22231604.121     -167859.455       -3162.531          43.750  
G22  23682402.732       42832.408         830.484          48.250  
G28  21402871.883       18931.002         384.629          47.500  
> 2018  4 22 11 21 54.4688020  0  7                     
G 1  23519612.754      119633.302        2016.753          48.250  
G 3  22118265.475      -47486.450        -791.267          38.000  
G11  24181572.854      114109.781        2024.706          45.000  
G17  21813973.894     -125196.984       -2307.169          50.500  
G19  22233374.711     -168175.619       -3161.356          43.500  
G22  23684250.244       42915.465         831.445          48.500  
G28  21404709.348       18969.457         384.997          47.500  
> 2018  4 22 11 21 54.5688020  0  7                     
G 1  23521483.227      119834.999        2017.659          48.250  
G 3  22120082.435      -47565.655        -792.097          37.750  
G11  24183444.344      114312.271        2025.901          44.750  
G17  21815761.609     -125427.713       -2307.272          50.750  
G19  22235145.160     -168491.735       -3161.447          43.500  
G22  23686098.007       42998.582         831.769          48.500  
G28  21406549.172       19007.967         385.344          47.750  
> 2018  4 22 11 21 54.6688020  0  7                     
G 1  23523352.756      120036.745        2017.987          48.250  
G 3  22121900.326      -47644.757        -789.505          38.000  
G11  24185315.064      114514.792        2026.496          45.000  
G17  21817550.276     -125658.384       -2306.017          50.500  
G19  22236917.282     -168807.818       -3160.346          43.750  
G22  23687945.355       43081.744         832.384          48.500  
G28  21408387.429       19046.517         386.428          47.500  
> 2018  4 22 11 21 54.7688020  0  7                     
G 1  23525222.567      120238.528        2018.536          48.250  
G 3  22123716.757      -47723.856        -791.529          38.250  
G11  24187185.259      114717.346        2025.027          44.750  
G17  21819338.386     -125889.019       -2306.537          50.500  
G19  22238688.741     -169123.859       -3161.117          43.750  
G22  23689792.788       43164.940         832.232          48.250  
G28  21410226.137       19085.119         386.085          47.750  
> 2018  4 22 11 21 54.8688020  0  7                     
G 1  23527092.681      120440.271        2018.392          48.250  
G 3  22125532.489      -47802.977        -791.844          38.250  
G11  24189055.447      114919.872        2025.563          44.750  
G17  21821126.241     -126119.702       -2307.244          50.500  
G19  22240459.999     -169439.929       -3161.833          43.250  
G22  23691639.293       43248.111         832.450          48.500  
G28  21412066.456       19123.678         385.644          47.500  
> 2018  4 22 11 21 54.9688020  0  7                     
G 1  23528963.877      120641.984        2016.828          48.500  
G 3  22127352.285      -47882.111        -791.864          38.250  
G11  24190925.531      115122.363        2023.772          45.000  
G17  21822913.911     -126350.397       -2307.790          50.500  
G19  22242231.823     -169756.042       -3162.279          43.750  
G22  23693486.575       43331.250         830.626          48.500  
G28  21413904.461       19162.211         384.724          47.500  
> 2018  4 22 11 21 55.0688020  0  7                     
G 1  23530833.447      120843.608        2016.208          48.250  
G 3  22129168.245      -47961.343        -793.486          38.000  
G11  24192795.528      115324.772        2023.521          45.000  
G17  21824701.206     -126581.191       -2308.745          50.500  
G19  22244001.623     -170072.226       -3163.454          43.750  
G22  23695334.104       43414.315         830.284          48.500  
G28  21415744.160       19200.664         384.655          47.500  
> 2018  4 22 11 21 55.1688020  0  7                     
G 1  23532703.644      121045.111        2014.651          48.250  
G 3  22130984.191      -48040.678        -793.244          38.000  
G11  24194665.523      115527.057        2022.677          45.000  
G17  21826488.208     -126812.092       -2309.603          50.500  
G19  22245772.984     -170388.517       -3163.344          43.500  
G22  23697181.403       43497.257         828.750          48.500  
G28  21417582.074       19239.006         383.175          47.500  
> 2018  4 22 11 21 55.2688020  0  7                     
G 1  23534574.030      121246.540        2014.227          48.000  
G 3  22132800.086      -48120.077        -794.532          37.500  
G11  24196535.363      115729.279        2021.437          44.750  
G17  21828276.013     -127043.077       -2310.243          50.500  
G19  22247545.342     -170704.910       -3164.686          43.500  
G22  23699028.760       43580.131         828.528          48.250  
G28  21419421.116       19277.280         382.290          47.500  
> 2018  4 22 11 21 55.3688020  0  7                     
G 1  23536444.097      121447.984        2014.526          48.000  
G 3  22134617.166      -48199.439        -792.860          38.500  
G11  24198404.648      115931.493        2022.268          44.750  
G17  21830063.489     -127274.048       -2309.647          50.500  
G19  22249316.931     -171021.275       -3163.721          43.500  
G22  23700876.624       43663.016         829.231          48.500  
G28  21421260.903       19315.562         382.783          47.500  
> 2018  4 22 11 21 55.4688020  0  7                     
G 1  23538313.385      121649.493        2015.743          48.250  
G 3  22136432.452      -48278.797        -793.487          38.250  
G11  24200274.539      116133.779        2022.264          44.500  
G17  21831851.156     -127504.954       -2308.960          50.500  
G19  22251087.859     -171337.582       -3163.566          43.500  
G22  23702723.422       43745.972         828.995          48.500  
G28  21423097.766       19353.913         383.415          47.500  
> 2018  4 22 11 21 55.5688020  0  7                     
G 1  23540182.811      121851.002        2015.679          48.250  
G 3  22138248.914      -48358.078        -793.393          38.750  
G11  24202143.952      116336.063        2022.704          44.750  
G17  21833638.856     -127735.858       -2309.220          50.500  
G19  22252860.926     -171653.874       -3162.601          43.750  
G22  23704569.924       43828.930         829.800          48.500  
G28  21424938.369       19392.277         383.867          47.750  
> 2018  4 22 11 21 55.6688020  0  7                     
G 1  23542052.640      122052.601        2016.674          48.000  
G 3  22140065.012      -48437.284        -792.318          38.250  
G11  24204014.195      116538.445        2023.508          45.000  
G17  21835426.151     -127966.660       -2307.875          50.750  
G19  22254632.094     -171970.079       -3161.878          43.500  
G22  23706417.391       43911.990         831.327          48.500  
G28  21426776.730       19430.734         385.829          47.250  
> 2018  4 22 11 21 55.7688020  0  7                     
G 1  23543922.694      122254.265        2016.577          48.250  
G 3  22141881.302      -48516.461        -791.918          38.250  
G11  24205885.045      116740.899        2023.918          44.750  
G17  21837213.830     -128197.412       -2308.310          50.750  
G19  22256404.455     -172286.233       -3162.537          43.500  
G22  23708265.169       43995.107         830.642          48.500  
G28  21428615.237       19469.255         384.690          47.750  
> 2018  4 22 11 21 55.8688020  0  7                     
G 1  23545793.031      122455.891        2016.887          48.250  
G 3  22143699.075      -48595.617        -790.578          38.000  
G11  24207755.466      116943.311        2024.234          45.000  
G17  21839001.218     -128428.193       -2308.110          50.250  
G19  22258175.847     -172602.412       -3162.076          43.750  
G22  23710112.704       44078.204         831.302          48.250  
G28  21430455.351       19507.737         384.854          47.500  
> 2018  4 22 11 21 55.9688020  0  7                     
G 1  23547663.048      122657.550        2017.067          48.000  
G 3  22145515.692      -48674.762        -791.518          38.250  
G11  24209626.210      117145.748        2025.011          44.500  
G17  21840789.448     -128658.943       -2307.472          50.500  
G19  22259947.123     -172918.546       -3160.771          43.750  
G22  23711960.626       44161.330         831.280          48.500  
G28  21432292.558       19546.270         385.250          47.250  
> 2018  4 22 11 21 56.0688020  0  7                     
G 1  23549532.748      122859.157        2016.110          48.250  
G 3  22147333.741      -48753.949        -791.855          38.500  
G11  24211495.484      117348.135        2024.251          44.500  
G17  21842576.961     -128889.734       -2308.301          50.500  
G19  22261720.072     -173234.745       -3163.162          43.750  
G22  23713808.140       44244.412         830.977          48.500  
G28  21434133.041       19584.758         385.202          47.500  
> 2018  4 22 11 21 56.1688020  0  7                     
G 1  23551402.323      123060.719        2016.326          48.250  
G 3  22149148.939      -48833.163        -790.761          37.750  
G11  24213365.044      117550.471        2023.204          45.000  
G17  21844364.521     -129120.579       -2308.563          50.500  
G19  22263491.615     -173550.993       -3162.240          44.000  
G22  23715654.764       44327.454         830.307          48.750  
G28  21435972.164       19623.187         384.204          47.750  
> 2018  4 22 11 21 56.2688020  0  7                     
G 1  23553271.935      123262.266        2015.747          48.250  
G 3  22150964.732      -48912.406        -794.023          37.750  
G11  24215235.558      117752.793        2022.874          45.000  
G17  21846152.567     -129351.447       -2309.114          50.500  
G19  22265263.664     -173867.251       -3162.810          43.750  
G22  23717502.083       44410.461         830.596          48.250  
G28  21437810.963       19661.608         383.604          47.750  
> 2018  4 22 11 21 56.3688020  0  7                     
G 1  23555141.638      123463.740        2015.566          47.750  
G 3  22152781.039      -48991.694        -792.407          38.750  
G11  24217105.152      117955.047        2023.224          44.750  
G17  21847939.777     -129582.382       -2309.354          50.750  
G19  22267035.114     -174183.576       -3163.253          43.750  
G22  23719349.009       44493.416         829.305          48.500  
G28  21439650.822       19699.963         383.205          47.500  
> 2018  4 22 11 21 56.4688020  0  7                     
G 1  23557010.988      123665.196        2013.362          48.250  
G 3  22154598.484      -49071.000        -793.510          38.250  
G11  24218975.417      118157.296        2021.767          44.750  
G17  21849728.007     -129813.311       -2309.980          50.750  
G19  22268806.160     -174499.901       -3163.127          43.750  
G22  23721197.208       44576.374         829.651          48.500  
G28  21441488.116       19738.334         382.860          47.750  
> 2018  4 22 11 21 56.5688020  0  7                     
G 1  23558880.957      123866.564        2014.261          48.000  
G 3  22156413.730      -49150.393        -793.483          38.250  
G11  24220845.907      118359.436        2021.364          44.750  
G17  21851515.910     -130044.348       -2310.253          50.750  
G19  22270577.402     -174816.341       -3164.405          43.750  
G22  23723044.492       44659.224         829.390          48.500  
G28  21443327.481       19776.587         383.257          47.500  
> 2018  4 22 11 21 56.6688020  0  7                     
G 1  23560751.161      124067.883        2013.564          48.000  
G 3  22158231.692      -49229.846        -794.961          38.250  
G11  24222715.060      118561.519        2020.037          44.750  
G17  21853303.828     -130275.438       -2310.909          50.750  
G19  22272349.606     -175132.834       -3165.911          43.500  
G22  23724892.625       44742.036         827.867          48.500  
G28  21445165.137       19814.795         382.625          47.250  
> 2018  4 22 11 21 56.7688020  0  7                     
G 1  23562621.277      124269.143        2012.439          48.250  
G 3  22160047.413      -49309.341        -794.991          39.000  
G11  24224584.439      118763.565        2019.770          44.750  
G17  21855091.621     -130506.575       -2311.400          50.750  
G19  22274122.421     -175449.365       -3166.455          43.750  
G22  23726740.285       44824.790         826.851          48.500  
G28  21447003.912       19852.955         381.411          47.750  
> 2018  4 22 11 21 56.8688020  0  7                     
G 1  23564491.546      124470.329        2010.856          48.250  
G 3  22161863.675      -49388.903        -796.539          38.500  
G11  24226454.224      118965.514        2018.650          44.750  
G17  21856879.292     -130737.795       -2313.176          50.750  
G19  22275892.018     -175765.981       -3167.096          43.750  
G22  23728587.463       44907.480         825.982          48.750  
G28  21448843.961       19891.043         380.433          47.750  
> 2018  4 22 11 21 56.9688020  0  7                     
G 1  23566361.681      124671.462        2011.253          48.250  
G 3  22163681.042      -49468.500        -794.545          38.750  
G11  24228325.108      119167.442        2019.255          44.750  
G17  21858666.362     -130969.053       -2311.847          50.750  
G19  22277663.609     -176082.649       -3166.717          43.750  
G22  23730433.893       44990.116         827.212          48.750  
G28  21450681.498       19929.089         379.852          47.500  
> 2018  4 22 11 21 57.0688020  0  7                     
G 1  23568232.202      124872.582        2012.161          48.250  
G 3  22165497.037      -49548.127        -795.669          39.000  
G11  24230194.960      119369.324        2019.177          44.750  
G17  21860454.031     -131200.351       -2313.220          50.750  
G19  22279433.883     -176399.320       -3167.302          44.000  
G22  23732281.655       45072.732         826.439          48.750  
G28  21452521.667       19967.106         380.446          47.750  
> 2018  4 22 11 21 57.1688020  0  7                     
G 1  23570102.312      125073.599        2009.175          48.000  
G 3  22167312.183      -49627.844        -796.807          39.250  
G11  24232065.195      119571.145        2017.809          44.500  
G17  21862241.363     -131431.718       -2314.125          50.750  
G19  22281205.016     -176716.102       -3167.595          44.000  
G22  23734128.866       45155.272         825.072          48.750  
G28  21454360.062       20005.052         379.528          47.500  
> 2018  4 22 11 21 57.2688020  0  7                     
G 1  23571972.439      125274.612        2009.877          48.000  
G 3  22169130.217      -49707.548        -797.757          38.750  
G11  24233935.027      119772.907        2016.513          44.500  
G17  21864029.555     -131663.109       -2314.528          50.750  
G19  22282976.134     -177032.893       -3168.820          44.000  
G22  23735976.696       45237.798         824.333          48.500  
G28  21456198.429       20042.980         378.574          47.500  
> 2018  4 22 11 21 57.3688020  0  7                     
G 1  23573841.945      125475.590        2009.253          48.250  
G 3  22170948.678      -49787.309        -799.779          38.250  
G11  24235804.817      119974.673        2018.085          44.750  
G17  21865816.888     -131894.521       -2314.232          50.750  
G19  22284748.170     -177349.679       -3168.878          43.500  
G22  23737823.755       45320.296         824.843          48.750  
G28  21458038.378       20080.897         378.473          47.500  
> 2018  4 22 11 21 57.4688020  0  7                     
G 1  23575711.478      125676.516        2009.225          48.250  
G 3  22172766.067      -49867.072        -797.378          38.250  
G11  24237674.408      120176.371        2017.696          44.250  
G17  21867604.991     -132125.996       -2314.905          50.750  
G19  22286518.377     -177666.549       -3168.313          44.250  
G22  23739671.465       45402.740         823.952          48.750  
G28  21459875.273       20118.752         378.289          47.750  
> 2018  4 22 11 21 57.5688020  0  7                     
G 1  23577581.551      125877.442        2009.297          48.250  
G 3  22174581.461      -49946.855        -798.995          38.500  
G11  24239544.377      120378.063        2017.204          44.500  
G17  21869392.591     -132357.474       -2315.435          50.750  
G19  22288291.510     -177983.442       -3168.922          44.250  
G22  23741518.387       45485.197         824.670          48.750  
G28  21461714.990       20156.594         378.460          47.750  
> 2018  4 22 11 21 57.6688020  0  7                     
G 1  23579450.876      126078.348        2008.950          48.250  
G 3  22176396.980      -50026.642        -796.977          38.000  
G11  24241414.918      120579.749        2016.534          44.500  
G17  21871180.097     -132588.954       -2315.211          50.500  
G19  22290062.111     -178300.303       -3168.848          44.000  
G22  23743365.974       45567.631         824.326          48.250  
G28  21463553.716       20194.442         378.790          47.500  
> 2018  4 22 11 21 57.7688020  0  7                     
G 1  23581320.831      126279.274        2009.375          47.750  
G 3  22178213.219      -50106.422        -797.058          38.500  
G11  24243286.226      120781.462        2016.646          44.000  
G17  21872968.141     -132820.407       -2314.792          50.500  
G19  22291833.522     -178617.170       -3169.159          43.500  
G22  23745213.001       45650.106         824.827          48.250  
G28  21465392.846       20232.324         378.503          47.250  
> 2018  4 22 11 21 57.8688020  0  7                     
G 1  23583190.555      126480.220        2010.293          48.250  
G 3  22180029.376      -50186.182        -797.912          38.500  
G11  24245155.096      120983.176        2017.274          44.500  
G17  21874755.942     -133051.860       -2313.909          50.750  
G19  22293605.518     -178934.002       -3169.073          43.500  
G22  23747060.274       45732.572         825.655          48.500  
G28  21467232.968       20270.211         379.961          47.500  
> 2018  4 22 11 21 57.9688020  0  7                     
G 1  23585060.539      126681.175        2010.430          48.250  
G 3  22181847.092      -50265.888        -796.486          38.500  
G11  24247025.916      121184.895        2017.453          44.750  
G17  21876544.007     -133283.299       -2314.051          51.000  
G19  22295375.952     -179250.841       -3168.434          44.000  
G22  23748907.644       45815.067         825.083          48.750  
G28  21469069.397       20308.124         379.611          47.750  
> 2018  4 22 11 21 58.0688020  0  7                     
G 1  23586930.312      126882.163        2010.141          48.250  
G 3  22183663.180      -50345.589        -797.667          38.500  
G11  24248895.491      121386.674        2017.476          44.500  
G17  21878331.244     -133514.702       -2314.137          51.000  
G19  22297147.741     -179567.624       -3167.701          43.750  
G22  23750755.120       45897.604         824.652          48.750  
G28  21470908.605       20346.068         379.128          47.750  
> 2018  4 22 11 21 58.1688020  0  7                     
G 1  23588799.817      127083.204        2011.313          48.250  
G 3  22185479.359      -50425.206        -795.652          38.500  
G11  24250765.610      121588.489        2018.226          44.750  
G17  21880118.269     -133746.054       -2313.260          50.750  
G19  22298917.919     -179884.381       -3167.480          44.250  
G22  23752602.866       45980.203         826.594          48.750  
G28  21472748.742       20384.059         380.461          47.500  
> 2018  4 22 11 21 58.2688020  0  7                     
G 1  23590669.393      127284.260        2011.426          48.250  
G 3  22187295.241      -50504.835        -795.008          38.750  
G11  24252636.203      121790.319        2019.114          44.500  
G17  21881905.807     -133977.385       -2313.423          51.000  
G19  22300689.304     -180201.103       -3167.801          44.000  
G22  23754449.354       46062.801         826.792          48.750  
G28  21474586.974       20422.084         380.706          47.750  
> 2018  4 22 11 21 58.3688020  0  7                     
G 1  23592539.816      127485.377        2012.041          48.250  
G 3  22189112.116      -50584.388        -794.521          38.500  
G11  24254506.690      121992.202        2018.942          44.500  
G17  21883693.133     -134208.663       -2312.720          51.000  
G19  22302460.841     -180517.775       -3165.939          44.000  
G22  23756296.608       46145.477         827.034          48.500  
G28  21476426.823       20460.161         381.107          47.750  
> 2018  4 22 11 21 58.4688020  0  7                     
G 1  23594409.685      127686.583        2012.520          48.000  
G 3  22190930.914      -50663.831        -794.110          38.250  
G11  24256375.974      122194.185        2019.890          44.500  
G17  21885481.355     -134439.835       -2311.616          50.750  
G19  22304232.362     -180834.342       -3165.974          44.250  
G22  23758143.816       46228.242         828.266          48.250  
G28  21478263.556       20498.348         383.053          47.250  
> 2018  4 22 11 21 58.5688020  0  7                     
G 1  23596279.308      127887.878        2013.388          47.750  
G 3  22192745.539      -50743.173        -793.580          38.500  
G11  24258245.630      122396.269        2021.845          44.500  
G17  21887268.946     -134670.926       -2310.682          50.750  
G19  22306003.954     -181150.813       -3164.393          44.000  
G22  23759990.813       46311.106         829.378          48.500  
G28  21480103.155       20536.619         383.348          47.500  
> 2018  4 22 11 21 58.6688020  0  7                     
G 1  23598149.094      128089.238        2013.446          48.000  
G 3  22194562.383      -50822.465        -794.055          38.000  
G11  24260114.892      122598.394        2021.991          44.500  
G17  21889056.265     -134901.958       -2310.408          50.750  
G19  22307775.511     -181467.255       -3165.167          43.750  
G22  23761838.378       46394.027         829.182          48.750  
G28  21481942.820       20574.941         383.272          47.250  
> 2018  4 22 11 21 58.7688020  0  7                     
G 1  23600018.844      128290.629        2014.488          48.000  
G 3  22196378.479      -50901.720        -791.883          38.750  
G11  24261984.988      122800.562        2022.353          44.750  
G17  21890844.348     -135132.949       -2309.252          51.000  
G19  22309546.684     -181783.626       -3163.870          44.000  
G22  23763686.076       46477.003         830.783          48.750  
G28  21483780.706       20613.334         383.991          47.750  
> 2018  4 22 11 21 58.8688020  0  7                     
G 1  23601888.334      128492.085        2014.553          48.250  
G 3  22198195.563      -50980.884        -790.956          38.500  
G11  24263855.051      123002.789        2022.535          44.750  
G17  21892631.769     -135363.879       -2309.749          51.000  
G19  22311318.475     -182099.958       -3163.328          44.000  
G22  23765534.008       46560.018         830.140          48.750  
G28  21485621.709       20651.778         384.201          47.500  
> 2018  4 22 11 21 58.9688020  0  7                     
G 1  23603758.178      128693.594        2015.369          48.000  
G 3  22200010.761      -51060.017        -791.884          38.500  
G11  24265724.059      123205.075        2022.453          44.750  
G17  21894419.216     -135594.749       -2308.576          50.750  
G19  22313089.045     -182416.221       -3162.229          44.000  
G22  23767382.519       46643.110         831.028          48.500  
G28  21487459.000       20690.281         385.819          47.500  
> 2018  4 22 11 21 59.0688020  0  7                     
G 1  23605628.131      128895.147        2015.352          48.000  
G 3  22201824.880      -51139.096        -790.783          38.250  
G11  24267594.016      123407.372        2022.117          44.250  
G17  21896206.750     -135825.594       -2308.861          50.750  
G19  22314859.684     -182732.454       -3163.110          44.000  
G22  23769228.324       46726.239         831.224          48.500  
G28  21489298.875       20728.815         384.609          47.500  
> 2018  4 22 11 21 59.1688020  0  7                     
G 1  23607497.594      129096.637        2014.986          48.000  
G 3  22203642.025      -51218.218        -792.524          38.250  
G11  24269464.299      123609.647        2022.505          44.500  
G17  21897993.679     -136056.476       -2309.087          51.000  
G19  22316632.059     -183048.732       -3163.179          44.250  
G22  23771075.929       46809.314         830.653          48.750  
G28  21491137.246       20767.311         384.373          47.750  
> 2018  4 22 11 21 59.2688020  0  7                     
G 1  23609367.581      129298.037        2013.856          48.000  
G 3  22205455.925      -51297.426        -792.420          38.500  
G11  24271334.267      123811.823        2021.333          44.500  
G17  21899781.410     -136287.453       -2310.129          50.750  
G19  22318403.841     -183365.095       -3164.031          44.500  
G22  23772922.220       46892.310         830.051          48.750  
G28  21492975.074       20805.729         384.145          47.750  
> 2018  4 22 11 21 59.3688020  0  7                     
G 1  23611237.715      129499.390        2013.212          48.000  
G 3  22207271.746      -51376.703        -794.008          38.500  
G11  24273204.297      124013.927        2021.055          44.500  
G17  21901569.086     -136518.494       -2310.494          51.000  
G19  22320175.611     -183681.530       -3163.678          44.000  
G22  23774769.779       46975.247         829.560          48.500  
G28  21494816.352       20844.072         383.439          47.750  
> 2018  4 22 11 21 59.4688020  0  7                     
G 1  23613107.585      129700.719        2014.113          47.750  
G 3  22209087.788      -51455.960        -792.621          38.750  
G11  24275074.982      124216.044        2021.903          44.500  
G17  21903357.244     -136749.544       -2310.322          50.750  
G19  22321946.785     -183997.964       -3164.901          44.000  
G22  23776617.554       47058.172         829.501          48.500  
G28  21496652.459       20882.424         384.004          47.250  
> 2018  4 22 11 21 59.5688020  0  7                     
G 1  23614977.258      129902.068        2014.483          47.750  
G 3  22210902.871      -51535.221        -792.063          38.500  
G11  24276945.822      124418.162        2022.297          44.750  
G17  21905145.181     -136980.565       -2310.082          51.000  
G19  22323719.053     -184314.384       -3164.257          44.000  
G22  23778465.294       47141.128         830.330          48.750  
G28  21498491.280       20920.790         384.635          47.750  
> 2018  4 22 11 21 59.6688020  0  7                     
G 1  23616847.681      130103.489        2014.070          48.250  
G 3  22212720.920      -51614.363        -790.864          38.250  
G11  24278815.660      124620.350        2021.244          44.500  
G17  21906933.084     -137211.534       -2310.327          51.000  
G19  22325490.575     -184630.737       -3164.383          44.250  
G22  23780312.703       47224.148         829.875          48.500  
G28  21500331.036       20959.223         383.635          47.500  
> 2018  4 22 11 21 59.7688020  0  7                     
G 1  23618717.107      130304.868        2014.028          48.000  
G 3  22214538.559      -51693.582        -792.812          38.500  
G11  24280685.066      124822.527        2022.504          44.500  
G17  21908721.364     -137442.517       -2310.553          50.750  
G19  22327261.030     -184947.111       -3163.482          44.250  
G22  23782159.808       47307.145         830.338          48.750  
G28  21502168.963       20997.642         384.172          47.500  
> 2018  4 22 11 21 59.8688020  0  7                     
G 1  23620586.476      130506.250        2013.740          48.250  
G 3  22216355.038      -51772.785        -792.615          38.250  
G11  24282556.220      125024.654        2021.375          44.500  
G17  21910509.279     -137673.529       -2309.717          51.000  
G19  22329032.967     -185263.530       -3163.080          44.500  
G22  23784006.771       47390.126         830.339          48.500  
G28  21504010.182       21036.034         384.076          47.750  
> 2018  4 22 11 21 59.9688020  0  7                     
G 1  23622456.411      130707.621        2013.619          47.750  
G 3  22218172.339      -51851.980        -791.728          38.500  
G11  24284426.946      125226.792        2020.354          44.750  
G17  21912296.937     -137904.528       -2310.421          51.000  
G19  22330804.704     -185579.915       -3165.249          43.750  
G22  23785853.582       47473.105         830.036          48.750  
G28  21505847.275       21074.452         384.042          47.500  
> 2018  4 22 11 22  0.0688020  0  7                     
G 1  23624326.344      130908.984        2012.897          48.000  
G 3  22219988.788      -51931.192        -792.884          38.750  
G11  24286297.090      125428.733        2018.558          44.750  
G17  21914084.277     -138135.539       -2310.023          51.250  
G19  22332575.840     -185896.320       -3165.021          44.250  
G22  23787701.047       47556.096         829.708          48.750  
G28  21507686.262       21112.846         383.784          47.500  
> 2018  4 22 11 22  0.1688020  0  7                     
G 1  23626196.398      131110.358        2012.541          48.000  
G 3  22221807.975      -52010.380        -793.263          38.750  
G11  24288167.619      125631.079        2022.024          44.500  
G17  21915871.265     -138366.544       -2310.486          51.000  
G19  22334346.202     -186212.692       -3164.404          44.250  
G22  23789548.794       47639.079         829.039          48.750  
G28  21509525.698       21151.264         383.854          47.500  
> 2018  4 22 11 22  0.2688020  0  7                     
G 1  23628065.966      131311.708        2013.254          48.000  
G 3  22223624.516      -52089.550        -790.766          38.500  
G11  24290036.774      125833.202        2021.620          44.500  
G17  21917658.942     -138597.562       -2310.903          51.250  
G19  22336117.633     -186529.130       -3165.217          44.500  
G22  23791397.019       47722.072         829.091          48.750  
G28  21511364.147       21189.673         383.321          47.750  
> 2018  4 22 11 22  0.3688020  0  7                     
G 1  23629935.848      131513.060        2013.927          47.750  
G 3  22225441.301      -52168.774        -792.165          38.250  
G11  24291906.771      126035.308        2021.507          44.500  
G17  21919446.377     -138828.585       -2309.778          51.000  
G19  22337889.051     -186845.534       -3164.519          44.000  
G22  23793244.855       47805.053         830.625          48.750  
G28  21513205.218       21228.058         383.614          47.500  
> 2018  4 22 11 22  0.4688020  0  7                     
G 1  23631805.236      131714.428        2012.501          47.750  
G 3  22227257.337      -52247.923        -791.154          38.250  
G11  24293775.770      126237.455        2021.271          44.500  
G17  21921233.801     -139059.587       -2310.992          51.000  
G19  22339659.363     -187161.912       -3164.335          44.250  
G22  23795092.082       47888.056         829.163          48.750  
G28  21515042.313       21266.496         383.454          47.750  
> 2018  4 22 11 22  0.5688020  0  7                     
G 1  23633674.760      131915.786        2014.750          47.750  
G 3  22229070.822      -52327.144        -791.604          39.000  
G11  24295645.618      126439.571        2021.006          44.500  
G17  21923021.583     -139290.609       -2310.186          51.250  
G19  22341430.733     -187478.327       -3163.331          44.250  
G22  23796938.120       47971.051         830.142          48.750  
G28  21516881.174       21304.901         384.885          47.500  
> 2018  4 22 11 22  0.6688020  0  7                     
G 1  23635544.902      132117.147        2014.040          48.000  
G 3  22230886.302      -52406.321        -791.448          38.000  
G11  24297514.734      126641.709        2021.936          44.250  
G17  21924809.135     -139521.622       -2309.362          51.250  
G19  22343202.098     -187794.728       -3163.992          44.000  
G22  23798784.959       48054.032         830.278          48.500  
G28  21518720.497       21343.326         384.874          47.750  
> 2018  4 22 11 22  0.7688020  0  7                     
G 1  23637415.706      132318.545        2014.118          47.500  
G 3  22232703.473      -52485.437        -791.451          38.000  
G11  24299385.558      126843.883        2022.232          44.000  
G17  21926597.143     -139752.585       -2310.054          50.500  
G19  22344973.877     -188111.072       -3163.397          44.000  
G22  23800632.562       48137.081         829.454          48.500  
G28  21520559.196       21381.805         384.678          47.250  
> 2018  4 22 11 22  0.8688020  0  7                     
G 1  23639285.277      132519.910        2014.092          48.000  
G 3  22234520.573      -52564.610        -792.344          38.750  
G11  24301255.337      127046.013        2021.985          44.250  
G17  21928384.911     -139983.593       -2309.993          51.250  
G19  22346745.498     -188427.480       -3163.865          43.750  
G22  23802480.418       48220.099         830.332          48.750  
G28  21522399.769       21420.240         384.927          47.500  
> 2018  4 22 11 22  0.9688020  0  7                     
G 1  23641155.405      132721.270        2013.421          47.750  
G 3  22236335.681      -52643.757        -791.937          39.000  
G11  24303124.755      127248.135        2021.275          44.500  
G17  21930172.665     -140214.601       -2310.465          51.250  
G19  22348517.990     -188743.878       -3164.677          44.250  
G22  23804327.958       48303.113         830.137          48.750  
G28  21524236.821       21458.672         383.925          47.750  
> 2018  4 22 11 22  1.0688020  0  7                     
G 1  23643025.357      132922.625        2014.008          48.000  
G 3  22238152.356      -52722.902        -791.231          38.500  
G11  24304995.326      127450.243        2020.793          44.500  
G17  21931960.528     -140445.614       -2310.122          51.250  
G19  22350290.009     -189060.280       -3163.942          44.250  
G22  23806176.360       48386.123         830.360          48.750  
G28  21526075.730       21497.096         384.320          47.500  
> 2018  4 22 11 22  1.1688020  0  7                     
G 1  23644896.210      133124.015        2013.628          48.000  
G 3  22239969.625      -52802.028        -791.766          38.750  
G11  24306865.137      127652.405        2021.439          44.500  
G17  21933747.964     -140676.588       -2310.096          51.250  
G19  22352061.959     -189376.645       -3163.364          44.500  
G22  23808023.179       48469.181         830.332          49.000  
G28  21527915.792       21535.570         384.213          47.750  
> 2018  4 22 11 22  1.2688020  0  7                     
G 1  23646766.072      133325.390        2014.016          48.000  
G 3  22241786.202      -52881.157        -791.303          38.750  
G11  24308735.530      127854.552        2021.557          44.750  
G17  21935536.119     -140907.576       -2309.921          51.000  
G19  22353832.828     -189693.012       -3163.119          44.500  
G22  23809870.413       48552.219         831.016          49.000  
G28  21529753.244       21574.041         384.986          47.750  
> 2018  4 22 11 22  1.3688020  0  7                     
G 1  23648634.960      133526.764        2013.198          48.000  
G 3  22243604.847      -52960.261        -790.970          38.500  
G11  24310605.373      128056.700        2021.070          44.500  
G17  21937323.586     -141138.569       -2310.608          51.250  
G19  22355605.121     -190009.406       -3164.219          44.250  
G22  23811717.595       48635.255         830.364          48.750  
G28  21531593.247       21612.502         383.998          47.750  
> 2018  4 22 11 22  1.4688020  0  7                     
G 1  23650504.413      133728.147        2014.341          48.000  
G 3  22245421.890      -53039.378        -791.240          38.500  
G11  24312475.140      128258.845        2020.647          44.250  
G17  21939111.044     -141369.553       -2310.130          51.000  
G19  22357375.198     -190325.766       -3164.512          44.250  
G22  23813565.391       48718.305         830.786          48.750  
G28  21533430.914       21650.985         384.288          47.750  
> 2018  4 22 11 22  1.5688020  0  7                     
G 1  23652373.904      133929.496        2013.633          47.750  
G 3  22247239.874      -53118.508        -791.566          38.750  
G11  24314345.641      128460.955        2020.103          44.500  
G17  21940898.592     -141600.565       -2310.320          51.250  
G19  22359146.814     -190642.181       -3164.227          44.250  
G22  23815412.455       48801.332         830.365          48.750  
G28  21535270.241       21689.436         384.591          47.500  
> 2018  4 22 11 22  1.6688020  0  7                     
G 1  23654243.909      134130.863        2013.708          48.000  
G 3  22249057.821      -53197.611        -790.423          38.500  
G11  24316215.768      128663.094        2021.819          44.500  
G17  21942685.574     -141831.564       -2309.898          51.000  
G19  22360919.205     -190958.552       -3163.963          44.250  
G22  23817260.136       48884.367         830.663          48.750  
G28  21537109.284       21727.901         385.390          47.500  
> 2018  4 22 11 22  1.7688020  0  7                     
G 1  23656115.067      134332.244        2013.651          48.000  
G 3  22250874.258      -53276.714        -789.615          38.250  
G11  24318085.771      128865.241        2021.003          44.000  
G17  21944473.414     -142062.537       -2309.764          51.000  
G19  22362690.462     -191274.925       -3164.254          44.500  
G22  23819107.751       48967.441         830.127          48.500  
G28  21538947.964       21766.408         384.563          47.500  
> 2018  4 22 11 22  1.8688020  0  7                     
G 1  23657984.769      134533.648        2014.106          47.750  
G 3  22252690.318      -53355.773        -789.122          38.750  
G11  24319955.834      129067.422        2022.696          44.000  
G17  21946260.709     -142293.492       -2309.386          51.000  
G19  22364461.084     -191591.254       -3163.101          43.750  
G22  23820955.020       49050.537         831.249          48.750  
G28  21540788.814       21804.927         385.632          47.500  
> 2018  4 22 11 22  1.9688020  0  7                     
G 1  23659854.328      134735.091        2014.815          47.750  
G 3  22254505.262      -53434.786        -790.396          38.500  
G11  24321827.103      129269.627        2022.840          44.250  
G17  21948048.081     -142524.412       -2309.016          51.000  
G19  22366232.044     -191907.576       -3163.338          44.250  
G22  23822801.598       49133.662         831.222          48.750  
G28  21542626.235       21843.483         385.572          47.500  
> 2018  4 22 11 22  2.0688020  0  7                     
G 1  23661724.132      134936.606        2015.098          47.750  
G 3  22256322.158      -53513.737        -790.412          38.750  
G11  24323696.687      129471.895        2022.608          44.250  
G17  21949836.589     -142755.268       -2308.910          51.250  
G19  22368003.949     -192223.797       -3162.711          44.250  
G22  23824648.235       49216.874         832.191          48.750  
G28  21544465.995       21882.113         386.036          47.750  
> 2018  4 22 11 22  2.1688020  0  7                     
G 1  23663594.194      135138.062        2015.402          48.000  
G 3  22258138.465      -53592.722        -788.221          38.500  
G11  24325566.007      129674.112        2023.482          44.500  
G17  21951624.287     -142986.178       -2308.839          51.250  
G19  22369774.686     -192540.084       -3162.496          44.000  
G22  23826496.075       49300.015         832.011          49.000  
G28  21546304.443       21920.681         386.120          47.750  
> 2018  4 22 11 22  2.2688020  0  7                     
G 1  23665463.956      135339.524        2014.914          47.750  
G 3  22259954.783      -53671.729        -790.064          38.500  
G11  24327436.500      129876.352        2022.689          44.000  
G17  21953412.659     -143217.063       -2308.761          51.000  
G19  22371546.619     -192856.383       -3162.933          44.500  
G22  23828343.444       49383.184         832.370          48.500  
G28  21548142.854       21959.294         386.321          47.500  
> 2018  4 22 11 22  2.3688020  0  7                     
G 1  23667334.336      135541.028        2014.635          48.000  
G 3  22261770.437      -53750.658        -789.554          38.750  
G11  24329306.469      130078.617        2023.557          44.000  
G17  21955199.832     -143447.910       -2308.750          51.000  
G19  22373319.202     -193172.602       -3163.095          43.750  
G22  23830190.954       49466.394         832.281          48.750  
G28  21549983.298       21997.924         386.362          47.250  
> 2018  4 22 11 22  2.4688020  0  7                     
G 1  23669204.302      135742.512        2015.139          48.000  
G 3  22263588.632      -53829.580        -788.826          39.000  
G11  24331176.562      130280.867        2023.438          44.000  
G17  21956987.161     -143678.782       -2309.375          51.250  
G19  22375088.552     -193488.857       -3162.978          44.500  
G22  23832038.822       49549.586         831.832          49.000  
G28  21551820.021       22036.558         385.854          47.500  
> 2018  4 22 11 22  2.5688020  0  7                     
G 1  23671074.636      135944.055        2015.522          48.000  
G 3  22265404.513      -53908.481        -787.417          38.500  
G11  24333046.513      130483.175        2024.089          44.000  
G17  21958775.342     -143909.596       -2308.153          51.000  
G19  22376860.467     -193805.058       -3162.287          44.000  
G22  23833886.646       49632.839         832.225          48.250  
G28  21553658.949       22075.225         386.708          47.750  
> 2018  4 22 11 22  2.6688020  0  7                     
G 1  23672944.615      136145.585        2015.445          47.750  
G 3  22267221.132      -53987.365        -787.063          39.000  
G11  24334916.298      130685.466        2023.121          44.000  
G17  21960562.982     -144140.414       -2308.053          51.000  
G19  22378631.799     -194121.254       -3161.812          44.000  
G22  23835732.961       49716.094         832.851          48.750  
G28  21555498.063       22113.918         387.045          47.250  
> 2018  4 22 11 22  2.7688020  0  7                     
G 1  23674814.161      136347.179        2016.554          48.000  
G 3  22269037.162      -54066.185        -787.656          38.750  
G11  24336786.239      130887.822        2024.197          44.000  
G17  21962351.149     -144371.180       -2306.862          51.250  
G19  22380402.401     -194437.421       -3161.636          44.500  
G22  23837580.428       49799.391         833.677          48.750  
G28  21557336.089       22152.663         388.387          47.500  
> 2018  4 22 11 22  2.8688020  0  7                     
G 1  23676684.616      136548.784        2016.238          48.000  
G 3  22270853.090      -54144.998        -788.595          38.750  
G11  24338656.269      131090.193        2024.632          44.000  
G17  21964138.880     -144601.923       -2307.581          51.250  
G19  22382174.736     -194753.541       -3161.741          44.500  
G22  23839427.583       49882.727         833.363          48.750  
G28  21559176.255       22191.421         387.594          47.750  
> 2018  4 22 11 22  2.9688020  0  7                     
G 1  23678554.668      136750.369        2016.350          48.000  
G 3  22272670.093      -54223.818        -787.377          38.750  
G11  24340526.902      131292.539        2023.254          44.250  
G17  21965926.778     -144832.694       -2307.549          51.000  
G19  22383946.438     -195069.689       -3161.509          44.500  
G22  23841275.249       49966.035         833.505          48.500  
G28  21561013.991       22230.169         388.108          47.750  
> 2018  4 22 11 22  3.0688020  0  7                     
G 1  23680424.092      136951.986        2015.408          47.750  
G 3  22274487.661      -54302.595        -788.001          38.750  
G11  24342397.986      131494.911        2023.450          43.500  
G17  21967714.519     -145063.430       -2307.817          51.000  
G19  22385717.738     -195385.823       -3161.175          44.250  
G22  23843122.866       50049.386         833.292          48.750  
G28  21562853.048       22268.938         387.469          47.500  
> 2018  4 22 11 22  3.1688020  0  7                     
G 1  23682293.545      137153.580        2015.824          48.000  
G 3  22276304.084      -54381.393        -787.493          38.750  
G11  24344267.453      131697.264        2023.063          44.250  
G17  21969501.961     -145294.193       -2307.736          51.250  
G19  22387487.780     -195701.968       -3161.444          44.250  
G22  23844971.276       50132.699         832.823          48.750  
G28  21564692.921       22307.694         387.904          48.000  
> 2018  4 22 11 22  3.2688020  0  7                     
G 1  23684163.411      137355.120        2015.921          48.000  
G 3  22278121.489      -54460.251        -788.534          38.750  
G11  24346138.424      131899.574        2023.401          44.250  
G17  21971289.686     -145524.995       -2307.812          51.250  
G19  22389259.138     -196018.150       -3161.631          44.250  
G22  23846819.348       50215.997         832.730          48.750  
G28  21566531.317       22346.426         387.956          47.750  
> 2018  4 22 11 22  3.3688020  0  7                     
G 1  23686033.362      137556.593        2014.785          48.000  
G 3  22279937.586      -54539.146        -788.475          39.250  
G11  24348008.670      132101.819        2022.520          44.000  
G17  21973077.050     -145755.875       -2309.128          51.250  
G19  22391031.176     -196334.413       -3163.653          44.250  
G22  23848667.870       50299.210         832.107          49.000  
G28  21568371.258       22385.066         386.377          47.750  
> 2018  4 22 11 22  3.4688020  0  7                     
G 1  23687903.246      137758.051        2014.804          48.000  
G 3  22281754.586      -54618.077        -788.228          39.250  
G11  24349879.234      132304.019        2021.679          44.000  
G17  21974864.529     -145986.763       -2309.129          51.250  
G19  22392801.405     -196650.690       -3162.619          44.500  
G22  23850514.579       50382.417         832.108          48.750  
G28  21570209.106       22423.712         386.304          47.750  
> 2018  4 22 11 22  3.5688020  0  7                     
G 1  23689772.955      137959.532        2015.198          48.000  
G 3  22283571.711      -54696.980        -789.084          38.500  
G11  24351748.675      132506.264        2022.867          44.250  
G17  21976652.382     -146217.632       -2308.245          51.250  
G19  22394574.481     -196966.938       -3162.670          44.250  
G22  23852360.009       50465.640         832.679          48.750  
G28  21572049.029       22462.367         386.891          47.500  
> 2018  4 22 11 22  3.6688020  0  7                     
G 1  23691643.434      138160.971        2014.811          48.000  
G 3  22285389.655      -54775.889        -788.771          39.000  
G11  24353619.610      132708.465        2022.415          44.000  
G17  21978439.905     -146448.547       -2309.002          51.250  
G19  22396344.926     -197283.226       -3161.925          44.500  
G22  23854207.264       50548.831         832.625          49.000  
G28  21573888.023       22500.989         386.988          47.500  
> 2018  4 22 11 22  3.7688020  0  7                     
G 1  23693513.107      138362.449        2015.479          48.000  
G 3  22287205.559      -54854.783        -789.020          38.750  
G11  24355488.878      132910.716        2023.319          44.000  
G17  21980228.377     -146679.403       -2308.431          51.500  
G19  22398117.737     -197599.481       -3161.976          44.500  
G22  23856054.663       50632.069         832.834          48.750  
G28  21575726.443       22539.673         386.830          47.750  
> 2018  4 22 11 22  3.8688020  0  7                     
G 1  23695382.719      138563.991        2016.218          47.750  
G 3  22289021.060      -54933.592        -786.345          39.000  
G11  24357358.444      133113.003        2023.477          44.000  
G17  21982015.940     -146910.216       -2307.598          51.250  
G19  22399889.932     -197915.674       -3161.563          44.250  
G22  23857902.530       50715.359         833.690          49.000  
G28  21577567.401       22578.397         387.631          47.750  
> 2018  4 22 11 22  3.9688020  0  7                     
G 1  23697252.445      138765.620        2016.947          48.000  
G 3  22290836.748      -55012.298        -786.475          38.750  
G11  24359228.068      133315.398        2024.646          43.750  
G17  21983803.314     -147140.933       -2306.952          51.250  
G19  22401660.955     -198231.775       -3160.808          44.500  
G22  23859750.567       50798.766         834.394          48.500  
G28  21579404.816       22617.233         388.276          47.500  
> 2018  4 22 11 22  4.0688020  0  7                     
G 1  23699123.123      138967.311        2016.809          47.750  
G 3  22292652.411      -55090.964        -787.290          38.750  
G11  24361096.807      133517.851        2025.174          43.750  
G17  21985590.949     -147371.585       -2306.274          51.000  
G19  22403433.543     -198547.806       -3161.170          44.000  
G22  23861598.657       50882.221         834.644          48.750  
G28  21581244.794       22656.130         389.027          47.500  
> 2018  4 22 11 22  4.1688020  0  7                     
G 1  23700992.683      139169.069        2018.829          47.500  
G 3  22294469.559      -55169.560        -785.509          38.750  
G11  24362967.180      133720.373        2025.296          43.750  
G17  21987378.378     -147602.164       -2305.412          51.250  
G19  22405204.068     -198863.775       -3159.552          44.250  
G22  23863445.703       50965.758         836.624          48.750  
G28  21583083.642       22695.095         390.403          47.250  
> 2018  4 22 11 22  4.2688020  0  7                     
G 1  23702863.143      139370.938        2019.267          47.750  
G 3  22296286.522      -55247.976        -782.509          39.250  
G11  24364837.228      133922.998        2026.031          43.750  
G17  21989166.091     -147832.630       -2304.544          51.250  
G19  22406974.857     -199179.626       -3159.657          44.250  
G22  23865292.378       51049.399         836.328          49.000  
G28  21584922.553       22734.191         390.931          47.500  
> 2018  4 22 11 22  4.3688020  0  7                     
G 1  23704732.687      139572.844        2018.685          48.000  
G 3  22298103.574      -55326.430        -784.280          38.500  
G11  24366706.825      134125.669        2026.958          43.750  
G17  21990954.078     -148063.070       -2304.733          51.250  
G19  22408746.729     -199495.448       -3158.518          44.500  
G22  23867139.829       51133.091         837.189          48.500  
G28  21586762.298       22773.321         391.788          47.500  
> 2018  4 22 11 22  4.4688020  0  7                     
G 1  23706603.895      139774.826        2020.652          47.500  
G 3  22299920.485      -55404.757        -782.657          38.500  
G11  24368575.642      134328.410        2027.601          43.000  
G17  21992741.852     -148293.425       -2302.800          51.000  
G19  22410518.379     -199811.165       -3156.865          44.000  
G22  23868987.195       51216.849         838.615          48.500  
G28  21588599.238       22812.523         392.906          47.250  
> 2018  4 22 11 22  4.5688020  0  7                     
G 1  23708473.911      139976.876        2021.138          47.750  
G 3  22301736.856      -55483.025        -782.943          38.250  
G11  24370446.288      134531.207        2027.920          43.500  
G17  21994529.802     -148523.718       -2302.847          51.000  
G19  22412289.274     -200126.850       -3156.287          44.250  
G22  23870834.824       51300.687         838.293          48.500  
G28  21590439.152       22851.795         392.737          47.500  
> 2018  4 22 11 22  4.6688020  0  7                     
G 1  23710344.560      140178.944        2020.505          47.750  
G 3  22303552.454      -55561.276        -781.949          39.000  
G11  24372316.550      134734.032        2028.616          43.750  
G17  21996317.444     -148754.000       -2303.366          51.500  
G19  22414060.283     -200442.491       -3156.792          43.750  
G22  23872682.840       51384.537         838.565          48.750  
G28  21592277.516       22891.080         392.758          47.500  
> 2018  4 22 11 22  4.7688020  0  7                     
G 1  23712214.957      140381.032        2021.368          47.500  
G 3  22305368.617      -55639.493        -781.085          38.750  
G11  24374188.073      134936.874        2027.524          43.500  
G17  21998105.346     -148984.251       -2302.870          51.000  
G19  22415831.560     -200758.142       -3157.101          44.250  
G22  23874530.541       51468.419         838.833          48.500  
G28  21594116.650       22930.395         392.594          47.250  
> 2018  4 22 11 22  4.8688020  0  7                     
G 1  23714084.608      140583.109        2020.699          47.750  
G 3  22307186.407      -55717.699        -782.844          39.500  
G11  24376057.928      135139.724        2028.224          43.750  
G17  21999893.073     -149214.503       -2302.980          51.500  
G19  22417602.485     -201073.765       -3156.763          43.750  
G22  23876378.638       51552.299         838.853          49.000  
G28  21595956.925       22969.729         392.802          47.250  
> 2018  4 22 11 22  4.9688020  0  7                     
G 1  23715954.585      140785.208        2021.239          48.000  
G 3  22309002.906      -55795.894        -781.672          39.250  
G11  24377927.791      135342.586        2028.895          43.750  
G17  22001680.309     -149444.739       -2302.616          51.500  
G19  22419374.623     -201389.391       -3156.457          44.750  
G22  23878225.511       51636.204         839.299          49.000  
G28  21597795.072       23009.072         392.906          47.750  
> 2018  4 22 11 22  5.0688020  0  7                     
G 1  23717824.778      140987.244        2020.030          48.000  
G 3  22310819.506      -55874.159        -783.627          39.000  
G11  24379797.689      135545.371        2027.785          43.500  
G17  22003468.016     -149675.037       -2303.198          51.500  
G19  22421146.335     -201705.060       -3157.478          44.250  
G22  23880072.998       51720.034         838.259          48.750  
G28  21599635.986       23048.347         392.429          47.750  
> 2018  4 22 11 22  5.1688020  0  7                     
G 1  23719693.954      141189.235        2019.377          47.750  
G 3  22312636.797      -55952.443        -783.715          38.250  
G11  24381667.787      135748.117        2026.889          43.750  
G17  22005255.546     -149905.385       -2304.281          51.000  
G19  22422918.756     -202020.789       -3157.414          44.000  
G22  23881919.753       51803.835         837.428          48.250  
G28  21601473.609       23087.603         392.154          47.750  
> 2018  4 22 11 22  5.2688020  0  7                     
G 1  23721563.726      141391.166        2019.913          47.750  
G 3  22314455.565      -56030.792        -782.765          38.750  
G11  24383538.459      135950.799        2026.768          43.500  
G17  22007043.478     -150135.798       -2303.945          51.000  
G19  22424690.415     -202336.585       -3158.013          43.750  
G22  23883767.644       51887.576         837.991          48.750  
G28  21603313.115       23126.773         392.655          47.250  
> 2018  4 22 11 22  5.3688020  0  7                     
G 1  23723433.648      141593.119        2020.037          48.000  
G 3  22316271.271      -56109.093        -782.434          39.500  
G11  24385409.177      136153.530        2027.987          43.500  
G17  22008831.330     -150366.157       -2303.399          51.500  
G19  22426460.755     -202652.324       -3157.114          44.250  
G22  23885615.503       51971.359         838.619          49.000  
G28  21605152.452       23166.007         392.741          47.500  
> 2018  4 22 11 22  5.4688020  0  7                     
G 1  23725303.737      141795.122        2020.392          47.750  
G 3  22318086.125      -56187.358        -781.617          39.250  
G11  24387279.096      136356.273        2027.617          43.500  
G17  22010618.611     -150596.501       -2303.364          51.500  
G19  22428233.652     -202968.046       -3157.347          44.250  
G22  23887463.457       52055.171         838.465          49.000  
G28  21606990.694       23205.259         392.726          47.750  
> 2018  4 22 11 22  5.5688020  0  7                     
G 1  23727173.791      141997.101        2019.531          47.750  
G 3  22319901.625      -56265.632        -782.963          38.750  
G11  24389149.078      136559.037        2027.658          43.500  
G17  22012406.761     -150826.840       -2303.255          51.500  
G19  22430005.020     -203283.772       -3157.825          44.500  
G22  23889310.815       52138.983         837.589          48.750  
G28  21608830.832       23244.516         392.367          47.750  
> 2018  4 22 11 22  5.6688020  0  7                     
G 1  23729043.695      142199.010        2019.054          48.000  
G 3  22321718.496      -56343.985        -783.627          39.500  
G11  24391019.081      136761.683        2027.022          43.750  
G17  22014194.261     -151057.271       -2304.600          51.500  
G19  22431776.408     -203599.584       -3157.779          44.250  
G22  23891158.019       52222.713         837.195          49.000  
G28  21610668.765       23283.693         391.555          47.750  
> 2018  4 22 11 22  5.7688020  0  7                     
G 1  23730913.753      142400.859        2018.766          47.750  
G 3  22323534.944      -56422.392        -783.948          39.250  
G11  24392888.633      136964.281        2026.270          43.750  
G17  22015982.470     -151287.757       -2305.096          51.500  
G19  22433546.525     -203915.433       -3158.704          44.500  
G22  23893005.659       52306.391         836.912          49.000  
G28  21612508.667       23322.820         391.487          47.750  
> 2018  4 22 11 22  5.8688020  0  7                     
G 1  23732783.876      142602.655        2018.349          48.000  
G 3  22325351.052      -56500.829        -785.078          39.000  
G11  24394758.927      137166.840        2025.855          43.500  
G17  22017770.533     -151518.290       -2305.238          51.500  
G19  22435317.655     -204231.349       -3159.484          44.000  
G22  23894853.381       52390.024         836.793          48.750  
G28  21614347.574       23361.892         390.722          47.750  
> 2018  4 22 11 22  5.9688020  0  7                     
G 1  23734654.031      142804.502        2018.862          47.750  
G 3  22327168.442      -56579.242        -784.888          38.500  
G11  24396629.390      137369.447        2027.243          43.000  
G17  22019558.087     -151748.766       -2304.515          51.250  
G19  22437089.421     -204547.211       -3157.971          44.500  
G22  23896700.719       52473.720         837.619          48.750  
G28  21616186.014       23401.040         392.483          47.500  
> 2018  4 22 11 22  6.0688020  0  9                     
G 1  23736524.140      143006.461        2019.736          48.000  
G 3  22328984.656      -56657.502        -783.076          39.000  
G 6  22937125.529     -115063.858       -3541.133          40.500  
G11  24398499.401      137572.152        2026.395          43.750  
G17  22021346.617     -151979.140       -2303.827          51.500  
G18  25839061.612       50920.441        2514.544          39.000  
G19  22438859.595     -204862.955       -3158.264          44.750  
G22  23898547.555       52557.510         837.827          49.000  
G28  21618026.299       23440.273         392.231          47.750  
> 2018  4 22 11 22  6.1688020  0  9                     
G 1  23738394.100      143208.458        2020.238          48.000  
G 3  22330801.290      -56735.724        -782.773          39.000  
G 6  22938892.325     -115417.961       -3540.685          40.500  
G11  24400369.604      137774.895        2027.277          43.750  
G17  22023134.523     -152209.474       -2303.178          51.500  
G18  25840939.183       51167.601        2468.447          39.000  
G19  22440631.303     -205178.672       -3157.315          44.750  
G22  23900395.049       52641.354         839.200          49.000  
G28  21619863.444       23479.562         393.936          47.750  
> 2018  4 22 11 22  6.2688020  0  9                     
G 1  23740264.244      143410.513        2020.596          48.000  
G 3  22332618.681      -56813.884        -781.341          39.000  
G 6  22940656.945     -115771.995       -3541.651          40.000  
G11  24402241.037      137977.727        2029.206          43.500  
G17  22024922.369     -152439.742       -2302.886          51.250  
G18  25842817.099       51414.399        2468.853          38.500  
G19  22442401.897     -205494.314       -3156.847          44.500  
G22  23902243.526       52725.262         839.474          48.750  
G28  21621702.962       23518.921         393.490          47.750  
> 2018  4 22 11 22  6.3688020  0  9                     
G 1  23742134.437      143612.599        2020.058          47.500  
G 3  22334435.010      -56891.992        -780.853          39.250  
G 6  22942419.785     -116125.997       -3541.681          40.250  
G11  24404110.584      138180.562        2027.907          43.000  
G17  22026710.027     -152669.981       -2303.066          51.250  
G18  25844697.994       51661.173        2467.236          38.000  
G19  22444174.932     -205809.933       -3157.235          44.000  
G22  23904091.235       52809.209         838.654          48.500  
G28  21623541.717       23558.304         392.804          47.250  
> 2018  4 22 11 22  6.4688020  0  9                     
G 1  23744004.482      143814.654        2020.066          48.000  
G 3  22336250.781      -56970.171        -782.132          39.500  
G 6  22944185.209     -116480.042       -3540.744          40.250  
G11  24405981.222      138383.358        2027.045          43.500  
G17  22028497.800     -152900.260       -2303.137          51.500  
G18  25846576.959       51907.915        2467.836          38.750  
G19  22445945.564     -206125.579       -3157.736          44.500  
G22  23905938.089       52893.104         839.118          49.250  
G28  21625380.350       23597.662         393.128          47.750  
> 2018  4 22 11 22  6.5688020  0  9                     
G 1  23745874.254      144016.805        2024.398          47.750  
G 3  22338067.392      -57048.212        -778.292          37.750  
G 6  22945949.485     -116833.978       -3537.004          39.250  
G11  24407852.096      138586.274        2032.261          43.250  
G17  22030285.892     -153130.424       -2298.907          50.750  
G18  25848455.750       52154.806        2471.140          37.750  
G19  22447717.121     -206441.138       -3152.368          42.500  
G22  23907785.872       52977.129         843.291          48.000  
G28  21627221.365       23637.134         397.385          47.500  
> 2018  4 22 11 22  6.6688020  0  9                     
G 1  23747744.535      144219.588        2029.656          46.750  
G 3  22339883.883      -57125.638        -773.168          38.750  
G 6  22947714.381     -117187.264       -3531.833          40.250  
G11  24409722.201      138789.810        2037.162          42.250  
G17  22032074.142     -153359.968       -2293.809          50.750  
G18  25850332.252       52402.298        2476.893          38.000  
G19  22449489.235     -206756.037       -3147.563          44.250  
G22  23909633.564       53061.770         848.460          48.500  
G28  21629058.857       23677.235         402.573          46.500  
> 2018  4 22 11 22  6.7688020  0  9                     
G 1  23749614.575      144422.532        2029.027          48.000  
G 3  22341701.266      -57202.908        -774.693          38.750  
G 6  22949478.116     -117540.399       -3531.292          40.250  
G11  24411592.838      138993.501        2036.013          43.250  
G17  22033861.544     -153589.348       -2294.848          51.500  
G18  25852210.546       52649.944        2475.355          38.750  
G19  22451261.683     -207070.813       -3148.939          44.000  
G22  23911480.813       53146.581         847.056          48.750  
G28  21630899.109       23717.491         401.949          47.750  
> 2018  4 22 11 22  6.8688020  0  9                     
G 1  23751484.295      144625.104        2024.065          47.250  
G 3  22343519.373      -57280.485        -777.542          38.500  
G 6  22951241.597     -117893.917       -3536.685          40.000  
G11  24413463.224      139196.823        2031.687          43.000  
G17  22035650.069     -153819.093       -2299.123          50.750  
G18  25854090.437       52897.225        2471.396          37.500  
G19  22453032.794     -207385.934       -3153.664          43.750  
G22  23913329.077       53231.026         842.973          48.250  
G28  21632737.885       23757.380         396.751          47.000  
> 2018  4 22 11 22  6.9688020  0  9                     
G 1  23753354.679      144827.521        2025.735          47.500  
G 3  22345336.412      -57358.250        -776.803          39.250  
G 6  22953005.646     -118247.573       -3534.300          40.250  
G11  24415333.771      139399.989        2033.103          43.000  
G17  22037437.413     -154049.007       -2297.846          51.500  
G18  25855968.184       53144.335        2471.636          38.250  
G19  22454804.864     -207701.220       -3150.690          44.250  
G22  23915176.781       53315.312         844.087          49.000  
G28  21634576.334       23797.119         398.708          47.250  
> 2018  4 22 11 22  7.0688020  0  9                     
G 1  23755224.165      145030.041        2024.096          48.000  
G 3  22347151.642      -57435.931        -777.031          38.500  
G 6  22954769.743     -118601.127       -3536.386          40.500  
G11  24417204.066      139603.255        2031.601          43.500  
G17  22039225.622     -154278.808       -2298.993          51.500  
G18  25857845.052       53391.584        2471.594          38.750  
G19  22456575.582     -208016.402       -3152.802          44.500  
G22  23917024.601       53399.714         843.124          49.000  
G28  21636416.633       23836.971         397.337          47.750  
> 2018  4 22 11 22  7.1688020  0  9                     
G 1  23757093.802      145232.287        2020.730          47.750  
G 3  22348967.994      -57513.833        -779.997          39.000  
G 6  22956533.412     -118954.953       -3539.749          40.000  
G11  24419073.804      139806.258        2027.975          43.000  
G17  22041013.156     -154508.875       -2302.228          51.500  
G18  25859725.400       53638.537        2468.636          38.500  
G19  22458346.802     -208331.856       -3157.020          44.500  
G22  23918872.751       53483.854         840.422          48.750  
G28  21638254.135       23876.551         394.304          47.500  
> 2018  4 22 11 22  7.2688020  0  9                     
G 1  23758963.183      145434.296        2018.668          47.750  
G 3  22350786.058      -57591.994        -781.371          39.000  
G 6  22958298.226     -119309.016       -3541.271          39.750  
G11  24420942.936      140009.033        2026.865          43.250  
G17  22042800.928     -154739.192       -2305.129          51.250  
G18  25861603.046       53885.227        2465.575          38.000  
G19  22460117.650     -208647.526       -3157.951          44.000  
G22  23920720.556       53567.749         837.699          48.500  
G28  21640094.294       23915.904         392.726          47.750  
> 2018  4 22 11 22  7.3688020  0  9                     
G 1  23760833.708      145636.064        2017.581          47.250  
G 3  22352602.645      -57670.394        -784.292          38.750  
G 6  22960062.157     -119663.327       -3544.426          40.250  
G11  24422812.698      140211.531        2024.203          42.500  
G17  22044588.657     -154969.746       -2305.927          51.250  
G18  25863480.052       54131.712        2465.958          38.000  
G19  22461891.214     -208963.465       -3159.716          44.250  
G22  23922567.390       53651.401         836.292          48.750  
G28  21641932.571       23955.015         391.340          47.000  
> 2018  4 22 11 22  7.4688020  0  9                     
G 1  23762703.521      145837.853        2019.288          47.250  
G 3  22354419.273      -57748.749        -783.745          39.250  
G 6  22961825.444     -120017.595       -3542.125          40.250  
G11  24424682.588      140414.099        2026.783          42.750  
G17  22046375.629     -155200.264       -2304.424          51.250  
G18  25865356.443       54378.213        2465.881          37.750  
G19  22463661.785     -209279.342       -3157.924          44.500  
G22  23924414.535       53735.092         837.875          49.000  
G28  21643770.813       23994.157         392.877          47.500  
> 2018  4 22 11 22  7.5688020  0  9                     
G 1  23764573.117      146039.802        2019.652          47.750  
G 3  22356236.016      -57826.933        -781.031          39.000  
G 6  22963589.044     -120371.727       -3542.583          39.750  
G11  24426553.155      140616.797        2027.736          43.250  
G17  22048163.527     -155430.638       -2303.676          51.750  
G18  25867235.987       54624.843        2466.569          38.750  
G19  22465432.459     -209595.094       -3157.684          44.500  
G22  23926262.194       53818.930         838.578          49.250  
G28  21645610.542       24033.450         393.537          47.750  
> 2018  4 22 11 22  7.6688020  0  9                     
G 1  23766443.034      146241.808        2021.514          48.000  
G 3  22358052.535      -57905.096        -781.055          39.000  
G 6  22965353.799     -120725.766       -3540.174          40.000  
G11  24428422.208      140819.540        2029.279          43.250  
G17  22049951.852     -155660.944       -2301.854          51.750  
G18  25869114.478       54871.532        2466.815          38.500  
G19  22467204.413     -209910.779       -3156.109          43.750  
G22  23928110.692       53902.845         840.402          49.000  
G28  21647448.569       24072.806         394.976          47.750  
> 2018  4 22 11 22  7.7688020  0  9                     
G 1  23768312.825      146444.153        2024.830          47.500  
G 3  22359870.245      -57982.869        -776.234          39.000  
G 6  22967118.153     -121079.497       -3536.912          39.750  
G11  24430292.570      141022.640        2032.603          43.000  
G17  22051739.709     -155890.919       -2298.430          51.250  
G18  25870993.538       55118.594        2471.330          38.000  
G19  22468975.617     -210226.143       -3154.095          44.250  
G22  23929958.516       53987.098         844.277          48.750  
G28  21649288.881       24112.510         397.962          47.500  
> 2018  4 22 11 22  7.8688020  0  9                     
G 1  23770183.387      146646.607        2024.124          48.000  
G 3  22361686.804      -58060.551        -777.267          39.250  
G 6  22968882.301     -121433.084       -3537.403          40.250  
G11  24432163.371      141225.844        2030.903          43.250  
G17  22053528.005     -156120.784       -2299.924          51.750  
G18  25872874.009       55365.745        2469.876          38.000  
G19  22470748.043     -210541.374       -3152.639          44.000  
G22  23931806.437       54071.461         842.540          49.000  
G28  21651127.066       24152.339         397.324          47.500  
> 2018  4 22 11 22  7.9688020  0  9                     
G 1  23772053.624      146848.810        2020.544          47.250  
G 3  22363503.476      -58138.475        -782.322          38.750  
G 6  22970645.967     -121786.946       -3540.316          39.500  
G11  24434033.533      141428.786        2027.161          42.500  
G17  22055315.515     -156350.897       -2302.923          51.000  
G18  25874752.991       55612.648        2466.996          38.000  
G19  22472521.552     -210856.860       -3156.365          43.750  
G22  23933653.976       54155.567         839.511          48.500  
G28  21652966.839       24191.903         393.432          47.250  
> 2018  4 22 11 22  8.0688020  0  9                     
G 1  23773923.614      147050.635        2017.797          47.500  
G 3  22365319.405      -58216.762        -784.245          38.750  
G 6  22972410.006     -122141.175       -3543.667          40.000  
G11  24435903.027      141631.366        2025.190          42.750  
G17  22057103.086     -156581.379       -2306.062          51.500  
G18  25876632.958       55859.160        2464.872          38.250  
G19  22474293.152     -211172.733       -3160.478          44.250  
G22  23935502.003       54239.318         837.263          49.000  
G28  21654806.512       24231.104         391.572          47.500  
> 2018  4 22 11 22  8.1688020  0  9                     
G 1  23775793.968      147252.353        2016.651          47.750  
G 3  22367135.491      -58295.162        -784.187          38.750  
G 6  22974175.271     -122495.522       -3543.581          40.250  
G11  24437773.832      141833.823        2023.951          43.000  
G17  22058891.158     -156811.982       -2306.680          51.750  
G18  25878511.381       56105.569        2463.039          38.500  
G19  22476063.826     -211488.682       -3160.722          44.750  
G22  23937349.125       54322.945         835.750          49.000  
G28  21656645.141       24270.189         389.996          47.750  
