     3.02           OBSERVATION DATA    M: Mixed            RINEX VERSION / TYPE
GNSS-SDRLIB v1.1                        20180429 101919 UTC PGM / RUN BY / DATE 
                                                            MARKER NAME         
                                                            MARKER NUMBER       
                                                            MARKER TYPE         
                                                            OBSERVER / AGENCY   
GNSS-SDRLIB         GNSS-SDRLIB         1.1                 REC # / TYPE / VERS 
                                                            ANT # / TYPE        
        0.0000        0.0000        0.0000                  APPROX POSITION XYZ 
        0.0000        0.0000        0.0000                  ANTENNA: DELTA H/E/N
G    4 C1C L1C D1C S1C                                      SYS / # / OBS TYPES 
R    4 C1C L1C D1C S1C                                      SYS / # / OBS TYPES 
E    4 C1C L1C D1C S1C                                      SYS / # / OBS TYPES 
J    4 C1C L1C D1C S1C                                      SYS / # / OBS TYPES 
S    4 C1C L1C D1C S1C                                      SYS / # / OBS TYPES 
C    4 C1C L1C D1C S1C                                      SYS / # / OBS TYPES 
  1970     1     1     0     0    0.0000000     GPS         TIME OF FIRST OBS   
  1970     1     1     0     0    0.0000000     GPS         TIME OF LAST OBS    
G                                                           SYS / PHASE SHIFT   
R                                                           SYS / PHASE SHIFT   
E                                                           SYS / PHASE SHIFT   
J                                                           SYS / PHASE SHIFT   
S                                                           SYS / PHASE SHIFT   
C                                                           SYS / PHASE SHIFT   
  0                                                         GLONASS SLOT / FRQ #
 C1C    0.000 C1P    0.000 C2C    0.000 C2P    0.000        GLONASS COD/PHS/BIS 
                                                            END OF HEADER       
> 2018  4 22  0  0 14.6688020  0  1                     
G 3                     -8541.163        -833.753          42.750  
> 2018  4 22 11 21  6.1688020  0  1                     
G 3  20626900.428       -8566.570        -830.743          42.250  
> 2018  4 22 11 21  6.0688020  0  2                     
G 1  22000412.485       22082.099        1995.225          48.750  
G 3  20625066.338       -8483.927        -830.700          42.250  
> 2018  4 22 11 21  6.1688020  0  2                     
G 1  22002300.521       22282.632        2004.124          49.000  
G 3  20626900.428       -8566.570        -830.743          42.250  
> 2018  4 22 11 21  6.0688020  0  3                     
G 1  22000412.485       22082.175        2003.761          49.000  
G 3  20625066.338       -8483.927        -830.700          42.250  
G11  22662290.697       16119.484        2028.003          44.250  
> 2018  4 22 11 21  6.1688020  0  3                     
G 1  22002300.521       22282.632        2004.124          49.000  
G 3  20626900.428       -8566.570        -830.743          42.250  
G11  22664179.246       16311.933        2012.653          44.500  
> 2018  4 22 11 21  6.2688020  0  3                     
G 1  22004170.106       22483.134        2005.397          49.000  
G 3  20628717.233       -8649.661        -830.684          42.500  
G11  22666050.156       16513.467        2014.193          44.250  
> 2018  4 22 11 21  6.3688020  0  3                     
G 1  22006040.105       22683.736        2006.165          48.750  
G 3  20630532.025       -8732.621        -830.224          42.750  
G11  22667920.167       16714.972        2015.283          44.250  
> 2018  4 22 11 21  6.4688020  0  3                     
G 1  22007910.605       22884.392        2007.185          49.000  
G 3  20632347.307       -8815.523        -828.050          42.500  
G11  22669789.845       16916.521        2016.041          44.250  
> 2018  4 22 11 21  6.5688020  0  3                     
G 1  22009780.373       23085.084        2006.749          49.000  
G 3  20634164.501       -8898.389        -828.532          42.750  
G11  22671659.092       17118.112        2015.726          44.500  
> 2018  4 22 11 21  6.6688020  0  3                     
G 1  22011650.144       23285.809        2008.401          49.000  
G 3  20635980.072       -8981.215        -828.328          42.000  
G11  22673530.058       17319.755        2017.090          44.250  
> 2018  4 22 11 21  6.7688020  0  3                     
G 1  22013520.411       23486.642        2008.764          49.000  
G 3  20637795.886       -9063.915        -825.838          42.750  
G11  22675400.323       17521.480        2017.883          44.250  
> 2018  4 22 11 21  6.8688020  0  3                     
G 1  22015390.169       23687.513        2008.304          49.000  
G 3  20639611.887       -9146.600        -826.240          42.500  
G11  22677270.154       17723.253        2017.239          44.500  
> 2018  4 22 11 21  6.9688020  0  3                     
G 1  22017259.353       23888.441        2009.524          49.000  
G 3  20641426.351       -9229.193        -826.036          42.500  
G11  22679140.464       17925.078        2018.379          44.000  
> 2018  4 22 11 21  7.0688020  0  3                     
G 1  22019129.045       24089.377        2009.516          48.750  
G 3  20643241.766       -9311.826        -825.875          42.250  
G11  22681011.169       18126.910        2018.303          44.000  
> 2018  4 22 11 21  7.1688020  0  3                     
G 1  22020998.672       24290.333        2009.052          49.000  
G 3  20645058.696       -9394.380        -825.680          42.000  
G11  22682880.854       18328.772        2018.853          44.000  
> 2018  4 22 11 21  7.2688020  0  3                     
G 1  22022868.834       24491.255        2009.028          49.000  
G 3  20646874.850       -9476.967        -825.922          42.000  
G11  22684750.871       18530.583        2017.583          44.000  
> 2018  4 22 11 21  7.3688020  0  3                     
G 1  22024738.356       24692.153        2008.591          49.250  
G 3  20648690.159       -9559.584        -826.828          42.500  
G11  22686621.290       18732.382        2017.074          44.000  
> 2018  4 22 11 21  7.4688020  0  3                     
G 1  22026608.412       24893.068        2010.572          49.000  
G 3  20650505.729       -9642.188        -825.745          42.250  
G11  22688491.413       18934.208        2019.255          44.000  
> 2018  4 22 11 21  7.5688020  0  3                     
G 1  22028478.520       25094.025        2009.628          49.000  
G 3  20652321.816       -9724.730        -825.482          42.750  
G11  22690360.393       19136.060        2018.490          44.250  
> 2018  4 22 11 21  7.6688020  0  3                     
G 1  22030348.644       25294.968        2009.372          49.000  
G 3  20654137.246       -9807.295        -826.516          42.750  
G11  22692230.502       19337.882        2018.973          44.250  
> 2018  4 22 11 21  7.7688020  0  3                     
G 1  22032219.294       25495.870        2009.713          48.750  
G 3  20655953.651       -9889.882        -825.586          42.750  
G11  22694100.242       19539.683        2018.045          44.250  
> 2018  4 22 11 21  7.8688020  0  3                     
G 1  22034089.159       25696.747        2008.220          49.000  
G 3  20657769.597       -9972.497        -827.273          42.750  
G11  22695970.077       19741.461        2016.895          44.000  
> 2018  4 22 11 21  7.9688020  0  3                     
G 1  22035959.539       25897.629        2009.086          48.750  
G 3  20659585.385      -10055.083        -825.233          43.000  
G11  22697841.588       19943.233        2017.664          44.000  
> 2018  4 22 11 21  8.0688020  0  3                     
G 1  22037829.135       26098.489        2008.459          49.000  
G 3  20661400.951      -10137.679        -826.468          42.500  
G11  22699711.477       20145.020        2017.553          44.250  
> 2018  4 22 11 21  8.1688020  0  3                     
G 1  22039698.565       26299.345        2008.854          49.000  
G 3  20663216.305      -10220.295        -825.807          42.750  
G11  22701581.154       20346.760        2017.087          44.000  
> 2018  4 22 11 21  8.2688020  0  3                     
G 1  22041567.820       26500.223        2009.471          49.000  
G 3  20665032.257      -10302.890        -824.539          42.750  
G11  22703451.694       20548.527        2018.393          44.250  
> 2018  4 22 11 21  8.3688020  0  3                     
G 1  22043437.422       26701.140        2009.368          49.000  
G 3  20666847.898      -10385.413        -824.934          43.000  
G11  22705320.636       20750.355        2018.586          44.250  
> 2018  4 22 11 21  8.4688020  0  3                     
G 1  22045306.907       26902.017        2009.027          49.000  
G 3  20668664.158      -10468.000        -825.933          42.500  
G11  22707190.195       20952.128        2017.982          44.250  
> 2018  4 22 11 21  8.5688020  0  3                     
G 1  22047177.005       27102.932        2009.676          49.250  
G 3  20670479.972      -10550.513        -824.778          42.500  
G11  22709060.386       21153.935        2018.248          44.000  
> 2018  4 22 11 21  8.6688020  0  3                     
G 1  22049046.106       27303.840        2009.191          49.000  
G 3  20672297.007      -10633.032        -825.181          42.250  
G11  22710931.135       21355.753        2018.521          44.500  
> 2018  4 22 11 21  8.7688020  0  3                     
G 1  22050915.469       27504.713        2008.635          49.000  
G 3  20674111.922      -10715.625        -826.565          42.000  
G11  22712802.370       21557.493        2017.075          44.500  
> 2018  4 22 11 21  8.8688020  0  3                     
G 1  22052785.593       27705.524        2008.689          49.000  
G 3  20675927.214      -10798.244        -825.146          41.750  
G11  22714671.765       21759.215        2017.663          44.500  
> 2018  4 22 11 21  8.9688020  0  3                     
G 1  22054655.447       27906.355        2008.189          49.000  
G 3  20677742.734      -10880.865        -826.966          42.250  
G11  22716541.922       21960.945        2017.068          44.250  
> 2018  4 22 11 21  9.0688020  0  3                     
G 1  22056525.607       28107.200        2008.115          49.000  
G 3  20679558.112      -10963.386        -824.843          42.750  
G11  22718411.347       22162.692        2016.868          44.250  
> 2018  4 22 11 21  9.1688020  0  3                     
G 1  22058395.802       28308.054        2008.191          48.750  
G 3  20681374.388      -11045.968        -825.836          43.000  
G11  22720280.483       22364.437        2016.725          44.250  
> 2018  4 22 11 21  9.2688020  0  3                     
G 1  22060265.301       28508.893        2008.112          48.750  
G 3  20683190.837      -11128.530        -826.356          42.500  
G11  22722150.867       22566.190        2017.194          44.250  
> 2018  4 22 11 21  9.3688020  0  3                     
G 1  22062134.735       28709.712        2008.765          49.000  
G 3  20685006.395      -11211.105        -825.723          42.000  
G11  22724020.643       22767.888        2016.723          44.500  
> 2018  4 22 11 21  9.4688020  0  3                     
G 1  22064004.312       28910.539        2008.223          49.250  
G 3  20686822.113      -11293.649        -825.497          41.750  
G11  22725890.972       22969.599        2017.516          44.250  
> 2018  4 22 11 21  9.5688020  0  3                     
G 1  22065874.088       29111.319        2008.140          49.000  
G 3  20688638.514      -11376.293        -825.995          41.000  
G11  22727760.846       23171.267        2017.045          44.000  
> 2018  4 22 11 21  9.6688020  0  3                     
G 1  22067743.955       29311.997        2006.781          49.000  
G 3  20690454.887      -11459.021        -827.725          41.750  
G11  22729631.198       23372.852        2015.233          44.250  
> 2018  4 22 11 21  9.7688020  0  3                     
G 1  22069613.094       29512.644        2006.009          49.000  
G 3  20692270.222      -11541.760        -827.981          43.000  
G11  22731500.991       23574.386        2014.711          44.500  
> 2018  4 22 11 21  9.8688020  0  3                     
G 1  22071482.886       29713.269        2006.491          49.250  
G 3  20694086.515      -11624.485        -828.145          43.000  
G11  22733370.719       23775.918        2015.329          44.750  
> 2018  4 22 11 21  9.9688020  0  3                     
G 1  22073352.917       29913.842        2005.898          48.750  
G 3  20695903.638      -11707.260        -828.339          42.500  
G11  22735241.605       23977.373        2014.661          44.250  
> 2018  4 22 11 21 10.0688020  0  3                     
G 1  22075222.950       30114.359        2004.847          49.000  
G 3  20697719.274      -11790.104        -829.173          42.250  
G11  22737111.876       24178.779        2014.017          44.250  
> 2018  4 22 11 21 10.1688020  0  3                     
G 1  22077093.079       30314.844        2004.730          49.000  
G 3  20699534.591      -11872.992        -829.411          42.250  
G11  22738981.134       24380.163        2014.058          44.000  
> 2018  4 22 11 21 10.2688020  0  3                     
G 1  22078962.702       30515.256        2003.820          49.000  
G 3  20701349.491      -11955.937        -829.096          42.250  
G11  22740851.073       24581.456        2012.831          44.000  
> 2018  4 22 11 21 10.3688020  0  3                     
G 1  22080832.716       30715.657        2004.346          49.000  
G 3  20703166.251      -12038.869        -828.279          43.250  
G11  22742720.832       24782.761        2013.703          44.250  
> 2018  4 22 11 21 10.4688020  0  3                     
G 1  22082702.263       30916.102        2004.099          49.000  
G 3  20704982.546      -12121.751        -828.281          43.500  
G11  22744590.316       24984.101        2014.178          44.250  
> 2018  4 22 11 21 10.5688020  0  3                     
G 1  22084571.773       31116.538        2004.966          49.250  
G 3  20706797.989      -12204.648        -829.198          42.500  
G11  22746459.133       25185.424        2013.229          44.250  
> 2018  4 22 11 21 10.6688020  0  3                     
G 1  22086441.567       31317.007        2005.254          49.000  
G 3  20708612.936      -12287.531        -827.109          41.000  
G11  22748329.775       25386.771        2014.668          44.250  
> 2018  4 22 11 21 10.7688020  0  3                     
G 1  22088311.184       31517.473        2004.838          49.250  
G 3  20710428.021      -12370.407        -829.382          42.500  
G11  22750199.636       25588.130        2013.308          44.000  
> 2018  4 22 11 21 10.8688020  0  3                     
G 1  22090181.080       31717.956        2005.178          49.250  
G 3  20712245.689      -12453.226        -828.198          43.500  
G11  22752069.611       25789.489        2013.397          44.500  
> 2018  4 22 11 21 10.9688020  0  3                     
G 1  22092050.954       31918.453        2005.022          49.250  
G 3  20714062.481      -12536.028        -828.093          42.750  
G11  22753940.337       25990.897        2013.931          44.000  
> 2018  4 22 11 21 11.0688020  0  3                     
G 1  22093920.958       32118.939        2005.055          49.250  
G 3  20715877.259      -12618.874        -828.548          42.500  
G11  22755808.895       26192.253        2013.362          44.250  
> 2018  4 22 11 21 11.1688020  0  3                     
G 1  22095790.592       32319.439        2005.409          49.250  
G 3  20717692.417      -12701.641        -826.405          42.000  
G11  22757677.455       26393.645        2013.593          43.750  
> 2018  4 22 11 21 11.2688020  0  3                     
G 1  22097659.734       32519.956        2005.447          49.000  
G 3  20719508.522      -12784.441        -827.359          42.500  
G11  22759547.647       26595.053        2014.873          43.750  
> 2018  4 22 11 21 11.3688020  0  3                     
G 1  22099529.273       32720.459        2005.213          49.000  
G 3  20721324.968      -12867.243        -828.586          42.500  
G11  22761416.394       26796.451        2014.136          44.000  
> 2018  4 22 11 21 11.4688020  0  3                     
G 1  22101399.250       32920.934        2004.705          49.000  
G 3  20723140.304      -12950.048        -828.877          42.250  
G11  22763286.208       26997.817        2013.375          44.000  
> 2018  4 22 11 21 11.5688020  0  3                     
G 1  22103269.698       33121.421        2004.881          48.750  
G 3  20724955.475      -13032.835        -828.350          42.750  
G11  22765156.625       27199.183        2014.145          43.750  
> 2018  4 22 11 21 11.6688020  0  3                     
G 1  22105138.812       33321.914        2005.031          49.000  
G 3  20726771.368      -13115.613        -828.031          42.750  
G11  22767025.937       27400.558        2014.305          44.000  
> 2018  4 22 11 21 11.7688020  0  3                     
G 1  22107008.050       33522.417        2005.295          49.000  
G 3  20728588.418      -13198.367        -827.797          42.500  
G11  22768896.234       27601.964        2014.462          44.000  
> 2018  4 22 11 21 11.8688020  0  3                     
G 1  22108877.760       33722.924        2005.726          49.250  
G 3  20730403.186      -13281.142        -826.929          42.500  
G11  22770766.109       27803.356        2014.715          44.000  
> 2018  4 22 11 21 11.9688020  0  3                     
G 1  22110747.523       33923.490        2006.161          49.000  
G 3  20732218.936      -13363.824        -826.236          43.000  
G11  22772635.861       28004.820        2015.221          44.250  
> 2018  4 22 11 21 12.0688020  0  3                     
G 1  22112617.574       34124.101        2007.567          49.250  
G 3  20734035.850      -13446.463        -825.936          42.500  
G11  22774506.558       28206.502        2026.713          44.000  
> 2018  4 22 11 21 12.1688020  0  3                     
G 1  22114487.507       34324.859        2007.964          49.250  
G 3  20735851.132      -13528.939        -825.357          42.500  
G11  22776376.805       28407.893        1987.400          44.250  
> 2018  4 22 11 21 12.2688020  0  3                     
G 1  22116357.719       34525.595        2007.793          49.250  
G 3  20737667.932      -13611.457        -825.417          42.500  
G11  22778247.320       28609.576        2015.666          44.000  
> 2018  4 22 11 21 12.3688020  0  3                     
G 1  22118228.324       34726.451        2009.250          49.000  
G 3  20739483.845      -13693.831        -822.996          42.500  
G11  22780117.594       28811.306        2017.009          44.000  
> 2018  4 22 11 21 12.4688020  0  3                     
G 1  22120097.407       34927.349        2008.630          49.000  
G 3  20741299.001      -13776.157        -822.072          42.500  
G11  22781987.295       29013.114        2018.830          44.000  
> 2018  4 22 11 21 12.5688020  0  3                     
G 1  22121966.725       35128.322        2009.702          49.000  
G 3  20743114.245      -13858.421        -822.255          42.500  
G11  22783856.668       29214.962        2019.000          44.000  
> 2018  4 22 11 21 12.6688020  0  3                     
G 1  22123836.441       35329.326        2010.732          49.000  
G 3  20744930.461      -13940.609        -821.652          42.250  
G11  22785726.026       29416.863        2019.506          44.000  
> 2018  4 22 11 21 12.7688020  0  3                     
G 1  22125706.050       35530.434        2011.227          49.250  
G 3  20746746.349      -14022.740        -820.952          42.250  
G11  22787596.184       29618.829        2019.881          43.750  
> 2018  4 22 11 21 12.8688020  0  3                     
G 1  22127576.527       35731.712        2013.609          48.500  
G 3  20748562.340      -14104.657        -817.651          42.500  
G11  22789465.133       29821.006        2022.864          43.750  
> 2018  4 22 11 21 12.9688020  0  3                     
G 1  22129446.809       35933.193        2015.072          49.000  
G 3  20750379.038      -14186.381        -816.425          42.250  
G11  22791336.047       30023.355        2024.295          43.750  
> 2018  4 22 11 21 13.0688020  0  3                     
G 1  22131316.812       36134.840        2017.177          49.250  
G 3  20752194.237      -14267.946        -814.719          42.250  
G11  22793206.556       30225.874        2025.694          44.000  
> 2018  4 22 11 21 13.1688020  0  3                     
G 1  22133186.548       36336.583        2017.733          49.250  
G 3  20754011.344      -14349.398        -814.100          42.250  
G11  22795076.611       30428.521        2026.491          44.000  
> 2018  4 22 11 21 13.2688020  0  3                     
G 1  22135056.804       36538.377        2018.492          49.250  
G 3  20755827.680      -14430.779        -813.122          43.000  
G11  22796947.003       30631.191        2026.589          43.750  
> 2018  4 22 11 21 13.3688020  0  3                     
G 1  22136926.365       36740.188        2017.679          49.250  
G 3  20757643.482      -14512.134        -814.166          42.500  
G11  22798817.169       30833.889        2025.805          44.000  
> 2018  4 22 11 21 13.4688020  0  3                     
G 1  22138795.942       36941.950        2016.967          49.000  
G 3  20759460.105      -14593.547        -814.908          42.500  
G11  22800686.132       31036.528        2024.981          44.000  
> 2018  4 22 11 21 13.5688020  0  3                     
G 1  22140666.466       37143.564        2016.339          49.000  
G 3  20761276.133      -14675.093        -815.208          42.250  
G11  22802556.721       31239.037        2025.367          44.000  
> 2018  4 22 11 21 13.6688020  0  3                     
G 1  22142536.464       37345.144        2015.594          49.000  
G 3  20763091.850      -14756.686        -816.135          42.000  
G11  22804427.135       31441.488        2024.222          44.250  
> 2018  4 22 11 21 13.7688020  0  3                     
G 1  22144405.957       37546.657        2015.604          48.750  
G 3  20764907.659      -14838.329        -816.904          42.750  
G11  22806296.762       31643.914        2024.690          44.000  
> 2018  4 22 11 21 13.8688020  0  3                     
G 1  22146276.002       37748.142        2014.975          49.000  
G 3  20766723.421      -14919.992        -816.436          43.000  
G11  22808167.075       31846.253        2023.836          43.750  
> 2018  4 22 11 21 13.9688020  0  3                     
G 1  22148146.052       37949.602        2014.513          49.000  
G 3  20768539.235      -15001.675        -817.445          42.250  
G11  22810037.578       32048.614        2024.112          44.250  
> 2018  4 22 11 21 14.0688020  0  3                     
G 1  22150015.498       38151.012        2013.944          49.250  
G 3  20770355.854      -15083.427        -817.270          43.000  
G11  22811907.924       32250.901        2023.007          44.000  
> 2018  4 22 11 21 14.1688020  0  3                     
G 1  22151885.340       38352.417        2014.262          49.000  
G 3  20772172.438      -15165.143        -817.758          42.500  
G11  22813777.042       32453.190        2023.510          43.750  
> 2018  4 22 11 21 14.2688020  0  3                     
G 1  22153755.209       38553.847        2014.403          49.250  
G 3  20773988.229      -15246.837        -816.396          42.250  
G11  22815646.595       32655.492        2022.718          43.750  
> 2018  4 22 11 21 14.3688020  0  3                     
G 1  22155624.921       38755.208        2014.026          49.000  
G 3  20775803.619      -15328.598        -817.763          42.250  
G11  22817516.885       32857.746        2022.627          43.750  
> 2018  4 22 11 21 14.4688020  0  3                     
G 1  22157494.817       38956.599        2013.596          49.250  
G 3  20777619.444      -15410.324        -817.878          42.250  
G11  22819386.252       33060.013        2022.502          44.000  
> 2018  4 22 11 21 14.5688020  0  3                     
G 1  22159364.340       39157.953        2013.591          49.250  
G 3  20779434.770      -15492.086        -817.515          42.250  
G11  22821256.131       33262.249        2022.230          44.000  
> 2018  4 22 11 21 14.6688020  0  3                     
G 1  22161234.724       39359.227        2012.973          49.250  
G 3  20781250.719      -15573.928        -818.749          42.750  
G11  22823126.431       33464.400        2022.840          43.750  
> 2018  4 22 11 21 14.7688020  0  3                     
G 1  22163104.241       39560.493        2012.385          49.000  
G 3  20783067.923      -15655.754        -819.314          42.250  
G11  22824998.478       33666.542        2020.940          43.750  
> 2018  4 22 11 21 14.8688020  0  3                     
G 1  22164974.739       39761.716        2011.458          49.000  
G 3  20784883.800      -15737.602        -819.407          42.250  
G11  22826868.504       33868.647        2020.213          44.000  
> 2018  4 22 11 21 14.9688020  0  3                     
G 1  22166845.111       39962.932        2012.643          49.250  
G 3  20786699.658      -15819.491        -818.557          42.250  
G11  22828738.986       34070.759        2022.759          44.000  
> 2018  4 22 11 21 15.0688020  0  3                     
G 1  22168714.796       40164.244        2012.802          49.000  
G 3  20788515.358      -15901.271        -818.112          42.250  
G11  22830608.734       34272.932        2021.825          43.750  
> 2018  4 22 11 21 15.1688020  0  3                     
G 1  22170584.539       40365.575        2013.175          49.250  
G 3  20790330.393      -15983.009        -817.832          42.250  
G11  22832478.835       34475.147        2022.093          44.250  
> 2018  4 22 11 21 15.2688020  0  3                     
G 1  22172455.169       40566.978        2014.757          49.250  
G 3  20792145.363      -16064.694        -816.227          42.250  
G11  22834349.397       34677.437        2022.413          44.000  
> 2018  4 22 11 21 15.3688020  0  3                     
G 1  22174325.088       40768.444        2015.145          49.250  
G 3  20793963.135      -16146.290        -815.460          42.250  
G11  22836218.767       34879.763        2023.770          43.750  
> 2018  4 22 11 21 15.4688020  0  3                     
G 1  22176194.916       40969.943        2015.066          49.250  
G 3  20795779.999      -16227.855        -815.574          42.250  
G11  22838089.368       35082.146        2023.503          43.500  
> 2018  4 22 11 21 15.5688020  0  3                     
G 1  22178065.171       41171.439        2015.417          49.000  
G 3  20797596.064      -16309.425        -815.753          42.250  
G11  22839959.970       35284.516        2022.913          44.250  
> 2018  4 22 11 21 15.6688020  0  3                     
G 1  22179935.306       41372.949        2015.149          49.000  
G 3  20799412.076      -16390.956        -815.758          42.250  
G11  22841830.699       35486.903        2023.168          44.000  
> 2018  4 22 11 21 15.7688020  0  3                     
G 1  22181805.335       41574.470        2015.610          49.250  
G 3  20801227.668      -16472.481        -814.867          42.500  
G11  22843701.068       35689.298        2024.746          44.000  
> 2018  4 22 11 21 15.8688020  0  3                     
G 1  22183675.233       41775.963        2015.849          49.000  
G 3  20803042.279      -16554.026        -815.500          42.250  
G11  22845570.653       35891.676        2024.073          44.000  
> 2018  4 22 11 21 15.9688020  0  3                     
G 1  22185544.903       41977.410        2014.501          49.000  
G 3  20804859.847      -16635.609        -815.917          42.000  
G11  22847440.483       36094.011        2023.398          44.000  
> 2018  4 22 11 21 16.0688020  0  3                     
G 1  22187415.278       42178.841        2014.207          49.000  
G 3  20806676.164      -16717.202        -815.703          42.000  
G11  22849309.969       36296.319        2023.490          44.000  
> 2018  4 22 11 21 16.1688020  0  3                     
G 1  22189285.093       42380.296        2014.942          49.000  
G 3  20808493.105      -16798.769        -815.781          42.250  
G11  22851179.923       36498.654        2023.678          44.250  
> 2018  4 22 11 21 16.2688020  0  3                     
G 1  22191154.385       42581.780        2014.284          49.000  
G 3  20810308.734      -16880.299        -815.467          42.250  
G11  22853049.879       36701.014        2023.174          44.250  
> 2018  4 22 11 21 16.3688020  0  3                     
G 1  22193023.887       42783.228        2014.664          49.000  
G 3  20812123.837      -16961.874        -815.044          42.250  
G11  22854919.844       36903.335        2023.609          44.250  
> 2018  4 22 11 21 16.4688020  0  3                     
G 1  22194893.619       42984.614        2013.810          49.000  
G 3  20813939.696      -17043.487        -816.375          42.250  
G11  22856790.004       37105.589        2021.310          44.250  
> 2018  4 22 11 21 16.5688020  0  3                     
G 1  22196763.908       43185.952        2013.314          49.000  
G 3  20815755.453      -17125.169        -817.330          42.000  
G11  22858660.683       37307.811        2021.307          44.250  
> 2018  4 22 11 21 16.6688020  0  3                     
G 1  22198632.771       43387.263        2013.209          49.000  
G 3  20817571.606      -17206.850        -817.439          42.250  
G11  22860531.444       37509.992        2022.494          44.250  
> 2018  4 22 11 21 16.7688020  0  3                     
G 1  22200502.846       43588.556        2013.910          48.750  
G 3  20819388.488      -17288.540        -817.002          42.500  
G11  22862401.234       37712.178        2022.574          43.750  
> 2018  4 22 11 21 16.8688020  0  3                     
G 1  22202372.716       43789.879        2012.903          49.000  
G 3  20821202.728      -17370.182        -818.555          41.750  
G11  22864271.301       37914.362        2021.861          44.000  
> 2018  4 22 11 21 16.9688020  0  3                     
G 1  22204242.784       43991.182        2013.031          49.250  
G 3  20823018.162      -17451.882        -816.613          42.000  
G11  22866140.549       38116.533        2021.673          44.250  
> 2018  4 22 11 21 17.0688020  0  3                     
G 1  22206112.951       44192.449        2013.215          49.250  
G 3  20824833.818      -17533.588        -817.580          42.250  
G11  22868010.886       38318.677        2021.299          44.250  
> 2018  4 22 11 21 17.1688020  0  3                     
G 1  22207982.940       44393.735        2013.987          49.250  
G 3  20826649.220      -17615.258        -816.821          42.000  
G11  22869881.149       38520.847        2022.608          44.000  
> 2018  4 22 11 21 17.2688020  0  3                     
G 1  22209852.824       44595.111        2014.651          49.250  
G 3  20828465.684      -17696.842        -815.843          42.000  
G11  22871750.904       38723.084        2021.824          44.000  
> 2018  4 22 11 21 17.3688020  0  3                     
G 1  22211722.312       44796.559        2015.265          48.750  
G 3  20830283.358      -17778.348        -814.212          42.000  
G11  22873620.876       38925.404        2023.958          44.000  
> 2018  4 22 11 21 17.4688020  0  3                     
G 1  22213592.277       44998.070        2015.445          49.250  
G 3  20832100.998      -17859.795        -814.593          42.000  
G11  22875491.988       39127.778        2024.446          44.250  
> 2018  4 22 11 21 17.5688020  0  3                     
G 1  22215462.068       45199.646        2016.636          49.250  
G 3  20833916.439      -17941.159        -813.299          42.000  
G11  22877361.862       39330.243        2024.787          44.000  
> 2018  4 22 11 21 17.6688020  0  3                     
G 1  22217331.575       45401.301        2017.176          49.250  
G 3  20835732.328      -18022.427        -811.778          42.000  
G11  22879231.835       39532.770        2025.577          43.750  
> 2018  4 22 11 21 17.7688020  0  3                     
G 1  22219201.149       45602.971        2017.143          49.000  
G 3  20837548.731      -18103.706        -812.889          42.000  
G11  22881102.667       39735.311        2026.332          44.000  
> 2018  4 22 11 21 17.8688020  0  3                     
G 1  22221071.544       45804.658        2017.232          49.000  
G 3  20839363.810      -18184.940        -811.473          42.000  
G11  22882972.960       39937.876        2026.291          44.000  
> 2018  4 22 11 21 17.9688020  0  3                     
G 1  22222941.579       46006.374        2017.510          49.000  
G 3  20841180.477      -18266.159        -812.237          42.000  
G11  22884843.038       40140.451        2025.854          44.250  
> 2018  4 22 11 21 18.0688020  0  3                     
G 1  22224812.163       46208.063        2016.515          49.000  
G 3  20842997.427      -18347.380        -812.952          42.000  
G11  22886711.375       40342.953        1976.011          44.000  
> 2018  4 22 11 21 18.3688020  0  3                     
G 1  22230420.986       46813.069        2015.933          49.000  
G 3  20848443.233      -18591.092        -813.795          42.000  
G11  22892320.062       40950.647        2024.646          44.000  
> 2018  4 22 11 21 18.4688020  0  3                     
G 1  22232290.695       47014.642        2014.926          49.000  
G 3  20850259.524      -18672.400        -812.691          42.000  
G11  22894190.353       41153.093        2023.934          44.250  
> 2018  4 22 11 21 18.5688020  0  3                     
G 1  22234160.179       47216.182        2014.967          49.000  
G 3  20852074.632      -18753.757        -814.260          41.250  
G11  22896062.046       41355.502        2023.818          43.750  
> 2018  4 22 11 21 18.6688020  0  3                     
G 1  22236030.836       47417.611        2013.505          49.000  
G 3  20853891.387      -18835.192        -815.324          42.000  
G11  22897932.608       41557.791        2022.795          43.750  
> 2018  4 22 11 21 18.7688020  0  3                     
G 1  22237900.318       47618.968        2014.186          49.000  
G 3  20855708.764      -18916.730        -815.339          42.250  
G11  22899802.494       41760.014        2021.830          43.750  
> 2018  4 22 11 21 18.8688020  0  3                     
G 1  22239770.410       47820.301        2013.421          48.750  
G 3  20857525.372      -18998.275        -816.676          42.250  
G11  22901672.142       41962.228        2022.193          43.750  
> 2018  4 22 11 21 18.9688020  0  3                     
G 1  22241640.204       48021.602        2012.638          49.000  
G 3  20859341.601      -19079.844        -815.274          41.250  
G11  22903542.071       42164.384        2021.882          43.500  
> 2018  4 22 11 21 19.0688020  0  3                     
G 1  22243510.219       48222.844        2012.468          48.750  
G 3  20861156.985      -19161.451        -815.779          41.750  
G11  22905411.837       42366.498        2019.886          43.500  
> 2018  4 22 11 21 19.1688020  0  3                     
G 1  22245380.274       48424.023        2011.335          49.000  
G 3  20862972.006      -19243.126        -817.517          41.250  
G11  22907280.736       42568.547        2021.006          43.750  
> 2018  4 22 11 21 19.2688020  0  3                     
G 1  22247249.947       48625.169        2011.443          49.000  
G 3  20864787.139      -19324.846        -817.623          42.250  
G11  22909151.087       42770.561        2020.467          43.750  
> 2018  4 22 11 21 19.3688020  0  3                     
G 1  22249119.561       48826.323        2012.446          48.750  
G 3  20866603.368      -19406.521        -817.330          42.250  
G11  22911020.894       42972.580        2020.455          43.750  
> 2018  4 22 11 21 19.4688020  0  3                     
G 1  22250989.387       49027.580        2012.987          49.000  
G 3  20868420.887      -19488.100        -815.729          42.000  
G11  22912891.442       43174.719        2022.041          43.750  
> 2018  4 22 11 21 19.5688020  0  3                     
G 1  22252859.194       49228.895        2013.781          49.000  
G 3  20870237.504      -19569.610        -816.284          41.000  
G11  22914760.818       43376.900        2022.137          44.000  
> 2018  4 22 11 21 19.6688020  0  3                     
G 1  22254728.906       49430.355        2014.814          48.750  
G 3  20872053.012      -19650.982        -813.540          41.250  
G11  22916631.225       43579.225        2024.263          43.750  
> 2018  4 22 11 21 19.7688020  0  3                     
G 1  22256598.234       49631.812        2014.857          48.750  
G 3  20873868.735      -19732.353        -813.348          42.000  
G11  22918500.668       43781.561        2023.198          43.750  
> 2018  4 22 11 21 19.8688020  0  3                     
G 1  22258468.794       49833.350        2015.199          48.750  
G 3  20875684.419      -19813.642        -812.979          41.750  
G11  22920372.147       43983.946        2024.031          44.250  
> 2018  4 22 11 21 19.9688020  0  3                     
G 1  22260338.893       50034.905        2015.706          48.750  
G 3  20877500.337      -19894.895        -813.025          41.750  
G11  22922241.816       44186.373        2025.048          43.750  
> 2018  4 22 11 21 20.0688020  0  3                     
G 1  22262208.823       50236.423        2014.951          49.000  
G 3  20879317.519      -19976.177        -813.607          42.000  
G11  22924112.657       44388.765        2023.652          44.000  
> 2018  4 22 11 21 20.1688020  0  3                     
G 1  22264078.378       50437.950        2014.946          49.000  
G 3  20881134.399      -20057.446        -814.328          41.500  
G11  22925982.785       44591.149        2024.532          44.000  
> 2018  4 22 11 21 20.2688020  0  3                     
G 1  22265948.960       50639.433        2014.898          48.250  
G 3  20882949.520      -20138.753        -812.893          42.000  
G11  22927853.277       44793.498        2024.086          43.750  
> 2018  4 22 11 21 20.3688020  0  3                     
G 1  22267818.530       50840.889        2014.717          48.750  
G 3  20884766.373      -20220.119        -814.313          41.750  
G11  22929722.614       44995.827        2022.944          43.500  
> 2018  4 22 11 21 20.4688020  0  3                     
G 1  22269687.409       51042.325        2014.267          48.750  
G 3  20886582.296      -20301.449        -813.163          41.750  
G11  22931592.747       45198.125        2023.308          44.250  
> 2018  4 22 11 21 20.5688020  0  3                     
G 1  22271557.831       51243.725        2013.795          48.750  
G 3  20888400.416      -20382.815        -814.368          41.750  
G11  22933463.000       45400.394        2022.525          44.000  
> 2018  4 22 11 21 20.6688020  0  3                     
G 1  22273427.575       51445.083        2013.548          48.750  
G 3  20890217.423      -20464.215        -814.414          41.750  
G11  22935333.269       45602.617        2022.249          44.000  
> 2018  4 22 11 21 20.7688020  0  3                     
G 1  22275297.328       51646.330        2012.017          48.750  
G 3  20892032.756      -20545.741        -816.300          41.500  
G11  22937202.642       45804.739        2022.542          43.750  
> 2018  4 22 11 21 20.8688020  0  3                     
G 1  22277167.622       51847.660        2013.286          49.000  
G 3  20893849.190      -20627.161        -814.048          42.000  
G11  22939072.426       46006.920        2022.484          43.750  
> 2018  4 22 11 21 20.9688020  0  3                     
G 1  22279037.932       52049.019        2014.136          48.750  
G 3  20895664.839      -20708.583        -814.839          42.000  
G11  22940942.519       46209.150        2022.561          43.750  
> 2018  4 22 11 21 21.0688020  0  3                     
G 1  22280907.788       52250.459        2015.297          48.750  
G 3  20897480.101      -20789.881        -812.311          41.500  
G11  22942812.808       46411.448        2023.863          43.500  
> 2018  4 22 11 21 21.1688020  0  3                     
G 1  22282777.206       52451.940        2015.468          48.750  
G 3  20899296.816      -20871.160        -813.001          41.750  
G11  22944683.944       46613.797        2024.035          43.750  
> 2018  4 22 11 21 21.2688020  0  3                     
G 1  22284647.877       52653.499        2016.281          48.750  
G 3  20901112.179      -20952.327        -811.283          41.500  
G11  22946553.182       46816.230        2024.855          43.500  
> 2018  4 22 11 21 21.3688020  0  3                     
G 1  22286517.908       52855.097        2016.157          48.500  
G 3  20902928.817      -21033.453        -811.007          41.500  
G11  22948423.864       47018.692        2025.003          43.750  
> 2018  4 22 11 21 21.4688020  0  3                     
G 1  22288387.606       53056.727        2016.367          48.750  
G 3  20904745.349      -21114.552        -811.191          41.000  
G11  22950292.862       47221.186        2025.765          43.750  
> 2018  4 22 11 21 21.5688020  0  3                     
G 1  22290257.627       53258.404        2017.023          48.750  
G 3  20906560.785      -21195.604        -811.407          41.750  
G11  22952162.972       47423.723        2025.955          43.750  
> 2018  4 22 11 21 21.6688020  0  3                     
G 1  22292127.246       53460.145        2017.175          48.500  
G 3  20908377.384      -21276.579        -809.781          41.750  
G11  22954034.487       47626.324        2026.467          43.750  
> 2018  4 22 11 21 21.7688020  0  3                     
G 1  22293997.404       53661.863        2017.493          48.500  
G 3  20910192.320      -21357.546        -809.207          41.500  
G11  22955903.982       47828.909        2025.525          43.750  
> 2018  4 22 11 21 21.8688020  0  3                     
G 1  22295867.984       53863.607        2017.737          48.750  
G 3  20912008.430      -21438.519        -808.935          41.500  
G11  22957774.062       48031.519        2026.421          43.500  
> 2018  4 22 11 21 21.9688020  0  3                     
G 1  22297737.510       54065.323        2017.415          48.750  
G 3  20913824.934      -21519.519        -810.273          41.750  
G11  22959643.772       48234.087        2026.442          43.750  
> 2018  4 22 11 21 22.0688020  0  3                     
G 1  22299607.649       54267.068        2018.290          48.750  
G 3  20915641.445      -21600.472        -810.658          42.000  
G11  22961514.292       48436.704        2026.733          43.750  
> 2018  4 22 11 21 22.1688020  0  3                     
G 1  22301478.107       54468.794        2017.249          49.000  
G 3  20917457.618      -21681.419        -810.310          41.750  
G11  22963384.488       48639.287        2026.191          43.500  
> 2018  4 22 11 21 22.2688020  0  3                     
G 1  22303348.205       54670.532        2017.504          48.750  
G 3  20919273.349      -21762.382        -810.159          41.250  
G11  22965254.741       48841.886        2026.637          43.500  
> 2018  4 22 11 21 22.3688020  0  3                     
G 1  22305218.448       54872.249        2017.669          48.750  
G 3  20921089.226      -21843.330        -809.655          41.250  
G11  22967124.701       49044.453        2026.633          43.250  
> 2018  4 22 11 21 22.4688020  0  3                     
G 1  22307087.815       55073.908        2016.582          48.500  
G 3  20922904.463      -21924.347        -810.497          40.750  
G11  22968993.987       49246.985        2025.271          43.250  
> 2018  4 22 11 21 22.5688020  0  3                     
G 1  22308957.917       55275.506        2016.143          48.750  
G 3  20924720.482      -22005.402        -810.597          41.000  
G11  22970865.201       49449.438        2025.011          43.500  
> 2018  4 22 11 21 22.6688020  0  3                     
G 1  22310827.384       55477.086        2016.113          48.750  
G 3  20926537.234      -22086.474        -809.930          41.250  
G11  22972734.472       49651.882        2025.741          43.500  
> 2018  4 22 11 21 22.7688020  0  3                     
G 1  22312697.756       55678.625        2015.243          48.750  
G 3  20928353.146      -22167.583        -811.877          41.250  
G11  22974605.048       49854.297        2024.327          43.750  
> 2018  4 22 11 21 22.8688020  0  3                     
G 1  22314567.671       55880.193        2016.146          48.500  
G 3  20930169.216      -22248.677        -811.253          41.500  
G11  22976474.703       50056.714        2024.883          43.500  
> 2018  4 22 11 21 22.9688020  0  3                     
G 1  22316437.985       56081.742        2016.460          48.750  
G 3  20931984.371      -22329.753        -809.473          41.500  
G11  22978344.988       50259.116        2025.937          43.250  
> 2018  4 22 11 21 23.0688020  0  3                     
G 1  22318307.725       56283.346        2016.631          48.750  
G 3  20933800.536      -22410.797        -808.739          41.250  
G11  22980214.896       50461.595        2026.221          43.250  
> 2018  4 22 11 21 23.1688020  0  3                     
G 1  22320177.866       56485.018        2016.525          48.500  
G 3  20935616.414      -22491.771        -810.485          41.750  
G11  22982087.010       50664.090        2024.803          43.750  
> 2018  4 22 11 21 23.2688020  0  3                     
G 1  22322047.277       56686.695        2017.139          48.500  
G 3  20937433.275      -22572.709        -809.261          42.000  
G11  22983957.700       50866.642        2026.144          43.750  
> 2018  4 22 11 21 23.3688020  0  3                     
G 1  22323916.823       56888.454        2017.592          48.750  
G 3  20939249.694      -22653.599        -808.713          41.500  
G11  22985827.700       51069.258        2026.675          43.500  
> 2018  4 22 11 21 23.4688020  0  3                     
G 1  22325787.415       57090.212        2017.619          48.750  
G 3  20941066.853      -22734.444        -808.672          41.500  
G11  22987698.110       51271.877        2026.817          43.500  
> 2018  4 22 11 21 23.5688020  0  3                     
G 1  22327657.079       57291.985        2018.615          49.000  
G 3  20942881.538      -22815.256        -807.520          40.750  
G11  22989567.385       51474.513        2026.634          43.500  
> 2018  4 22 11 21 23.6688020  0  3                     
G 1  22329526.985       57493.786        2018.026          49.000  
G 3  20944697.319      -22896.063        -808.444          40.750  
G11  22991437.482       51677.173        2026.340          43.000  
> 2018  4 22 11 21 23.7688020  0  3                     
G 1  22331396.722       57695.592        2017.636          48.750  
G 3  20946511.807      -22976.870        -808.260          40.750  
G11  22993308.146       51879.840        2026.372          43.250  
> 2018  4 22 11 21 23.8688020  0  3                     
G 1  22333266.900       57897.396        2018.492          48.750  
G 3  20948328.085      -23057.646        -808.201          40.250  
G11  22995177.393       52082.503        2027.661          43.250  
> 2018  4 22 11 21 23.9688020  0  3                     
G 1  22335137.187       58099.242        2018.775          48.750  
G 3  20950144.741      -23138.404        -809.125          40.750  
G11  22997046.416       52285.184        2026.643          43.250  
> 2018  4 22 11 21 24.0688020  0  3                     
G 1  22337007.008       58301.172        2037.078          48.750  
G 3  20951960.799      -23219.103        -806.198          40.750  
G11  22998915.383       52487.935        2027.875          43.000  
> 2018  4 22 11 21 24.1688020  0  3                     
G 1  22338877.649       58503.130        2027.353          48.750  
G 3  20953776.516      -23299.772        -807.010          40.750  
G11  23000785.616       52690.699        2028.016          43.000  
> 2018  4 22 11 21 24.2688020  0  3                     
G 1  22340746.915       58704.897        2019.335          48.750  
G 3  20955592.955      -23380.462        -806.713          41.250  
G11  23002656.132       52893.432        2028.091          43.000  
> 2018  4 22 11 21 24.3688020  0  3                     
G 1  22342616.600       58906.788        2019.240          48.750  
G 3  20957409.831      -23461.140        -807.166          41.250  
G11  23004526.334       53096.178        2028.643          43.250  
> 2018  4 22 11 21 24.4688020  0  3                     
G 1  22344487.308       59108.644        2018.363          48.750  
G 3  20959226.971      -23541.847        -807.930          41.250  
G11  23006396.477       53298.906        2028.171          43.250  
> 2018  4 22 11 21 24.5688020  0  3                     
G 1  22346357.310       59310.468        2018.237          49.000  
G 3  20961042.658      -23622.584        -807.798          41.500  
G11  23008266.469       53501.567        2026.747          43.250  
> 2018  4 22 11 21 24.6688020  0  3                     
G 1  22348226.977       59512.281        2018.418          49.000  
G 3  20962858.766      -23703.300        -807.833          41.250  
G11  23010138.199       53704.243        2026.211          43.250  
> 2018  4 22 11 21 24.7688020  0  3                     
G 1  22350096.663       59714.067        2017.797          48.750  
G 3  20964674.261      -23784.061        -807.211          41.500  
G11  23012007.457       53906.884        2026.663          43.500  
> 2018  4 22 11 21 24.8688020  0  3                     
G 1  22351966.295       59915.816        2017.149          48.750  
G 3  20966489.733      -23864.854        -808.090          41.250  
G11  23013877.525       54109.489        2026.191          43.500  
> 2018  4 22 11 21 24.9688020  0  3                     
G 1  22353836.491       60117.553        2017.493          49.000  
G 3  20968305.836      -23945.649        -807.571          41.250  
G11  23015747.259       54312.070        2025.816          43.500  
> 2018  4 22 11 21 25.0688020  0  3                     
G 1  22355706.877       60319.297        2017.967          49.000  
G 3  20970122.571      -24026.441        -807.501          40.750  
G11  23017616.635       54514.668        2026.168          43.000  
> 2018  4 22 11 21 25.1688020  0  3                     
G 1  22357576.826       60521.026        2017.020          48.750  
G 3  20971940.464      -24107.233        -808.761          41.000  
G11  23019487.515       54717.263        2025.565          43.250  
> 2018  4 22 11 21 25.2688020  0  3                     
G 1  22359446.659       60722.688        2015.674          48.750  
G 3  20973756.667      -24188.078        -808.952          41.250  
G11  23021357.198       54919.781        2025.229          43.000  
> 2018  4 22 11 21 25.3688020  0  3                     
G 1  22361317.134       60924.326        2016.462          49.000  
G 3  20975571.048      -24268.956        -808.226          40.500  
G11  23023226.935       55122.268        2025.916          43.250  
> 2018  4 22 11 21 25.4688020  0  3                     
G 1  22363187.864       61125.945        2016.929          49.000  
G 3  20977387.273      -24349.841        -809.587          40.500  
G11  23025097.385       55324.744        2025.542          43.000  
> 2018  4 22 11 21 25.5688020  0  3                     
G 1  22365057.643       61327.532        2015.988          49.000  
G 3  20979203.373      -24430.763        -810.026          40.500  
G11  23026967.979       55527.190        2023.672          43.000  
> 2018  4 22 11 21 25.6688020  0  3                     
G 1  22366927.244       61529.137        2016.171          49.000  
G 3  20981019.120      -24511.634        -807.889          40.750  
G11  23028838.497       55729.635        2024.524          43.500  
> 2018  4 22 11 21 25.7688020  0  3                     
G 1  22368797.692       61730.648        2014.686          49.000  
G 3  20982834.412      -24592.604        -809.723          40.250  
G11  23030708.357       55932.014        2022.943          43.000  
> 2018  4 22 11 21 25.8688020  0  3                     
G 1  22370666.707       61932.129        2015.042          48.750  
G 3  20984649.812      -24673.614        -810.561          39.750  
G11  23032578.220       56134.339        2024.181          42.750  
> 2018  4 22 11 21 25.9688020  0  3                     
G 1  22372536.356       62133.609        2014.175          49.000  
G 3  20986466.025      -24754.598        -809.108          40.000  
G11  23034447.860       56336.680        2022.945          43.000  
> 2018  4 22 11 21 26.0688020  0  3                     
G 1  22374406.144       62335.196        2016.938          48.750  
G 3  20988283.069      -24835.485        -807.430          40.250  
G11  23036318.748       56539.092        2024.951          42.750  
> 2018  4 22 11 21 26.1688020  0  3                     
G 1  22376275.591       62536.834        2016.541          48.750  
G 3  20990098.471      -24916.315        -808.446          40.000  
G11  23038189.279       56741.621        2026.086          43.000  
> 2018  4 22 11 21 26.2688020  0  3                     
G 1  22378145.443       62738.577        2018.210          49.000  
G 3  20991912.559      -24997.027        -806.596          39.750  
G11  23040059.889       56944.197        2026.170          42.750  
> 2018  4 22 11 21 26.3688020  0  3                     
G 1  22380015.561       62940.386        2018.475          49.000  
G 3  20993729.536      -25077.667        -805.970          40.250  
G11  23041928.484       57146.872        2026.530          43.250  
> 2018  4 22 11 21 26.4688020  0  3                     
G 1  22381885.506       63142.215        2018.472          49.000  
G 3  20995544.655      -25158.300        -806.404          40.500  
G11  23043798.026       57349.540        2026.149          42.750  
> 2018  4 22 11 21 26.5688020  0  3                     
G 1  22383755.773       63343.983        2016.998          49.000  
G 3  20997359.809      -25238.967        -806.761          39.750  
G11  23045668.554       57552.175        2026.034          43.250  
> 2018  4 22 11 21 26.6688020  0  3                     
G 1  22385625.856       63545.726        2017.430          49.000  
G 3  20999176.119      -25319.667        -806.909          40.250  
G11  23047539.137       57754.759        2026.090          43.000  
> 2018  4 22 11 21 26.7688020  0  3                     
G 1  22387495.846       63747.424        2016.488          49.000  
G 3  21000992.704      -25400.386        -808.256          40.000  
G11  23049408.734       57957.316        2024.868          43.250  
> 2018  4 22 11 21 26.8688020  0  3                     
G 1  22389365.344       63949.112        2016.540          49.000  
G 3  21002810.298      -25481.123        -808.408          40.000  
G11  23051278.644       58159.846        2025.080          43.000  
> 2018  4 22 11 21 26.9688020  0  3                     
G 1  22391235.299       64150.788        2016.674          49.000  
G 3  21004627.320      -25561.870        -807.364          40.000  
G11  23053148.711       58362.376        2025.109          43.000  
> 2018  4 22 11 21 27.0688020  0  3                     
G 1  22393104.907       64352.434        2017.256          48.750  
G 3  21006444.882      -25642.643        -807.761          39.500  
G11  23055018.905       58564.877        2025.053          43.000  
> 2018  4 22 11 21 27.1688020  0  3                     
G 1  22394975.493       64554.131        2017.327          49.000  
G 3  21008261.916      -25723.365        -806.985          40.250  
G11  23056889.279       58767.411        2026.328          43.250  
> 2018  4 22 11 21 27.2688020  0  3                     
G 1  22396845.465       64755.798        2016.804          49.000  
G 3  21010076.718      -25804.078        -807.167          40.500  
G11  23058760.152       58969.944        2025.297          43.500  
> 2018  4 22 11 21 27.3688020  0  3                     
G 1  22398716.010       64957.479        2016.781          49.000  
G 3  21011891.832      -25884.786        -807.451          40.000  
G11  23060630.083       59172.472        2026.109          43.250  
> 2018  4 22 11 21 27.4688020  0  3                     
G 1  22400586.011       65159.178        2017.387          49.000  
G 3  21013708.878      -25965.498        -806.391          40.250  
G11  23062500.676       59375.018        2025.902          43.000  
> 2018  4 22 11 21 27.5688020  0  3                     
G 1  22402455.689       65360.875        2016.470          49.000  
G 3  21015524.029      -26046.177        -806.740          39.750  
G11  23064371.785       59577.555        2025.088          43.250  
> 2018  4 22 11 21 27.6688020  0  3                     
G 1  22404325.702       65562.539        2016.596          48.750  
G 3  21017339.182      -26126.906        -807.197          40.250  
G11  23066241.052       59780.086        2025.547          43.250  
> 2018  4 22 11 21 27.7688020  0  3                     
G 1  22406194.888       65764.127        2016.009          48.500  
G 3  21019155.229      -26207.691        -808.964          40.250  
G11  23068111.104       59982.511        2023.851          43.000  
> 2018  4 22 11 21 27.8688020  0  3                     
G 1  22408064.683       65965.696        2015.604          48.750  
G 3  21020973.488      -26288.488        -808.712          40.000  
G11  23069981.433       60184.924        2024.729          43.250  
> 2018  4 22 11 21 27.9688020  0  3                     
G 1  22409934.313       66167.322        2016.516          48.500  
G 3  21022789.943      -26369.230        -808.492          40.000  
G11  23071850.322       60387.396        2025.602          43.250  
> 2018  4 22 11 21 28.0688020  0  3                     
G 1  22411804.083       66369.031        2017.576          49.000  
G 3  21024605.031      -26449.877        -806.132          39.750  
G11  23073720.601       60589.955        2024.989          43.250  
> 2018  4 22 11 21 28.1688020  0  3                     
G 1  22413674.258       66570.749        2016.784          48.750  
G 3  21026421.341      -26530.501        -805.975          40.250  
G11  23075591.333       60792.524        2025.349          43.000  
> 2018  4 22 11 21 28.2688020  0  3                     
G 1  22415544.396       66772.426        2017.160          48.750  
G 3  21028238.737      -26611.175        -807.531          40.250  
G11  23077461.622       60995.055        2025.783          43.000  
> 2018  4 22 11 21 28.3688020  0  3                     
G 1  22417414.689       66974.161        2017.954          48.750  
G 3  21030056.116      -26691.774        -805.054          40.000  
G11  23079333.890       61197.642        2026.359          43.000  
> 2018  4 22 11 21 28.4688020  0  3                     
G 1  22419284.153       67176.022        2018.791          48.500  
G 3  21031871.248      -26772.264        -804.362          40.250  
G11  23081202.919       61400.339        2026.970          43.000  
> 2018  4 22 11 21 28.5688020  0  3                     
G 1  22421154.016       67377.889        2019.067          48.750  
G 3  21033687.105      -26852.713        -802.828          40.000  
G11  23083072.332       61603.067        2029.920          42.750  
> 2018  4 22 11 21 28.6688020  0  3                     
G 1  22423023.878       67579.738        2018.255          49.000  
G 3  21035503.438      -26933.181        -803.916          40.500  
G11  23084942.415       61805.736        2026.844          42.750  
> 2018  4 22 11 21 28.7688020  0  3                     
G 1  22424893.993       67781.546        2017.782          48.750  
G 3  21037319.567      -27013.715        -804.898          40.250  
G11  23086812.891       62008.395        2026.999          43.250  
> 2018  4 22 11 21 28.8688020  0  3                     
G 1  22426763.832       67983.321        2017.359          48.750  
G 3  21039134.681      -27094.249        -805.717          40.000  
G11  23088683.823       62211.022        2026.796          43.000  
> 2018  4 22 11 21 28.9688020  0  3                     
G 1  22428634.130       68185.105        2018.093          48.750  
G 3  21040951.486      -27174.765        -805.080          40.250  
G11  23090553.436       62413.660        2027.031          43.250  
> 2018  4 22 11 21 29.0688020  0  3                     
G 1  22430503.924       68386.892        2018.011          49.000  
G 3  21042769.624      -27255.273        -804.125          39.250  
G11  23092422.782       62616.300        2027.468          43.000  
> 2018  4 22 11 21 29.1688020  0  3                     
G 1  22432373.654       68588.672        2017.899          48.500  
G 3  21044585.382      -27335.791        -805.880          39.750  
G11  23094292.834       62818.930        2027.814          42.750  
> 2018  4 22 11 21 29.2688020  0  3                     
G 1  22434244.494       68790.456        2018.510          49.000  
G 3  21046401.849      -27416.307        -804.761          39.500  
G11  23096162.686       63021.541        2025.456          43.000  
> 2018  4 22 11 21 29.3688020  0  3                     
G 1  22436114.763       68992.249        2018.593          49.000  
G 3  21048217.116      -27496.789        -804.030          39.750  
G11  23098032.131       63224.188        2026.650          43.000  
> 2018  4 22 11 21 29.4688020  0  3                     
G 1  22437984.816       69194.072        2019.269          48.750  
G 3  21050032.989      -27577.261        -804.310          39.750  
G11  23099903.198       63426.856        2027.313          42.750  
> 2018  4 22 11 21 29.5688020  0  3                     
G 1  22439855.518       69395.914        2019.312          48.750  
G 3  21051847.284      -27657.677        -804.834          39.250  
G11  23101773.807       63629.532        2027.062          42.750  
> 2018  4 22 11 21 29.6688020  0  3                     
G 1  22441725.055       69597.792        2019.186          48.500  
G 3  21053664.350      -27738.079        -805.007          39.750  
G11  23103642.848       63832.254        2027.005          43.000  
> 2018  4 22 11 21 29.7688020  0  3                     
G 1  22443595.049       69799.731        2019.954          48.750  
G 3  21055481.685      -27818.408        -804.040          40.000  
G11  23105512.161       64035.037        2027.806          43.000  
> 2018  4 22 11 21 29.8688020  0  3                     
G 1  22445465.389       70001.634        2018.854          48.750  
G 3  21057299.369      -27898.759        -804.371          39.500  
G11  23107382.488       64237.787        2027.479          42.500  
> 2018  4 22 11 21 29.9688020  0  3                     
G 1  22447336.127       70203.506        2018.519          48.750  
G 3  21059116.629      -27979.121        -804.353          40.250  
G11  23109252.714       64440.511        2026.426          42.500  
> 2018  4 22 11 21 30.0688020  0  3                     
G 1  22449205.629       70405.334        2018.443          48.500  
G 3  21060932.582      -28059.543        -804.037          40.500  
G11  23111122.951       64642.938        1996.900          42.750  
> 2018  4 22 11 21 30.1688020  0  3                     
G 1  22451075.279       70607.178        2018.427          48.500  
G 3  21062749.823      -28139.952        -803.204          40.500  
G11  23112993.057       64846.103        2069.629          42.500  
> 2018  4 22 11 21 30.2688020  0  3                     
G 1  22452944.315       70808.942        2017.452          48.500  
G 3  21064567.233      -28220.435        -805.762          40.750  
G11  23114863.589       65048.471        2025.742          42.750  
> 2018  4 22 11 21 30.3688020  0  3                     
G 1  22454814.268       71010.686        2017.448          49.000  
G 3  21066382.496      -28300.914        -805.246          39.750  
G11  23116732.853       65251.051        2025.809          42.750  
> 2018  4 22 11 21 30.4688020  0  3                     
G 1  22456684.302       71212.431        2017.383          49.000  
G 3  21068199.102      -28381.398        -804.596          40.000  
G11  23118603.904       65453.644        2025.409          42.750  
> 2018  4 22 11 21 30.5688020  0  3                     
G 1  22458554.004       71414.153        2017.274          48.750  
G 3  21070014.640      -28461.887        -804.551          39.500  
G11  23120473.544       65656.208        2026.070          42.500  
> 2018  4 22 11 21 30.6688020  0  3                     
G 1  22460424.519       71615.964        2018.838          48.750  
G 3  21071829.761      -28542.282        -803.488          39.500  
G11  23122342.747       65858.868        2027.321          43.000  
> 2018  4 22 11 21 30.7688020  0  3                     
G 1  22462295.043       71817.787        2019.157          48.500  
G 3  21073645.669      -28622.670        -804.348          40.000  
G11  23124212.818       66061.539        2027.179          42.500  
> 2018  4 22 11 21 30.8688020  0  3                     
G 1  22464165.307       72019.656        2018.872          49.000  
G 3  21075461.870      -28703.025        -802.428          39.500  
G11  23126083.105       66264.231        2027.207          42.750  
> 2018  4 22 11 21 30.9688020  0  3                     
G 1  22466034.737       72221.514        2018.021          49.000  
G 3  21077278.186      -28783.333        -804.088          39.500  
G11  23127952.195       66466.935        2026.484          42.500  
> 2018  4 22 11 21 31.0688020  0  3                     
G 1  22467904.778       72423.358        2018.396          49.000  
G 3  21079093.146      -28863.664        -803.451          39.000  
G11  23129822.097       66669.617        2027.696          42.500  
> 2018  4 22 11 21 31.1688020  0  3                     
G 1  22469774.532       72625.185        2017.917          48.750  
G 3  21080907.410      -28944.038        -804.304          38.750  
G11  23131692.683       66872.288        2026.390          42.750  
> 2018  4 22 11 21 31.2688020  0  3                     
G 1  22471644.733       72826.976        2017.969          48.750  
G 3  21082724.268      -29024.392        -803.229          39.250  
G11  23133563.519       67074.921        2026.157          42.250  
> 2018  4 22 11 21 31.3688020  0  3                     
G 1  22473515.447       73028.762        2017.822          48.750  
G 3  21084541.446      -29104.804        -805.313          39.250  
G11  23135435.436       67277.540        2025.336          42.500  
> 2018  4 22 11 21 31.4688020  0  3                     
G 1  22475385.193       73230.439        2016.767          48.750  
G 3  21086356.537      -29185.296        -805.328          40.000  
G11  23137305.644       67480.052        2025.319          42.500  
> 2018  4 22 11 21 31.5688020  0  3                     
G 1  22477254.995       73432.112        2017.242          49.000  
G 3  21088173.733      -29265.796        -804.111          40.000  
G11  23139174.827       67682.576        2024.679          42.500  
> 2018  4 22 11 21 31.6688020  0  3                     
G 1  22479125.315       73633.775        2016.553          49.000  
G 3  21089990.554      -29346.294        -805.392          40.000  
G11  23141045.546       67885.077        2025.493          42.500  
> 2018  4 22 11 21 31.7688020  0  3                     
G 1  22480995.465       73835.399        2016.403          48.750  
G 3  21091808.585      -29426.810        -804.980          40.250  
G11  23142914.942       68087.543        2025.071          43.000  
> 2018  4 22 11 21 31.8688020  0  3                     
G 1  22482864.873       74037.028        2016.344          48.750  
G 3  21093624.495      -29507.337        -805.742          40.250  
G11  23144785.085       68290.012        2024.306          43.000  
> 2018  4 22 11 21 31.9688020  0  3                     
G 1  22484735.061       74238.610        2015.893          48.750  
G 3  21095441.402      -29587.905        -805.627          40.000  
G11  23146654.677       68492.419        2023.588          42.750  
> 2018  4 22 11 21 32.0688020  0  3                     
G 1  22486605.314       74440.120        2015.183          49.000  
G 3  21097257.662      -29668.525        -804.456          40.000  
G11  23148524.478       68694.768        2023.178          42.750  
> 2018  4 22 11 21 32.1688020  0  3                     
G 1  22488474.662       74641.634        2015.378          48.750  
G 3  21099073.325      -29749.137        -806.772          39.000  
G11  23150394.667       68897.129        2023.299          42.750  
> 2018  4 22 11 21 32.2688020  0  3                     
G 1  22490344.390       74843.180        2016.054          48.750  
G 3  21100889.746      -29829.704        -805.026          39.250  
G11  23152265.494       69099.506        2024.149          42.500  
> 2018  4 22 11 21 32.3688020  0  3                     
G 1  22492213.928       75044.827        2016.807          48.750  
G 3  21102706.562      -29910.188        -804.409          39.250  
G11  23154136.945       69302.006        2025.466          42.500  
> 2018  4 22 11 21 32.4688020  0  3                     
G 1  22494084.068       75246.499        2017.884          48.750  
G 3  21104520.695      -29990.624        -803.268          38.750  
G11  23156008.295       69504.527        2024.900          42.500  
> 2018  4 22 11 21 32.5688020  0  3                     
G 1  22495953.987       75448.290        2018.750          48.750  
G 3  21106335.557      -30070.939        -802.322          38.750  
G11  23157878.791       69707.130        2026.560          42.750  
> 2018  4 22 11 21 32.6688020  0  3                     
G 1  22497824.755       75650.135        2019.304          48.750  
G 3  21108151.762      -30151.183        -801.438          39.000  
G11  23159748.500       69909.822        2027.745          43.000  
> 2018  4 22 11 21 32.7688020  0  3                     
G 1  22499694.785       75852.012        2018.207          49.000  
G 3  21109968.945      -30231.406        -801.326          39.250  
G11  23161618.222       70112.533        2026.244          43.250  
> 2018  4 22 11 21 32.8688020  0  3                     
G 1  22501564.435       76053.899        2019.637          48.750  
G 3  21111785.808      -30311.584        -800.367          39.250  
G11  23163486.325       70315.262        2027.997          43.000  
> 2018  4 22 11 21 32.9688020  0  3                     
G 1  22503434.143       76255.864        2019.756          48.750  
G 3  21113601.624      -30391.691        -800.025          39.000  
G11  23165356.823       70518.056        2027.828          42.750  
> 2018  4 22 11 21 33.0688020  0  3                     
G 1  22505304.827       76457.836        2019.986          48.750  
G 3  21115417.893      -30471.828        -801.596          39.750  
G11  23167227.971       70720.872        2027.891          42.750  
> 2018  4 22 11 21 33.1688020  0  3                     
G 1  22507174.406       76659.813        2020.389          48.750  
G 3  21117235.293      -30551.923        -801.063          39.000  
G11  23169098.447       70923.683        2027.779          43.000  
> 2018  4 22 11 21 33.2688020  0  3                     
G 1  22509044.171       76861.817        2019.958          48.750  
G 3  21119051.680      -30631.994        -800.388          39.750  
G11  23170969.833       71126.524        2028.986          43.000  
> 2018  4 22 11 21 33.3688020  0  3                     
G 1  22510914.941       77063.780        2019.519          49.000  
G 3  21120868.888      -30712.099        -801.642          40.250  
G11  23172838.671       71329.330        2027.704          43.250  
> 2018  4 22 11 21 33.4688020  0  3                     
G 1  22512784.950       77265.767        2020.576          48.750  
G 3  21122685.482      -30792.179        -800.121          40.000  
G11  23174708.054       71532.131        2028.149          43.000  
> 2018  4 22 11 21 33.5688020  0  3                     
G 1  22514654.735       77467.762        2019.204          49.000  
G 3  21124501.875      -30872.203        -801.244          40.000  
G11  23176578.815       71734.975        2026.334          42.500  
> 2018  4 22 11 21 33.6688020  0  3                     
G 1  22516524.585       77669.710        2018.814          48.750  
G 3  21126316.351      -30952.311        -801.217          39.250  
G11  23178449.571       71937.768        2027.495          43.000  
> 2018  4 22 11 21 33.7688020  0  3                     
G 1  22518395.439       77871.673        2019.958          49.000  
G 3  21128131.444      -31032.388        -799.883          39.000  
G11  23180318.922       72140.555        2026.854          43.000  
> 2018  4 22 11 21 33.8688020  0  3                     
G 1  22520265.729       78073.647        2019.776          49.000  
G 3  21129950.176      -31112.435        -799.246          38.500  
G11  23182189.136       72343.360        2028.047          43.250  
> 2018  4 22 11 21 33.9688020  0  3                     
G 1  22522135.200       78275.600        2020.505          48.750  
G 3  21131767.687      -31192.510        -799.833          39.000  
G11  23184059.341       72546.156        2029.053          43.250  
> 2018  4 22 11 21 34.0688020  0  3                     
G 1  22524005.193       78477.538        2019.525          49.000  
G 3  21133583.854      -31272.581        -799.802          39.250  
G11  23185931.367       72748.925        2027.267          43.500  
> 2018  4 22 11 21 34.1688020  0  3                     
G 1  22525875.067       78679.454        2019.096          48.500  
G 3  21135400.208      -31352.695        -801.311          39.250  
G11  23187801.845       72951.669        2027.386          43.250  
> 2018  4 22 11 21 34.2688020  0  3                     
G 1  22527744.688       78881.276        2018.045          48.750  
G 3  21137216.454      -31432.872        -802.408          40.000  
G11  23189672.102       73154.317        2025.807          43.250  
> 2018  4 22 11 21 34.3688020  0  3                     
G 1  22529614.880       79083.018        2017.247          48.750  
G 3  21139033.487      -31513.123        -803.224          39.750  
G11  23191542.007       73356.905        2025.550          43.250  
> 2018  4 22 11 21 34.4688020  0  3                     
G 1  22531484.819       79284.754        2017.273          48.500  
G 3  21140852.499      -31593.408        -803.934          40.000  
G11  23193411.796       73559.468        2025.764          43.250  
> 2018  4 22 11 21 34.5688020  0  3                     
G 1  22533354.682       79486.478        2017.637          48.750  
G 3  21142669.617      -31673.657        -802.196          39.500  
G11  23195281.372       73762.041        2025.542          43.000  
> 2018  4 22 11 21 34.6688020  0  3                     
G 1  22535224.308       79688.210        2016.657          48.750  
G 3  21144485.463      -31753.948        -802.197          39.750  
G11  23197151.527       73964.590        2025.095          43.250  
> 2018  4 22 11 21 34.7688020  0  3                     
G 1  22537094.431       79889.911        2017.230          49.000  
G 3  21146300.486      -31834.219        -801.694          39.750  
G11  23199021.913       74167.120        2025.105          43.250  
> 2018  4 22 11 21 34.8688020  0  3                     
G 1  22538964.574       80091.665        2017.723          48.750  
G 3  21148115.790      -31914.451        -801.954          39.750  
G11  23200893.235       74369.699        2026.060          43.000  
> 2018  4 22 11 21 34.9688020  0  3                     
G 1  22540834.614       80293.450        2017.862          48.750  
G 3  21149930.686      -31994.623        -801.502          39.500  
G11  23202762.529       74572.344        2026.800          43.000  
> 2018  4 22 11 21 35.0688020  0  3                     
G 1  22542704.750       80495.311        2018.997          49.000  
G 3  21151747.296      -32074.719        -800.061          39.750  
G11  23204632.707       74775.020        2028.083          43.250  
> 2018  4 22 11 21 35.1688020  0  3                     
G 1  22544574.590       80697.237        2019.702          48.750  
G 3  21153561.815      -32154.770        -800.677          38.750  
G11  23206503.472       74977.768        2027.462          43.250  
> 2018  4 22 11 21 35.2688020  0  3                     
G 1  22546443.992       80899.193        2019.840          48.500  
G 3  21155377.470      -32234.781        -800.429          39.000  
G11  23208373.838       75180.563        2028.397          43.500  
> 2018  4 22 11 21 35.3688020  0  3                     
G 1  22548313.738       81101.213        2021.135          48.750  
G 3  21157194.460      -32314.714        -798.706          39.000  
G11  23210244.349       75383.408        2027.980          43.500  
> 2018  4 22 11 21 35.4688020  0  3                     
G 1  22550183.906       81303.288        2020.572          48.750  
G 3  21159011.677      -32394.588        -798.633          39.250  
G11  23212114.007       75586.317        2029.009          43.500  
> 2018  4 22 11 21 35.5688020  0  3                     
G 1  22552053.513       81505.288        2020.413          48.750  
G 3  21160827.874      -32474.522        -799.791          39.250  
G11  23213984.295       75789.147        2028.808          43.750  
> 2018  4 22 11 21 35.6688020  0  3                     
G 1  22553923.062       81707.298        2020.549          48.750  
G 3  21162645.254      -32554.450        -799.924          39.000  
G11  23215854.825       75991.985        2029.067          43.500  
> 2018  4 22 11 21 35.7688020  0  3                     
G 1  22555793.395       81909.305        2020.616          48.500  
G 3  21164462.426      -32634.369        -799.115          39.000  
G11  23217725.770       76194.832        2029.217          43.750  
> 2018  4 22 11 21 35.8688020  0  3                     
G 1  22557663.711       82111.283        2020.866          48.750  
G 3  21166278.904      -32714.296        -798.143          39.000  
G11  23219596.643       76397.624        2027.199          43.750  
> 2018  4 22 11 21 35.9688020  0  3                     
G 1  22559534.185       82313.290        2019.959          48.500  
G 3  21168094.235      -32794.208        -798.351          39.250  
G11  23221466.548       76600.472        2028.198          43.750  
> 2018  4 22 11 21 36.0688020  0  7                     
G 1  23175532.291       82511.172        2020.802          48.750  
G 3  21784038.129      -32872.461        -798.811          39.250  
G11  23837463.942       76799.323        2050.744          43.750  
G17  21485038.635      -82781.204       -2305.329          51.000  
G19  21907423.403     -110042.831       -3159.648          42.750  
G22  23344330.294       27636.256         827.515          47.500  
G28  21066355.470       11905.426         380.802          47.750  
> 2018  4 22 11 21 36.4688020  0  7                     
G 1  23183011.688       83319.443        2020.906          48.500  
G 3  21791302.745      -33191.778        -797.648          38.750  
G11  23844944.595       77610.757        2029.549          43.750  
G17  21492189.144      -83703.166       -2304.518          50.750  
G19  21914509.794     -111306.525       -3159.262          43.000  
G22  23351721.586       27967.470         829.097          47.500  
G28  21073708.476       12057.886         381.638          47.500  
> 2018  4 22 11 21 36.5688020  0  7                     
G 1  23184881.753       83521.552        2021.421          48.750  
G 3  21793117.892      -33271.560        -797.381          39.750  
G11  23846814.934       77813.697        2029.447          43.750  
G17  21493976.891      -83933.612       -2304.220          51.000  
G19  21916281.295     -111622.417       -3158.517          43.000  
G22  23353568.162       28050.312         828.007          47.500  
G28  21075549.674       12096.054         381.600          47.500  
> 2018  4 22 11 21 36.6688020  0  7                     
G 1  23186751.745       83723.685        2021.664          48.750  
G 3  21794934.101      -33351.315        -798.330          39.500  
G11  23848683.580       78016.651        2030.240          43.750  
G17  21495764.770      -84164.043       -2304.620          51.000  
G19  21918053.843     -111938.276       -3158.208          42.750  
G22  23355415.621       28133.193         828.307          47.500  
G28  21077386.404       12134.247         381.311          47.500  
> 2018  4 22 11 21 36.7688020  0  7                     
G 1  23188621.793       83925.828        2022.233          48.500  
G 3  21796751.606      -33431.037        -795.770          38.750  
G11  23850553.390       78219.618        2030.101          43.500  
G17  21497552.806      -84394.452       -2303.285          50.750  
G19  21919824.832     -112254.123       -3158.458          43.000  
G22  23357263.344       28216.082         830.355          47.500  
G28  21079226.082       12172.452         383.592          47.750  
> 2018  4 22 11 21 36.8688020  0  7                     
G 1  23190493.275       84127.958        2020.397          48.750  
G 3  21798568.972      -33510.760        -796.831          39.250  
G11  23852422.776       78422.592        2029.114          43.250  
G17  21499340.568      -84624.872       -2304.258          51.000  
G19  21921596.496     -112569.989       -3159.497          43.000  
G22  23359110.012       28298.979         827.612          47.500  
G28  21081064.959       12210.657         382.033          47.750  
> 2018  4 22 11 21 36.9688020  0  7                     
G 1  23192363.379       84330.088        2021.663          48.750  
G 3  21800386.526      -33590.492        -796.355          39.250  
G11  23854293.520       78625.531        2029.196          43.500  
G17  21501128.140      -84855.291       -2304.211          50.750  
G19  21923368.506     -112885.836       -3158.413          42.500  
G22  23360957.309       28381.869         829.520          47.250  
G28  21082902.307       12248.854         382.346          47.500  
> 2018  4 22 11 21 37.0688020  0  7                     
G 1  23194233.020       84532.228        2021.765          48.750  
G 3  21802201.648      -33670.192        -797.052          39.000  
G11  23856162.841       78828.492        2029.213          43.500  
G17  21502915.746      -85085.715       -2304.236          50.750  
G19  21925139.029     -113201.683       -3158.570          43.000  
G22  23362804.392       28464.762         829.864          47.500  
G28  21084742.766       12287.057         381.741          47.750  
> 2018  4 22 11 21 37.1688020  0  7                     
G 1  23196102.970       84734.362        2020.992          48.750  
G 3  21804016.324      -33749.952        -796.109          39.250  
G11  23858033.129       79031.446        2029.536          43.750  
G17  21504702.826      -85316.143       -2304.604          50.750  
G19  21926911.648     -113517.565       -3159.283          43.250  
G22  23364651.153       28547.648         828.186          47.500  
G28  21086581.446       12325.276         382.184          47.500  
> 2018  4 22 11 21 37.2688020  0  7                     
G 1  23197972.575       84936.415        2020.181          48.750  
G 3  21805832.907      -33829.730        -799.043          39.250  
G11  23859903.572       79234.347        2028.843          43.500  
G17  21506490.443      -85546.634       -2305.722          50.750  
G19  21928682.330     -113833.475       -3159.858          43.000  
G22  23366498.525       28630.488         827.623          47.500  
G28  21088421.111       12363.417         380.494          47.750  
> 2018  4 22 11 21 37.3688020  0  7                     
G 1  23199842.996       85138.440        2019.997          48.500  
G 3  21807647.948      -33909.536        -798.637          39.000  
G11  23861772.753       79437.181        2027.785          43.750  
G17  21508278.313      -85777.155       -2305.518          50.750  
G19  21930454.601     -114149.431       -3161.155          42.750  
G22  23368346.665       28713.276         827.572          47.250  
G28  21090259.628       12401.531         380.862          47.500  
> 2018  4 22 11 21 37.4688020  0  7                     
G 1  23201712.767       85340.420        2020.059          48.500  
G 3  21809464.433      -33989.375        -798.060          38.750  
G11  23863643.652       79639.991        2027.897          43.750  
G17  21510065.942      -86007.724       -2305.862          51.000  
G19  21932224.273     -114465.437       -3159.434          42.500  
G22  23370193.637       28796.042         827.515          47.500  
G28  21092097.807       12439.609         380.404          47.750  
> 2018  4 22 11 21 37.5688020  0  7                     
G 1  23203582.608       85542.399        2020.288          48.500  
G 3  21811281.509      -34069.238        -798.004          39.000  
G11  23865514.540       79842.796        2028.964          43.750  
G17  21511854.019      -86238.298       -2305.688          51.000  
G19  21933996.520     -114781.454       -3159.851          43.000  
G22  23372041.302       28878.793         827.561          47.750  
G28  21093938.100       12477.682         381.131          47.750  
> 2018  4 22 11 21 37.6688020  0  7                     
G 1  23205453.033       85744.367        2020.302          48.750  
G 3  21813098.819      -34149.081        -797.573          38.750  
G11  23867385.583       80045.613        2028.943          43.750  
G17  21513641.773      -86468.874       -2305.114          50.750  
G19  21935767.878     -115097.453       -3159.805          42.750  
G22  23373889.002       28961.554         828.262          47.500  
G28  21095774.321       12515.751         380.920          47.750  
> 2018  4 22 11 21 37.7688020  0  7                     
G 1  23207322.952       85946.416        2020.576          48.750  
G 3  21814913.192      -34228.855        -797.472          39.250  
G11  23869255.204       80248.474        2027.664          43.750  
G17  21515429.068      -86699.365       -2305.181          50.750  
G19  21937538.834     -115413.393       -3159.747          43.000  
G22  23375737.574       29044.392         828.214          47.750  
G28  21097613.604       12553.915         381.028          47.500  
> 2018  4 22 11 21 37.8688020  0  7                     
G 1  23209193.724       86148.530        2021.769          48.750  
G 3  21816729.388      -34308.559        -798.711          38.750  
G11  23871125.542       80451.414        2030.422          43.750  
G17  21517217.210      -86929.806       -2303.768          50.750  
G19  21939310.264     -115729.256       -3159.291          43.000  
G22  23377583.941       29127.297         829.214          47.500  
G28  21099453.284       12592.140         383.136          47.500  
> 2018  4 22 11 21 37.9688020  0  7                     
G 1  23211062.769       86350.699        2021.565          48.750  
G 3  21818547.226      -34388.183        -797.200          38.000  
G11  23872996.137       80654.401        2030.286          43.750  
G17  21519004.551      -87160.195       -2303.804          50.500  
G19  21941081.879     -116045.070       -3157.741          43.000  
G22  23379430.905       29210.263         830.333          47.500  
G28  21101290.498       12630.418         382.605          47.750  
> 2018  4 22 11 21 38.0688020  0  7                     
G 1  23212932.525       86552.892        2021.593          48.250  
G 3  21820365.099      -34467.799        -795.661          38.750  
G11  23874866.901       80857.410        2029.966          43.750  
G17  21520793.007      -87390.541       -2303.457          50.750  
G19  21942854.252     -116360.850       -3157.811          42.500  
G22  23381278.170       29293.246         829.320          47.750  
G28  21103130.520       12668.726         383.177          47.500  
> 2018  4 22 11 21 38.1688020  0  7                     
G 1  23214802.838       86755.078        2022.347          48.500  
G 3  21822179.992      -34547.412        -797.033          38.500  
G11  23876737.586       81060.427        2030.787          44.000  
G17  21522580.978      -87620.903       -2303.766          51.000  
G19  21944625.041     -116676.661       -3158.742          43.000  
G22  23383124.958       29376.231         830.073          47.500  
G28  21104968.157       12707.039         383.442          47.500  
> 2018  4 22 11 21 38.2688020  0  7                     
G 1  23216673.047       86957.278        2021.876          48.500  
G 3  21823996.514      -34626.998        -795.634          38.750  
G11  23878607.349       81263.439        2030.328          43.750  
G17  21524368.626      -87851.242       -2303.771          50.500  
G19  21946397.195     -116992.425       -3158.109          42.750  
G22  23384972.450       29459.249         830.114          47.500  
G28  21106806.821       12745.363         382.674          47.500  
> 2018  4 22 11 21 38.3688020  0  7                     
G 1  23218543.476       87159.426        2020.937          48.750  
G 3  21825813.233      -34706.623        -796.081          38.750  
G11  23880476.916       81466.434        2029.897          44.000  
G17  21526156.314      -88081.634       -2304.225          50.750  
G19  21948167.268     -117308.244       -3158.580          43.000  
G22  23386820.420       29542.211         829.569          47.500  
G28  21108647.591       12783.655         383.329          47.500  
> 2018  4 22 11 21 38.4688020  0  7                     
G 1  23220413.206       87361.580        2021.451          48.750  
G 3  21827628.999      -34786.238        -794.831          38.750  
G11  23882347.038       81669.407        2029.746          43.750  
G17  21527943.536      -88312.027       -2304.496          50.750  
G19  21949940.872     -117624.061       -3159.067          42.750  
G22  23388668.816       29625.185         829.694          47.750  
G28  21110485.120       12821.940         382.603          47.750  
> 2018  4 22 11 21 38.5688020  0  7                     
G 1  23222284.037       87563.692        2021.126          48.750  
G 3  21829444.449      -34865.903        -796.899          38.750  
G11  23884216.353       81872.323        2028.952          44.000  
G17  21529730.967      -88542.461       -2304.446          50.750  
G19  21951711.725     -117939.928       -3158.771          43.000  
G22  23390515.402       29708.109         829.375          47.750  
G28  21112326.391       12860.185         381.975          47.750  
> 2018  4 22 11 21 38.6688020  0  7                     
G 1  23224154.250       87765.810        2021.016          48.750  
G 3  21831261.349      -34945.555        -796.431          38.750  
G11  23886087.868       82075.272        2029.740          44.000  
G17  21531518.271      -88772.884       -2304.520          50.750  
G19  21953482.959     -118255.780       -3157.961          42.750  
G22  23392363.161       29791.047         830.029          47.750  
G28  21114164.225       12898.454         383.174          47.500  
> 2018  4 22 11 21 38.7688020  0  7                     
G 1  23226024.697       87967.886        2020.592          48.500  
G 3  21833077.899      -35025.233        -797.053          38.750  
G11  23887957.733       82278.177        2029.776          43.500  
G17  21533306.031      -89003.336       -2304.354          50.750  
G19  21955253.968     -118571.666       -3159.184          43.000  
G22  23394210.470       29873.950         829.420          47.750  
G28  21116002.951       12936.682         382.280          47.500  
> 2018  4 22 11 21 38.8688020  0  7                     
G 1  23227894.203       88169.987        2021.641          48.500  
G 3  21834893.908      -35104.875        -795.386          38.250  
G11  23889828.997       82481.090        2029.205          43.750  
G17  21535094.212      -89233.787       -2304.501          50.750  
G19  21957025.629     -118887.535       -3158.688          42.500  
G22  23396057.473       29956.878         829.284          47.500  
G28  21117842.395       12974.921         382.794          47.750  
> 2018  4 22 11 21 38.9688020  0  7                     
G 1  23229763.783       88372.069        2021.605          48.500  
G 3  21836711.157      -35184.558        -795.700          38.500  
G11  23891698.460       82683.995        2029.834          44.000  
G17  21536881.407      -89464.240       -2303.929          50.750  
G19  21958798.859     -119203.437       -3158.931          43.000  
G22  23397904.954       30039.785         829.233          47.750  
G28  21119680.272       13013.170         383.147          47.750  
> 2018  4 22 11 21 39.0688020  0  7                     
G 1  23231633.894       88574.213        2021.517          48.250  
G 3  21838527.712      -35264.159        -796.012          38.750  
G11  23893568.662       82886.964        2030.017          43.750  
G17  21538669.909      -89694.633       -2303.726          50.750  
G19  21960571.707     -119519.251       -3158.374          42.750  
G22  23399753.534       30122.767         829.660          47.750  
G28  21121520.084       13051.469         383.120          47.500  
> 2018  4 22 11 21 39.1688020  0  7                     
G 1  23233503.757       88776.391        2022.279          48.500  
G 3  21840344.673      -35343.720        -795.093          38.500  
G11  23895438.995       83089.944        2029.610          43.750  
G17  21540457.597      -89924.988       -2302.986          50.750  
G19  21962343.891     -119835.054       -3157.371          43.000  
G22  23401601.348       30205.790         830.248          47.750  
G28  21123357.443       13089.808         383.846          47.750  
> 2018  4 22 11 21 39.2688020  0  7                     
G 1  23235373.579       88978.641        2022.400          48.500  
G 3  21842160.313      -35423.192        -795.612          38.250  
G11  23897308.556       83293.043        2030.011          43.750  
G17  21542245.650      -90155.268       -2302.709          50.750  
G19  21964113.243     -120150.751       -3156.631          43.000  
G22  23403448.570       30288.894         831.308          47.750  
G28  21125196.587       13128.238         384.047          47.500  
> 2018  4 22 11 21 39.3688020  0  7                     
G 1  23237243.483       89180.988        2024.589          48.500  
G 3  21843977.584      -35502.556        -790.051          38.000  
G11  23899178.581       83496.197        2033.176          44.000  
G17  21544033.746      -90385.466       -2300.792          50.750  
G19  21965885.219     -120466.385       -3154.234          43.250  
G22  23405295.539       30372.082         832.887          47.750  
G28  21127036.329       13166.750         385.907          47.500  
> 2018  4 22 11 21 39.4688020  0  7                     
G 1  23239114.002       89383.343        2023.638          48.500  
G 3  21845791.417      -35581.917        -793.641          38.500  
G11  23901049.219       83699.378        2031.303          44.000  
G17  21545821.625      -90615.644       -2302.302          50.750  
G19  21967656.356     -120782.001       -3156.868          43.250  
G22  23407142.088       30455.290         832.222          47.750  
G28  21128873.445       13205.295         385.269          47.750  
> 2018  4 22 11 21 39.5688020  0  7                     
G 1  23240984.085       89585.669        2022.999          48.500  
G 3  21847606.488      -35661.326        -794.852          38.750  
G11  23902919.029       83902.516        2031.645          44.000  
G17  21547609.195      -90845.861       -2302.894          50.750  
G19  21969428.364     -121097.636       -3156.706          43.250  
G22  23408989.648       30538.466         831.716          47.750  
G28  21130713.627       13243.791         384.649          47.750  
> 2018  4 22 11 21 39.6688020  0  7                     
G 1  23242854.633       89787.971        2024.088          48.750  
G 3  21849422.837      -35740.741        -794.289          38.750  
G11  23904789.893       84105.638        2032.024          44.000  
G17  21549396.451      -91076.102       -2302.480          50.750  
G19  21971199.601     -121413.313       -3157.365          42.750  
G22  23410836.713       30621.612         830.931          47.750  
G28  21132552.145       13282.264         384.609          47.750  
> 2018  4 22 11 21 39.7688020  0  7                     
G 1  23244723.699       89990.238        2022.984          48.500  
G 3  21851239.509      -35820.176        -794.169          38.000  
G11  23906660.283       84308.729        2030.750          44.250  
G17  21551184.037      -91306.363       -2302.790          50.750  
G19  21972972.798     -121729.010       -3157.739          43.000  
G22  23412684.404       30704.746         830.957          47.500  
G28  21134390.970       13320.727         384.065          47.500  
> 2018  4 22 11 21 39.8688020  0  7                     
G 1  23246593.685       90192.522        2023.135          48.750  
G 3  21853058.132      -35899.566        -793.808          38.500  
G11  23908530.942       84511.826        2030.870          44.000  
G17  21552971.707      -91536.602       -2302.515          50.500  
G19  21974743.455     -122044.684       -3157.441          43.000  
G22  23414532.543       30787.901         831.305          47.750  
G28  21136231.397       13359.208         384.792          47.750  
> 2018  4 22 11 21 39.9688020  0  7                     
G 1  23248463.748       90394.765        2022.298          48.500  
G 3  21854874.639      -35979.039        -795.192          38.000  
G11  23910400.901       84714.889        2031.186          43.750  
G17  21554759.297      -91766.890       -2303.114          50.500  
G19  21976513.737     -122360.393       -3157.174          42.750  
G22  23416381.136       30871.027         831.229          47.500  
G28  21138068.466       13397.660         384.265          47.750  
> 2018  4 22 11 21 40.0688020  0  7                     
G 1  23250333.631       90597.019        2021.939          48.500  
G 3  21856690.528      -36058.465        -793.681          38.750  
G11  23912271.036       84917.965        2029.791          44.000  
G17  21556547.389      -91997.169       -2302.768          50.750  
G19  21978285.051     -122676.091       -3156.602          42.750  
G22  23418228.633       30954.145         831.000          47.750  
G28  21139908.868       13436.105         384.402          47.500  
> 2018  4 22 11 21 40.1688020  0  7                     
G 1  23252203.519       90799.275        2023.196          48.750  
G 3  21858507.274      -36137.907        -795.193          38.500  
G11  23914142.203       85121.033        2029.816          44.000  
G17  21558335.319      -92227.450       -2303.236          50.750  
G19  21980056.197     -122991.810       -3157.584          43.250  
G22  23420074.553       31037.275         830.588          47.750  
G28  21141747.093       13474.561         384.437          47.500  
> 2018  4 22 11 21 40.2688020  0  7                     
G 1  23254073.278       91001.467        2021.916          48.750  
G 3  21860324.375      -36217.394        -795.555          38.250  
G11  23916012.394       85324.051        2030.991          44.250  
G17  21560122.665      -92457.785       -2303.982          50.750  
G19  21981826.845     -123307.563       -3157.454          43.000  
G22  23421921.634       31120.357         831.937          47.750  
G28  21143586.116       13512.969         384.023          47.750  
> 2018  4 22 11 21 40.3688020  0  7                     
G 1  23255943.275       91203.629        2021.292          48.500  
G 3  21862139.505      -36296.901        -793.605          39.000  
G11  23917882.883       85527.035        2029.944          44.000  
G17  21561910.838      -92688.138       -2303.682          50.750  
G19  21983598.632     -123623.353       -3157.514          42.750  
G22  23423769.080       31203.401         830.598          47.750  
G28  21145426.290       13551.351         383.677          47.750  
> 2018  4 22 11 21 40.4688020  0  7                     
G 1  23257813.839       91405.775        2021.771          48.750  
G 3  21863955.556      -36376.418        -793.962          38.500  
G11  23919753.441       85729.982        2030.402          44.000  
G17  21563698.647      -92918.538       -2304.210          50.750  
G19  21985369.834     -123939.180       -3158.474          42.750  
G22  23425615.888       31286.431         830.696          47.750  
G28  21147263.358       13589.707         383.594          47.500  
> 2018  4 22 11 21 40.5688020  0  7                     
G 1  23259684.413       91607.921        2021.276          48.500  
G 3  21865771.507      -36455.936        -794.906          38.250  
G11  23921623.930       85932.952        2028.713          44.250  
G17  21565486.524      -93148.908       -2304.544          50.750  
G19  21987141.283     -124254.977       -3157.407          43.250  
G22  23427463.083       31369.475         829.878          47.750  
G28  21149103.348       13628.086         383.806          47.750  
> 2018  4 22 11 21 40.6688020  0  7                     
G 1  23261554.747       91810.041        2021.108          48.500  
G 3  21867589.053      -36535.454        -795.473          38.000  
G11  23923493.575       86135.879        2029.415          44.000  
G17  21567274.447      -93379.315       -2304.714          50.500  
G19  21988913.035     -124570.838       -3159.476          43.000  
G22  23429310.704       31452.497         829.967          47.750  
G28  21150941.773       13666.433         383.295          47.500  
> 2018  4 22 11 21 40.7688020  0  7                     
G 1  23263424.946       92012.164        2021.383          48.750  
G 3  21869405.169      -36614.973        -794.428          38.000  
G11  23925363.787       86338.841        2029.237          44.250  
G17  21569062.208      -93609.713       -2304.434          50.750  
G19  21990684.950     -124886.635       -3158.191          43.000  
G22  23431158.240       31535.525         829.650          47.750  
G28  21152780.228       13704.797         383.299          47.750  
> 2018  4 22 11 21 40.8688020  0  7                     
G 1  23265294.285       92214.249        2021.133          48.750  
G 3  21871220.568      -36694.547        -796.211          38.000  
G11  23927233.899       86541.722        2027.711          44.250  
G17  21570849.838      -93840.162       -2304.762          50.500  
G19  21992457.766     -125202.506       -3159.352          42.750  
G22  23433004.585       31618.512         830.593          47.500  
G28  21154619.833       13743.106         382.652          47.500  
> 2018  4 22 11 21 40.9688020  0  7                     
G 1  23267164.295       92416.332        2020.648          48.500  
G 3  21873037.295      -36774.114        -796.411          38.000  
G11  23929104.958       86744.626        2028.660          44.000  
G17  21572637.261      -94070.608       -2305.114          50.750  
G19  21994228.918     -125518.400       -3160.729          43.000  
G22  23434851.946       31701.487         829.784          47.750  
G28  21156457.679       13781.429         383.148          47.500  
> 2018  4 22 11 21 41.0688020  0  7                     
G 1  23269034.991       92618.398        2021.174          48.500  
G 3  21874853.545      -36853.683        -795.298          38.250  
G11  23930975.178       86947.508        2029.354          43.750  
G17  21574425.053      -94301.054       -2304.479          50.500  
G19  21995999.484     -125834.265       -3158.673          42.750  
G22  23436699.906       31784.467         830.149          48.000  
G28  21158298.211       13819.748         383.165          47.500  
> 2018  4 22 11 21 41.1688020  0  7                     
G 1  23270904.843       92820.468        2020.492          48.750  
G 3  21876669.300      -36933.204        -796.246          38.250  
G11  23932844.749       87150.401        2028.563          44.250  
G17  21576212.965      -94531.507       -2305.091          50.750  
G19  21997771.611     -126150.136       -3159.133          43.000  
G22  23438547.402       31867.453         829.773          47.750  
G28  21160136.477       13858.066         383.085          47.500  
> 2018  4 22 11 21 41.2688020  0  7                     
G 1  23272775.148       93022.522        2021.239          48.750  
G 3  21878484.874      -37012.770        -794.246          38.250  
G11  23934714.259       87353.277        2028.580          44.000  
G17  21578000.806      -94761.969       -2304.628          50.750  
G19  21999544.199     -126466.027       -3159.015          42.750  
G22  23440394.731       31950.437         829.601          48.000  
G28  21161975.000       13896.377         383.162          47.750  
> 2018  4 22 11 21 41.3688020  0  7                     
G 1  23274645.154       93224.557        2020.449          48.750  
G 3  21880299.747      -37092.349        -796.330          38.000  
G11  23936584.413       87556.121        2028.677          44.000  
G17  21579788.997      -94992.452       -2304.910          50.500  
G19  22001315.030     -126781.949       -3159.405          42.750  
G22  23442242.755       32033.383         829.247          47.750  
G28  21163815.167       13934.666         383.053          47.750  
> 2018  4 22 11 21 41.4688020  0  7                     
G 1  23276514.438       93426.563        2020.064          48.750  
G 3  21882116.725      -37171.943        -794.577          38.500  
G11  23938454.509       87758.953        2029.189          44.250  
G17  21581576.532      -95222.957       -2304.661          50.750  
G19  22003086.485     -127097.884       -3159.395          42.500  
G22  23444090.297       32116.330         829.730          48.000  
G28  21165653.097       13972.936         382.633          47.500  
> 2018  4 22 11 21 41.5688020  0  7                     
G 1  23278384.135       93628.610        2020.251          48.750  
G 3  21883936.930      -37251.518        -796.345          38.500  
G11  23940324.732       87961.798        2028.970          44.250  
G17  21583364.424      -95453.442       -2305.203          50.750  
G19  22004858.573     -127413.790       -3160.181          42.750  
G22  23445937.274       32199.302         829.669          47.750  
G28  21167493.833       14011.236         382.647          47.500  
> 2018  4 22 11 21 41.6688020  0  7                     
G 1  23280254.762       93830.631        2020.369          48.500  
G 3  21885754.429      -37331.115        -795.989          38.500  
G11  23942195.327       88164.631        2028.063          44.500  
G17  21585151.970      -95683.934       -2305.401          50.750  
G19  22006629.704     -127729.706       -3159.047          43.250  
G22  23447784.800       32282.261         829.724          48.000  
G28  21169331.410       14049.539         382.921          47.500  
> 2018  4 22 11 21 41.7688020  0  7                     
G 1  23282125.067       94032.658        2020.447          48.500  
G 3  21887572.217      -37410.666        -797.109          38.250  
G11  23944066.145       88367.480        2028.818          44.250  
G17  21586938.716      -95914.430       -2304.828          50.750  
G19  22008400.516     -128045.631       -3159.525          42.750  
G22  23449632.396       32365.215         830.175          48.000  
G28  21171169.574       14087.835         383.065          47.500  
> 2018  4 22 11 21 41.8688020  0  7                     
G 1  23283995.280       94234.688        2020.083          48.500  
G 3  21889389.040      -37490.210        -794.089          38.500  
G11  23945936.021       88570.328        2029.150          44.250  
G17  21588726.537      -96144.915       -2304.495          50.500  
G19  22010172.418     -128361.540       -3159.251          43.000  
G22  23451479.456       32448.188         829.817          48.000  
G28  21173009.535       14126.147         383.259          47.750  
> 2018  4 22 11 21 41.9688020  0  7                     
G 1  23285865.262       94436.771        2020.927          48.500  
G 3  21891203.078      -37569.717        -795.635          38.000  
G11  23947805.750       88773.216        2028.698          44.250  
G17  21590513.554      -96375.356       -2304.720          50.500  
G19  22011944.737     -128677.388       -3157.303          43.000  
G22  23453327.524       32531.205         830.132          47.750  
G28  21174847.773       14164.504         383.512          47.750  
> 2018  4 22 11 21 42.0688020  0  7                     
G 1  23287735.600       94638.864        2021.558          48.500  
G 3  21893019.581      -37649.213        -795.111          38.500  
G11  23949676.200       88976.246        2075.703          44.250  
G17  21592301.351      -96605.780       -2304.457          50.750  
G19  22013715.549     -128993.241       -3157.940          43.000  
G22  23455175.208       32614.256         831.040          47.750  
G28  21176687.806       14202.880         383.816          47.500  
> 2018  4 22 11 21 42.1688020  0  7                     
G 1  23289605.365       94840.889        2020.131          48.500  
G 3  21894837.103      -37728.729        -794.309          38.500  
G11  23951546.810       89178.980        2040.605          44.500  
G17  21594089.153      -96836.257       -2304.847          50.750  
G19  22015487.013     -129309.151       -3159.634          43.000  
G22  23457022.070       32697.230         829.448          47.750  
G28  21178525.056       14241.202         383.019          47.500  
> 2018  4 22 11 21 42.2688020  0  7                     
G 1  23291475.283       95042.984        2020.588          48.500  
G 3  21896653.088      -37808.203        -794.668          38.500  
G11  23953415.618       89381.863        2028.509          44.250  
G17  21595876.608      -97066.689       -2304.969          50.500  
G19  22017258.907     -129625.010       -3158.788          43.000  
G22  23458868.735       32780.281         831.000          48.000  
G28  21180362.875       14279.593         383.380          47.500  
> 2018  4 22 11 21 42.3688020  0  7                     
G 1  23293345.200       95245.054        2020.698          48.750  
G 3  21898468.489      -37887.705        -795.502          38.250  
G11  23955286.453       89584.756        2029.144          44.500  
G17  21597664.395      -97297.122       -2304.187          50.500  
G19  22019029.249     -129940.873       -3158.587          42.750  
G22  23460716.095       32863.313         830.414          47.750  
G28  21182203.563       14317.964         384.056          47.500  
> 2018  4 22 11 21 42.4688020  0  7                     
G 1  23295215.320       95447.150        2020.781          48.750  
G 3  21900284.726      -37967.169        -795.733          38.250  
G11  23957156.255       89787.668        2029.071          44.500  
G17  21599451.782      -97527.536       -2304.178          50.500  
G19  22020800.398     -130256.716       -3158.708          43.000  
G22  23462563.638       32946.374         830.646          47.500  
G28  21184040.950       14356.372         383.886          47.750  
> 2018  4 22 11 21 42.5688020  0  7                     
G 1  23297084.972       95649.255        2021.473          48.500  
G 3  21902101.059      -38046.600        -796.359          38.250  
G11  23959026.194       89990.578        2028.996          44.250  
G17  21601238.882      -97757.950       -2303.691          50.500  
G19  22022572.265     -130572.552       -3158.231          43.000  
G22  23464411.158       33029.436         830.660          48.000  
G28  21185880.333       14394.773         383.934          47.500  
> 2018  4 22 11 21 42.6688020  0  7                     
G 1  23298955.248       95851.343        2021.556          48.750  
G 3  21903919.701      -38126.043        -793.472          38.000  
G11  23960896.339       90193.500        2030.203          44.500  
G17  21603026.540      -97988.357       -2303.406          50.500  
G19  22024343.718     -130888.372       -3157.448          43.000  
G22  23466258.851       33112.512         831.359          47.750  
G28  21187719.172       14433.183         385.330          47.750  
> 2018  4 22 11 21 42.7688020  0  7                     
G 1  23300825.054       96053.465        2020.851          48.500  
G 3  21905735.547      -38205.473        -794.127          37.750  
G11  23962767.183       90396.411        2029.164          44.250  
G17  21604813.913      -98218.763       -2304.111          50.250  
G19  22026115.079     -131204.200       -3157.265          43.000  
G22  23468106.067       33195.587         830.756          47.500  
G28  21189557.548       14471.612         385.223          47.500  
> 2018  4 22 11 21 42.8688020  0  7                     
G 1  23302695.481       96255.596        2021.237          48.500  
G 3  21907552.507      -38284.878        -792.675          38.250  
G11  23964637.733       90599.354        2028.645          44.500  
G17  21606602.482      -98449.132       -2304.175          50.500  
G19  22027886.203     -131520.008       -3158.675          42.750  
G22  23469953.175       33278.711         830.898          47.750  
G28  21191397.751       14510.047         383.603          47.500  
> 2018  4 22 11 21 42.9688020  0  7                     
G 1  23304565.221       96457.740        2021.115          48.750  
G 3  21909369.697      -38364.243        -795.298          38.250  
G11  23966507.951       90802.292        2028.730          44.500  
G17  21608390.052      -98679.501       -2304.067          50.500  
G19  22029658.311     -131835.800       -3158.435          42.750  
G22  23471799.883       33361.831         831.406          47.750  
G28  21193235.461       14548.519         384.283          47.750  
> 2018  4 22 11 21 43.0688020  0  7                     
G 1  23306435.098       96659.863        2021.454          48.500  
G 3  21911185.836      -38443.642        -793.533          38.000  
G11  23968377.559       91005.241        2030.049          44.500  
G17  21610177.823      -98909.884       -2303.652          50.500  
G19  22031429.761     -132151.599       -3157.080          42.750  
G22  23473646.777       33444.941         831.598          47.750  
G28  21195075.248       14586.976         385.282          47.750  
> 2018  4 22 11 21 43.1688020  0  7                     
G 1  23308304.801       96862.006        2021.528          48.500  
G 3  21913001.234      -38523.007        -794.200          38.250  
G11  23970247.263       91208.196        2030.343          44.500  
G17  21611965.680      -99140.251       -2303.804          50.500  
G19  22033201.887     -132467.381       -3158.448          43.000  
G22  23475494.514       33528.074         831.552          48.000  
G28  21196914.080       14625.450         384.806          47.500  
> 2018  4 22 11 21 43.2688020  0  7                     
G 1  23310174.667       97064.098        2020.861          48.750  
G 3  21914817.231      -38602.448        -793.723          38.000  
G11  23972117.686       91411.112        2029.853          44.500  
G17  21613753.297      -99370.654       -2303.749          50.500  
G19  22034974.046     -132783.203       -3158.198          43.500  
G22  23477341.602       33611.171         831.714          48.000  
G28  21198752.979       14663.882         384.494          47.750  
> 2018  4 22 11 21 43.3688020  0  7                     
G 1  23312044.568       97266.171        2021.210          48.500  
G 3  21916634.184      -38681.861        -794.184          38.250  
G11  23973988.564       91613.980        2028.925          44.500  
G17  21615541.213      -99601.087       -2304.188          50.500  
G19  22036745.954     -133099.079       -3159.700          43.000  
G22  23479188.930       33694.232         830.406          48.000  
G28  21200593.034       14702.303         384.220          47.750  
> 2018  4 22 11 21 43.4688020  0  7                     
G 1  23313914.435       97468.185        2020.485          48.750  
G 3  21918450.787      -38761.340        -794.794          38.500  
G11  23975859.046       91816.806        2028.405          44.750  
G17  21617328.893      -99831.582       -2305.640          50.500  
G19  22038515.660     -133414.982       -3158.747          43.000  
G22  23481037.312       33777.245         830.255          47.750  
G28  21202430.206       14740.651         383.045          47.500  
> 2018  4 22 11 21 43.5688020  0  7                     
G 1  23315784.151       97670.120        2019.171          48.750  
G 3  21920267.425      -38840.912        -795.772          38.250  
G11  23977729.282       92019.545        2026.889          44.500  
G17  21619116.088     -100062.161       -2306.503          50.500  
G19  22040286.781     -133730.982       -3159.774          42.750  
G22  23482884.914       33860.184         829.059          48.000  
G28  21204270.828       14778.930         382.351          47.500  
> 2018  4 22 11 21 43.6688020  0  7                     
G 1  23317653.912       97871.956        2017.755          48.500  
G 3  21922082.464      -38920.549        -795.994          38.250  
G11  23979599.999       92222.187        2025.867          44.500  
G17  21620903.272     -100292.825       -2307.426          50.500  
G19  22042058.855     -134047.080       -3161.862          42.750  
G22  23484731.113       33943.016         827.360          47.750  
G28  21206108.032       14817.125         382.023          47.500  
> 2018  4 22 11 21 43.7688020  0  7                     
G 1  23319523.744       98073.683        2017.600          48.500  
G 3  21923897.552      -39000.311        -797.257          38.250  
G11  23981468.743       92424.725        2025.356          44.500  
G17  21622690.614     -100523.597       -2308.076          50.500  
G19  22043829.244     -134363.273       -3162.047          43.000  
G22  23486579.492       34025.768         827.552          47.750  
G28  21207947.019       14855.208         380.278          47.500  
> 2018  4 22 11 21 43.8688020  0  7                     
G 1  23321394.706       98275.375        2017.169          48.500  
G 3  21925714.252      -39080.090        -799.000          37.750  
G11  23983338.461       92627.225        2024.769          44.750  
G17  21624478.050     -100754.400       -2308.517          50.500  
G19  22045600.435     -134679.506       -3162.984          42.750  
G22  23488425.925       34108.473         826.524          47.750  
G28  21209787.058       14893.255         380.987          47.500  
> 2018  4 22 11 21 43.9688020  0  7                     
G 1  23323264.173       98477.043        2017.469          48.500  
G 3  21927531.479      -39159.889        -797.472          38.250  
G11  23985207.983       92829.709        2025.031          44.500  
G17  21626265.599     -100985.231       -2307.773          50.500  
G19  22047373.010     -134995.741       -3161.396          43.000  
G22  23490273.197       34191.157         827.422          47.750  
G28  21211624.598       14931.302         380.646          47.500  
> 2018  4 22 11 21 44.0688020  0  7                     
G 1  23325133.632       98678.843        2018.528          48.500  
G 3  21929346.381      -39239.546        -796.766          37.750  
G11  23987077.712       93032.321        2027.344          44.250  
G17  21628053.205     -101215.934       -2306.455          50.250  
G19  22049143.787     -135311.869       -3161.196          43.000  
G22  23492121.090       34273.982         828.947          47.750  
G28  21213464.446       14969.469         382.230          47.750  
> 2018  4 22 11 21 44.1688020  0  7                     
G 1  23327003.976       98880.755        2019.943          48.250  
G 3  21931165.043      -39319.105        -794.466          38.250  
G11  23988947.904       93235.028        2027.756          44.250  
G17  21629840.926     -101446.516       -2305.528          50.500  
G19  22050915.730     -135627.868       -3159.596          43.000  
G22  23493968.556       34356.921         829.982          48.000  
G28  21215302.621       15007.754         383.810          47.250  
> 2018  4 22 11 21 44.2688020  0  7                     
G 1  23328873.750       99082.743        2020.240          48.250  
G 3  21932983.145      -39398.557        -795.433          38.000  
G11  23990817.251       93437.843        2028.995          44.750  
G17  21631628.638     -101677.022       -2305.140          50.500  
G19  22052686.038     -135943.797       -3158.636          43.250  
G22  23495815.787       34439.943         830.096          48.000  
G28  21217141.489       15046.120         383.728          47.500  
> 2018  4 22 11 21 44.3688020  0  7                     
G 1  23330743.259       99284.801        2020.294          48.500  
G 3  21934798.609      -39477.957        -794.362          38.000  
G11  23992687.370       93640.707        2029.082          44.500  
G17  21633416.608     -101907.462       -2304.303          50.250  
G19  22054458.511     -136259.668       -3159.429          43.000  
G22  23497662.414       34523.040         831.334          48.000  
G28  21218981.506       15084.561         384.501          47.750  
> 2018  4 22 11 21 44.4688020  0  7                     
G 1  23332613.747       99486.840        2020.946          48.250  
G 3  21936613.766      -39557.338        -794.103          38.000  
G11  23994558.188       93843.547        2028.519          44.750  
G17  21635204.817     -102137.924       -2304.518          50.500  
G19  22056228.505     -136575.541       -3159.379          43.000  
G22  23499508.893       34606.114         831.134          47.750  
G28  21220818.879       15122.993         384.942          47.500  
> 2018  4 22 11 21 44.5688020  0  7                     
G 1  23334483.623       99688.856        2020.551          48.750  
G 3  21938430.166      -39636.767        -795.270          38.250  
G11  23996428.507       94046.382        2028.872          44.750  
G17  21636992.456     -102368.403       -2304.833          50.500  
G19  22057999.399     -136891.451       -3159.009          43.000  
G22  23501355.919       34689.188         831.232          48.000  
G28  21222659.816       15161.398         384.500          47.750  
> 2018  4 22 11 21 44.6688020  0  7                     
G 1  23336354.094       99890.839        2020.301          48.500  
G 3  21940247.506      -39716.196        -794.013          37.750  
G11  23998298.722       94249.162        2027.884          44.500  
G17  21638780.024     -102598.914       -2305.424          50.250  
G19  22059771.369     -137207.384       -3159.579          42.750  
G22  23503203.488       34772.210         830.463          48.000  
G28  21224497.870       15199.783         383.708          47.500  
> 2018  4 22 11 21 44.7688020  0  7                     
G 1  23338224.673      100092.793        2019.123          48.500  
G 3  21942064.748      -39795.703        -796.468          38.000  
G11  24000168.902       94451.913        2027.216          44.750  
G17  21640567.511     -102829.461       -2306.160          50.250  
G19  22061543.617     -137523.346       -3160.980          43.000  
G22  23505051.704       34855.200         830.020          48.000  
G28  21226337.165       15238.116         383.053          47.500  
> 2018  4 22 11 21 44.8688020  0  7                     
G 1  23340094.418      100294.675        2018.806          48.500  
G 3  21943880.710      -39875.206        -796.160          38.000  
G11  24002038.194       94654.609        2026.567          44.500  
G17  21642355.762     -103060.064       -2306.245          50.500  
G19  22063315.011     -137839.377       -3160.527          43.000  
G22  23506899.621       34938.139         829.161          48.000  
G28  21228176.740       15276.404         382.124          47.500  
> 2018  4 22 11 21 44.9688020  0  7                     
G 1  23341964.505      100496.546        2018.048          48.500  
G 3  21945696.729      -39954.744        -795.442          38.250  
G11  24003908.399       94857.298        2027.282          44.750  
G17  21644142.919     -103290.686       -2306.797          50.500  
G19  22065085.899     -138155.406       -3160.393          42.750  
G22  23508748.107       35021.079         828.721          47.750  
G28  21230013.832       15314.695         382.735          47.500  
> 2018  4 22 11 21 45.0688020  0  7                     
G 1  23343834.766      100698.382        2018.603          48.500  
G 3  21947513.318      -40034.352        -795.662          37.500  
G11  24005779.275       95059.933        2026.488          44.750  
G17  21645930.690     -103521.343       -2306.907          50.500  
G19  22066858.186     -138471.494       -3161.336          43.250  
G22  23510595.594       35103.962         828.244          47.750  
G28  21231853.945       15352.939         382.465          47.750  
> 2018  4 22 11 21 45.1688020  0  7                     
G 1  23345704.216      100900.162        2017.828          48.250  
G 3  21949329.057      -40113.933        -795.405          38.000  
G11  24007648.448       95262.521        2026.431          44.500  
G17  21647718.710     -103752.052       -2307.531          50.250  
G19  22068629.189     -138787.610       -3161.538          42.750  
G22  23512442.174       35186.814         828.370          48.000  
G28  21233692.236       15391.140         383.209          47.500  
> 2018  4 22 11 21 45.2688020  0  7                     
G 1  23347573.801      101101.912        2016.996          48.500  
G 3  21951144.279      -40193.597        -796.672          37.750  
G11  24009519.356       95465.076        2025.048          45.000  
G17  21649506.355     -103982.799       -2307.929          50.250  
G19  22070399.539     -139103.774       -3162.330          43.250  
G22  23514288.962       35269.634         828.214          47.750  
G28  21235530.048       15429.304         381.195          47.750  
> 2018  4 22 11 21 45.3688020  0  7                     
G 1  23349443.740      101303.668        2018.014          48.250  
G 3  21952960.431      -40273.221        -795.103          38.250  
G11  24011389.509       95667.632        2025.620          44.750  
G17  21651293.737     -104213.515       -2307.416          50.500  
G19  22072172.410     -139419.919       -3160.785          43.000  
G22  23516136.652       35352.452         827.842          48.000  
G28  21237370.146       15467.494         382.496          47.500  
> 2018  4 22 11 21 45.4688020  0  7                     
G 1  23351312.966      101505.395        2017.708          48.250  
G 3  21954777.121      -40352.894        -798.302          37.500  
G11  24013259.644       95870.174        2026.102          44.500  
G17  21653081.288     -104444.282       -2307.954          50.250  
G19  22073943.644     -139736.091       -3162.264          42.750  
G22  23517984.691       35435.267         828.466          47.500  
G28  21239207.676       15505.647         382.252          47.250  
> 2018  4 22 11 21 45.5688020  0  7                     
G 1  23353183.070      101707.145        2017.129          48.000  
G 3  21956595.650      -40432.523        -796.287          37.750  
G11  24015130.118       96072.720        2025.218          44.750  
G17  21654868.724     -104675.021       -2307.488          50.500  
G19  22075714.984     -140052.254       -3161.743          43.000  
G22  23519831.729       35518.091         827.785          48.000  
G28  21241046.085       15543.832         382.027          47.500  
> 2018  4 22 11 21 45.6688020  0  7                     
G 1  23355053.125      101908.881        2017.031          48.500  
G 3  21958415.227      -40512.162        -796.316          37.750  
G11  24017000.797       96275.253        2025.213          44.750  
G17  21656656.452     -104905.782       -2308.110          50.500  
G19  22077487.700     -140368.439       -3161.648          43.000  
G22  23521679.068       35600.898         827.931          48.000  
G28  21242884.663       15581.989         381.204          47.750  
> 2018  4 22 11 21 45.7688020  0  7                     
G 1  23356922.936      102110.548        2016.850          48.500  
G 3  21960231.428      -40591.861        -797.675          37.500  
G11  24018871.318       96477.728        2024.557          44.750  
G17  21658443.830     -105136.597       -2308.044          50.250  
G19  22079258.513     -140684.676       -3162.369          43.250  
G22  23523526.449       35683.662         827.169          48.000  
G28  21244722.032       15620.105         380.865          47.500  
> 2018  4 22 11 21 45.8688020  0  7                     
G 1  23358792.794      102312.206        2017.340          48.000  
G 3  21962045.881      -40671.580        -800.009          37.750  
G11  24020741.568       96680.198        2025.564          45.000  
G17  21660232.135     -105367.422       -2308.389          50.500  
G19  22081030.791     -141000.920       -3162.990          42.750  
G22  23525373.833       35766.413         827.779          48.000  
G28  21246562.973       15658.212         381.365          47.750  
> 2018  4 22 11 21 45.9688020  0  7                     
G 1  23360662.792      102513.921        2017.465          48.250  
G 3  21963861.116      -40751.189        -795.948          37.750  
G11  24022611.026       96882.710        2025.228          45.000  
G17  21662020.181     -105598.201       -2307.684          50.500  
G19  22082801.253     -141317.113       -3161.424          43.000  
G22  23527220.735       35849.212         828.456          48.250  
G28  21248400.785       15696.372         381.847          47.500  
> 2018  4 22 11 21 46.0688020  0  7                     
G 1  23362533.291      102715.646        2017.632          48.250  
G 3  21965677.723      -40830.861        -796.389          37.500  
G11  24024481.245       97085.240        2025.971          45.000  
G17  21663807.354     -105828.950       -2307.335          50.250  
G19  22084572.199     -141633.278       -3161.170          43.000  
G22  23529068.569       35932.040         828.717          48.000  
G28  21250240.507       15734.545         382.403          47.500  
> 2018  4 22 11 21 46.1688020  0  7                     
G 1  23364403.172      102917.433        2018.064          48.250  
G 3  21967494.519      -40910.418        -795.848          38.000  
G11  24026352.068       97287.831        2025.671          45.000  
G17  21665595.125     -106059.651       -2306.472          50.500  
G19  22086344.101     -141949.386       -3160.401          43.250  
G22  23530916.436       36014.922         829.314          48.000  
G28  21252080.073       15772.792         382.940          47.750  
> 2018  4 22 11 21 46.2688020  0  7                     
G 1  23366273.245      103119.294        2019.092          48.250  
G 3  21969313.000      -40989.873        -792.429          37.500  
G11  24028221.729       97490.509        2028.034          45.000  
G17  21667382.383     -106290.267       -2305.790          50.250  
G19  22088115.461     -142265.444       -3159.340          43.500  
G22  23532763.582       36097.900         830.975          47.750  
G28  21253918.598       15811.121         384.597          47.500  
> 2018  4 22 11 21 46.3688020  0  7                     
G 1  23368143.549      103321.185        2019.443          47.750  
G 3  21971128.166      -41069.307        -793.217          38.000  
G11  24030093.027       97693.190        2027.398          44.500  
G17  21669170.268     -106520.854       -2305.507          50.250  
G19  22089887.092     -142581.422       -3158.583          42.500  
G22  23534610.571       36180.896         829.861          48.000  
G28  21255759.436       15849.470         384.052          47.250  
> 2018  4 22 11 21 46.4688020  0  7                     
G 1  23370012.774      103523.108        2019.411          48.250  
G 3  21972944.813      -41148.684        -792.784          38.000  
G11  24031963.474       97895.921        2027.285          44.750  
G17  21670958.082     -106751.403       -2305.288          50.250  
G19  22091658.659     -142897.406       -3158.570          43.000  
G22  23536458.424       36263.951         830.316          48.250  
G28  21257596.691       15887.877         383.961          47.500  
> 2018  4 22 11 21 46.5688020  0  7                     
G 1  23371882.942      103725.081        2019.659          48.250  
G 3  21974760.640      -41228.064        -792.671          37.500  
G11  24033833.589       98098.704        2027.301          44.750  
G17  21672745.509     -106981.918       -2305.045          50.000  
G19  22093429.869     -143213.319       -3157.807          43.000  
G22  23538305.834       36347.034         830.891          47.750  
G28  21259435.409       15926.323         384.781          47.250  
> 2018  4 22 11 21 46.6688020  0  7                     
G 1  23373751.824      103927.036        2019.755          48.000  
G 3  21976576.267      -41307.435        -792.950          38.250  
G11  24035703.697       98301.461        2028.285          44.750  
G17  21674533.326     -107212.441       -2305.353          50.500  
G19  22095200.699     -143529.262       -3158.845          42.500  
G22  23540153.278       36430.104         831.006          48.000  
G28  21261273.937       15964.749         384.707          47.250  
> 2018  4 22 11 21 46.7688020  0  7                     
G 1  23375622.042      104128.922        2017.818          48.000  
G 3  21978392.113      -41386.838        -795.421          37.250  
G11  24037573.706       98504.151        2026.523          44.500  
G17  21676320.959     -107443.029       -2306.414          50.000  
G19  22096971.671     -143845.281       -3162.277          42.750  
G22  23542000.212       36513.129         830.447          47.750  
G28  21263112.218       16003.126         383.361          47.250  
> 2018  4 22 11 21 46.8688020  0  7                     
G 1  23377492.427      104330.693        2017.950          48.000  
G 3  21980206.991      -41466.400        -795.185          37.750  
G11  24039443.499       98706.713        2024.626          45.000  
G17  21678108.460     -107673.747       -2307.355          50.250  
G19  22098743.017     -144161.410       -3162.592          42.750  
G22  23543847.157       36596.005         828.523          48.000  
G28  21264953.165       16041.369         382.229          47.250  
> 2018  4 22 11 21 46.9688020  0  7                     
G 1  23379363.129      104532.364        2016.186          48.000  
G 3  21982023.747      -41546.011        -795.570          37.500  
G11  24041313.147       98909.177        2023.742          45.000  
G17  21679896.476     -107904.564       -2308.852          50.250  
G19  22100513.894     -144477.639       -3163.926          43.000  
G22  23545694.713       36678.805         827.255          48.000  
G28  21266790.298       16079.536         381.248          47.500  
> 2018  4 22 11 21 47.0688020  0  7                     
G 1  23381233.300      104733.997        2016.767          48.250  
G 3  21983841.299      -41625.671        -795.422          38.000  
G11  24043183.406       99111.629        2025.398          45.000  
G17  21681684.338     -108135.404       -2307.812          50.500  
G19  22102286.164     -144793.901       -3162.830          43.000  
G22  23547542.155       36761.575         828.300          48.000  
G28  21268629.405       16117.663         382.025          47.500  
> 2018  4 22 11 21 47.1688020  0  7                     
G 1  23383103.692      104935.661        2017.627          48.250  
G 3  21985658.170      -41705.346        -797.093          37.750  
G11  24045053.127       99314.085        2024.244          45.000  
G17  21683472.121     -108366.220       -2308.457          50.250  
G19  22104057.479     -145110.139       -3163.807          43.250  
G22  23549389.156       36844.363         827.619          48.000  
G28  21270468.915       16155.808         381.046          47.500  
> 2018  4 22 11 21 47.2688020  0  7                     
G 1  23384973.607      105137.308        2017.083          48.250  
G 3  21987475.703      -41784.947        -795.828          38.000  
G11  24046923.983       99516.528        2025.350          45.250  
G17  21685259.555     -108597.046       -2308.282          50.500  
G19  22105828.395     -145426.363       -3162.259          43.000  
G22  23551236.658       36927.158         828.128          48.000  
G28  21272306.911       16193.967         381.687          47.500  
> 2018  4 22 11 21 47.3688020  0  7                     
G 1  23386843.576      105339.081        2017.795          48.000  
G 3  21989289.820      -41864.458        -795.271          37.250  
G11  24048793.314       99719.098        2025.459          45.250  
G17  21687047.425     -108827.745       -2307.030          50.250  
G19  22107600.571     -145742.478       -3161.785          43.250  
G22  23553083.693       37010.082         829.709          48.250  
G28  21274146.742       16232.249         382.546          47.500  
> 2018  4 22 11 21 47.4688020  0  7                     
G 1  23388713.281      105540.881        2018.267          48.000  
G 3  21991107.071      -41943.925        -794.631          37.750  
G11  24050664.049       99921.699        2026.689          45.250  
G17  21688834.743     -109058.419       -2307.247          50.250  
G19  22109371.869     -146058.559       -3160.906          43.000  
G22  23554930.764       37093.026         829.106          48.250  
G28  21275983.745       16270.564         383.134          47.500  
> 2018  4 22 11 21 47.5688020  0  7                     
G 1  23390582.465      105742.745        2018.639          48.000  
G 3  21992924.157      -42023.318        -794.859          37.500  
G11  24052533.722      100124.379        2027.283          45.000  
G17  21690621.924     -109289.021       -2305.903          50.250  
G19  22111143.906     -146374.562       -3160.081          43.000  
G22  23556779.249       37176.052         829.927          48.000  
G28  21277823.052       16308.947         383.746          47.500  
> 2018  4 22 11 21 47.6688020  0  7                     
G 1  23392452.142      105944.628        2018.759          48.000  
G 3  21994740.398      -42102.729        -793.333          38.000  
G11  24054403.993      100327.048        2026.300          45.250  
G17  21692409.996     -109519.607       -2305.099          50.250  
G19  22112915.179     -146690.585       -3159.672          43.000  
G22  23558626.759       37259.085         830.579          47.750  
G28  21279662.721       16347.342         384.352          47.500  
> 2018  4 22 11 21 47.7688020  0  7                     
G 1  23394322.194      106146.598        2020.518          48.000  
G 3  21996558.012      -42182.002        -792.777          37.250  
G11  24056274.915      100529.820        2028.219          45.000  
G17  21694197.542     -109750.128       -2305.255          50.250  
G19  22114686.313     -147006.515       -3160.113          42.750  
G22  23560474.365       37342.215         832.122          48.000  
G28  21281500.895       16385.831         385.363          47.500  
> 2018  4 22 11 21 47.8688020  0  7                     
G 1  23396192.286      106348.603        2021.604          48.250  
G 3  21998373.601      -42261.230        -789.742          38.000  
G11  24058144.548      100732.639        2029.609          45.250  
G17  21695985.432     -109980.583       -2303.908          50.250  
G19  22116458.348     -147322.390       -3158.807          43.000  
G22  23562321.381       37425.400         833.351          48.000  
G28  21283341.231       16424.374         387.148          47.500  
> 2018  4 22 11 21 47.9688020  0  7                     
G 1  23398062.855      106550.786        2022.273          48.000  
G 3  22000190.767      -42340.300        -789.607          37.750  
G11  24060015.760      100935.604        2030.338          45.250  
G17  21697773.447     -110210.874       -2302.944          50.500  
G19  22118229.691     -147638.099       -3156.747          43.000  
G22  23564168.728       37508.738         833.518          48.000  
G28  21285180.073       16463.084         387.254          47.500  
> 2018  4 22 11 21 48.0688020  0  7                     
G 1  23399933.740      106752.996        2022.472          48.250  
G 3  22002006.459      -42419.338        -791.556          38.250  
G11  24061886.673      101138.397        2003.271          45.250  
G17  21699560.952     -110441.127       -2302.972          50.250  
G19  22120000.258     -147953.750       -3156.277          43.000  
G22  23566015.707       37592.128         834.128          48.000  
G28  21287020.009       16501.825         386.889          47.500  
> 2018  4 22 11 21 48.1688020  0  7                     
G 1  23401803.036      106955.134        2021.289          48.250  
G 3  22003822.474      -42498.435        -790.972          37.750  
G11  24063756.803      101341.692        2042.533          45.000  
G17  21701348.860     -110671.451       -2303.815          50.250  
G19  22121771.496     -148269.496       -3158.593          43.000  
G22  23567863.001       37675.440         832.397          48.000  
G28  21288858.474       16540.513         387.053          47.500  
> 2018  4 22 11 21 48.2688020  0  7                     
G 1  23403673.219      107157.178        2020.525          48.250  
G 3  22005639.776      -42577.615        -790.357          37.750  
G11  24065626.310      101544.411        2029.271          45.250  
G17  21703137.277     -110901.887       -2304.935          50.250  
G19  22123542.976     -148585.329       -3158.737          43.000  
G22  23569710.211       37758.667         832.382          48.250  
G28  21290696.801       16579.101         384.989          47.500  
> 2018  4 22 11 21 48.3688020  0  7                     
G 1  23405543.532      107359.136        2020.075          48.500  
G 3  22007456.597      -42656.899        -793.268          37.750  
G11  24067497.101      101747.155        2027.218          45.500  
G17  21704924.978     -111132.399       -2305.624          50.250  
G19  22125314.221     -148901.258       -3159.549          43.250  
G22  23571557.776       37841.796         830.573          48.000  
G28  21292537.544       16617.607         384.921          47.750  
> 2018  4 22 11 21 48.4688020  0  7                     
G 1  23407414.225      107561.016        2019.093          48.250  
G 3  22009272.652      -42736.248        -793.453          37.750  
G11  24069367.096      101949.831        2027.732          45.250  
G17  21706712.527     -111362.985       -2306.109          50.500  
G19  22127085.062     -149217.257       -3160.322          43.000  
G22  23573405.714       37924.874         831.046          48.000  
G28  21294374.934       16656.044         384.487          47.250  
> 2018  4 22 11 21 48.5688020  0  7                     
G 1  23409283.645      107762.896        2018.704          48.000  
G 3  22011090.570      -42815.551        -791.672          38.000  
G11  24071237.331      102152.509        2026.218          45.500  
G17  21708499.937     -111593.565       -2306.191          50.500  
G19  22128857.281     -149533.243       -3161.045          42.750  
G22  23575252.990       38007.948         830.790          48.250  
G28  21296213.494       16694.489         384.664          47.500  
> 2018  4 22 11 21 48.6688020  0  7                     
G 1  23411153.515      107964.708        2018.004          48.250  
G 3  22012907.386      -42894.942        -792.326          37.500  
G11  24073107.341      102355.119        2025.878          45.500  
G17  21710287.788     -111824.207       -2306.140          50.250  
G19  22130629.510     -149849.303       -3160.720          43.500  
G22  23577101.063       38090.944         830.543          48.000  
G28  21298052.694       16732.855         384.187          47.250  
> 2018  4 22 11 21 48.7688020  0  7                     
G 1  23413022.765      108166.501        2018.040          48.250  
G 3  22014724.201      -42974.367        -793.255          38.250  
G11  24074977.814      102557.712        2025.806          45.500  
G17  21712075.735     -112054.879       -2306.926          50.250  
G19  22132401.547     -150165.388       -3159.653          43.250  
G22  23578947.398       38173.949         829.713          48.250  
G28  21299890.853       16771.221         383.822          47.250  
> 2018  4 22 11 21 48.8688020  0  7                     
G 1  23414892.704      108368.266        2017.909          48.250  
G 3  22016540.308      -43053.792        -793.392          37.750  
G11  24076847.303      102760.275        2026.014          45.500  
G17  21713862.855     -112285.583       -2307.084          50.500  
G19  22134174.142     -150481.515       -3161.429          43.250  
G22  23580795.013       38256.910         829.638          48.250  
G28  21301731.529       16809.549         383.561          47.500  
> 2018  4 22 11 21 48.9688020  0  7                     
G 1  23416763.192      108570.055        2018.238          48.250  
G 3  22018358.640      -43133.188        -795.344          38.000  
G11  24078716.917      102962.842        2025.859          45.250  
G17  21715650.815     -112516.269       -2307.292          50.250  
G19  22135946.390     -150797.616       -3161.055          43.500  
G22  23582641.649       38339.894         829.466          48.250  
G28  21303569.139       16847.894         383.150          47.750  
> 2018  4 22 11 21 49.0688020  0  7                     
G 1  23418632.738      108771.785        2017.912          48.250  
G 3  22020174.820      -43212.639        -794.876          37.750  
G11  24080586.961      103165.384        2026.076          45.250  
G17  21717438.217     -112746.987       -2307.119          50.500  
G19  22137715.862     -151113.748       -3161.651          43.250  
G22  23584488.812       38422.845         829.669          48.000  
G28  21305408.794       16886.219         383.231          47.500  
> 2018  4 22 11 21 49.1688020  0  7                     
G 1  23420503.243      108973.574        2018.149          48.000  
G 3  22021990.824      -43292.034        -793.085          38.000  
G11  24082456.334      103367.953        2025.489          45.000  
G17  21719226.136     -112977.665       -2307.061          50.250  
G19  22139487.688     -151429.825       -3161.098          43.000  
G22  23586335.967       38505.846         830.119          48.000  
G28  21307247.352       16924.592         383.474          47.250  
> 2018  4 22 11 21 49.2688020  0  7                     
G 1  23422372.879      109175.345        2016.977          48.000  
G 3  22023807.162      -43371.413        -793.237          38.250  
G11  24084326.088      103570.525        2025.927          45.500  
G17  21721013.783     -113208.349       -2307.604          50.500  
G19  22141259.814     -151745.923       -3162.146          43.000  
G22  23588183.542       38588.836         829.475          48.000  
G28  21309085.477       16962.944         383.075          47.500  
> 2018  4 22 11 21 49.3688020  0  7                     
G 1  23424243.036      109377.126        2018.644          48.250  
G 3  22025623.825      -43450.842        -795.235          38.000  
G11  24086195.917      103773.097        2025.305          45.250  
G17  21722801.316     -113439.031       -2306.536          50.500  
G19  22143031.056     -152061.997       -3161.008          43.500  
G22  23590031.601       38671.835         830.240          48.000  
G28  21310925.982       17001.320         383.575          47.500  
> 2018  4 22 11 21 49.4688020  0  7                     
G 1  23426112.331      109578.986        2019.380          48.250  
G 3  22027441.145      -43530.127        -792.807          37.750  
G11  24088066.332      103975.755        2028.400          45.250  
G17  21724589.205     -113669.630       -2305.136          50.250  
G19  22144801.429     -152378.014       -3159.142          43.250  
G22  23591878.506       38754.926         831.851          48.000  
G28  21312763.096       17039.777         385.859          47.500  
> 2018  4 22 11 21 49.5688020  0  7                     
G 1  23427982.882      109781.096        2021.758          48.000  
G 3  22029256.927      -43609.168        -789.086          37.500  
G11  24089936.698      104178.662        2029.650          45.000  
G17  21726376.524     -113899.979       -2302.555          50.000  
G19  22146573.096     -152693.781       -3156.947          43.000  
G22  23593725.837       38838.264         834.945          47.750  
G28  21314602.155       17078.477         387.132          47.250  
> 2018  4 22 11 21 49.6688020  0  7                     
G 1  23429852.488      109983.350        2023.704          48.000  
G 3  22031071.329      -43688.061        -787.785          38.000  
G11  24091806.672      104381.705        2030.422          44.750  
G17  21728164.668     -114130.172       -2301.345          50.250  
G19  22148343.527     -153009.384       -3155.011          42.500  
G22  23595573.066       38921.742         835.871          48.250  
G28  21316440.671       17117.343         389.535          47.000  
> 2018  4 22 11 21 49.7688020  0  7                     
G 1  23431722.901      110185.699        2023.569          48.250  
G 3  22032888.345      -43766.859        -790.509          37.250  
G11  24093677.259      104584.844        2031.485          45.250  
G17  21729952.333     -114360.291       -2302.024          50.000  
G19  22150114.892     -153324.922       -3156.011          43.250  
G22  23597420.579       39005.323         835.647          47.750  
G28  21318279.507       17156.294         388.625          47.500  
> 2018  4 22 11 21 49.8688020  0  7                     
G 1  23433593.000      110387.851        2020.402          48.000  
G 3  22034705.384      -43845.840        -789.926          38.000  
G11  24095547.362      104787.792        2027.744          45.000  
G17  21731740.175     -114590.592       -2304.228          50.250  
G19  22151886.326     -153640.606       -3157.429          43.250  
G22  23599268.116       39088.731         832.757          48.000  
G28  21320120.050       17195.068         387.009          47.250  
> 2018  4 22 11 21 49.9688020  0  7                     
G 1  23435463.038      110589.834        2019.593          48.000  
G 3  22036519.993      -43924.996        -792.054          37.500  
G11  24097416.859      104990.583        2026.642          45.250  
G17  21733528.156     -114821.050       -2304.925          50.500  
G19  22153658.599     -153956.507       -3160.302          42.750  
G22  23601115.657       39171.956         831.968          48.250  
G28  21321956.957       17233.677         385.689          47.500  
> 2018  4 22 11 21 50.0688020  0  7                     
G 1  23437333.392      110791.722        2019.452          48.250  
G 3  22038336.753      -44004.231        -792.564          38.000  
G11  24099286.836      105193.263        2027.261          45.250  
G17  21735315.783     -115051.625       -2305.609          50.500  
G19  22155430.542     -154272.482       -3159.636          43.250  
G22  23602963.206       39255.089         831.580          48.250  
G28  21323796.657       17272.173         385.288          47.500  
> 2018  4 22 11 21 50.1688020  0  7                     
G 1  23439203.281      110993.754        2021.985          48.250  
G 3  22040154.648      -44083.336        -789.530          38.000  
G11  24101156.890      105396.086        2029.846          45.000  
G17  21737104.023     -115282.043       -2302.168          50.250  
G19  22157201.973     -154588.295       -3157.083          43.500  
G22  23604811.384       39338.366         833.979          48.000  
G28  21325635.982       17310.838         388.485          47.500  
> 2018  4 22 11 21 50.2688020  0  7                     
G 1  23441074.017      111196.075        2023.777          48.000  
G 3  22041970.718      -44162.125        -786.962          37.750  
G11  24103027.477      105599.197        2031.990          45.250  
G17  21738891.789     -115512.184       -2300.800          50.250  
G19  22158973.088     -154903.840       -3154.565          43.250  
G22  23606658.099       39421.940         836.259          48.000  
G28  21327474.064       17349.786         390.606          47.250  
> 2018  4 22 11 21 50.3688020  0  7                     
G 1  23442944.446      111398.406        2023.363          48.250  
G 3  22043786.195      -44240.897        -788.569          38.000  
G11  24104898.190      105802.327        2032.076          45.000  
G17  21740679.579     -115742.307       -2301.310          50.250  
G19  22160744.965     -155219.379       -3156.227          43.250  
G22  23608505.374       39505.531         835.873          48.250  
G28  21329315.115       17388.747         390.314          47.500  
> 2018  4 22 11 21 50.4688020  0  7                     
G 1  23444814.322      111600.721        2022.697          48.250  
G 3  22045602.271      -44319.675        -788.480          37.500  
G11  24106768.403      106005.432        2031.063          45.000  
G17  21742467.306     -115972.433       -2301.695          50.500  
G19  22162517.275     -155534.912       -3156.002          43.500  
G22  23610352.643       39589.114         835.917          48.250  
G28  21331151.744       17427.710         389.657          47.500  
> 2018  4 22 11 21 50.5688020  0  7                     
G 1  23446683.893      111802.972        2023.319          48.000  
G 3  22047418.654      -44398.531        -788.854          38.250  
G11  24108638.793      106208.472        2030.835          45.000  
G17  21744254.417     -116202.625       -2301.371          50.500  
G19  22164288.815     -155850.514       -3154.845          43.250  
G22  23612200.298       39672.623         836.019          48.250  
G28  21332990.758       17466.598         389.954          47.500  
> 2018  4 22 11 21 50.6688020  0  7                     
G 1  23448554.644      112005.291        2022.880          48.250  
G 3  22049234.994      -44477.310        -786.678          37.750  
G11  24110508.771      106411.585        2031.408          45.000  
G17  21746042.889     -116432.765       -2301.574          50.250  
G19  22166060.325     -156166.062       -3155.918          43.250  
G22  23614048.015       39756.212         836.154          48.250  
G28  21334829.915       17505.552         389.414          47.250  
> 2018  4 22 11 21 50.7688020  0  7                     
G 1  23450424.635      112207.590        2022.880          48.250  
G 3  22051053.274      -44556.104        -788.375          37.750  
G11  24112379.041      106614.674        2031.374          45.250  
G17  21747830.545     -116662.911       -2301.915          50.500  
G19  22167831.597     -156481.614       -3155.783          43.000  
G22  23615896.036       39839.791         836.017          48.500  
G28  21336668.195       17544.514         389.293          47.500  
> 2018  4 22 11 21 50.8688020  0  7                     
G 1  23452294.178      112409.840        2022.132          48.250  
G 3  22052870.440      -44634.931        -788.130          38.250  
G11  24114248.972      106817.726        2030.452          45.250  
G17  21749617.902     -116893.106       -2302.649          50.500  
G19  22169603.533     -156797.229       -3157.213          43.250  
G22  23617743.797       39923.311         834.601          48.250  
G28  21338509.386       17583.408         388.936          47.500  
> 2018  4 22 11 21 50.9688020  0  7                     
G 1  23454164.298      112611.923        2020.140          48.000  
G 3  22054685.541      -44713.920        -789.387          37.250  
G11  24116119.709      107020.586        2027.839          44.500  
G17  21751405.758     -117123.475       -2304.280          49.750  
G19  22171374.512     -157113.013       -3160.369          43.000  
G22  23619591.152       40006.667         832.599          47.750  
G28  21340346.633       17622.147         386.776          47.250  
> 2018  4 22 11 21 51.0688020  0  7                     
G 1  23456034.127      112813.823        2019.010          47.750  
G 3  22056501.150      -44793.098        -791.690          37.750  
G11  24117988.671      107223.278        2025.862          44.500  
G17  21753193.136     -117354.021       -2306.255          49.750  
G19  22173145.932     -157428.949       -3161.006          42.750  
G22  23621437.683       40089.850         830.946          48.000  
G28  21342186.640       17660.705         384.798          47.000  
> 2018  4 22 11 21 51.1688020  0  7                     
G 1  23457904.203      113015.646        2018.339          48.000  
G 3  22058319.266      -44872.344        -791.168          38.500  
G11  24119858.968      107425.896        2026.615          45.000  
G17  21754980.565     -117584.643       -2305.746          50.250  
G19  22174918.180     -157744.968       -3159.993          43.250  
G22  23623284.850       40172.972         831.770          48.500  
G28  21344025.808       17699.196         385.801          47.250  
> 2018  4 22 11 21 51.2688020  0  7                     
G 1  23459773.681      113217.483        2018.701          48.250  
G 3  22060137.251      -44951.571        -791.311          37.750  
G11  24121728.907      107628.512        2026.282          45.000  
G17  21756768.821     -117815.256       -2306.053          50.250  
G19  22176689.164     -158060.983       -3160.679          43.500  
G22  23625132.986       40256.087         831.646          48.250  
G28  21345864.378       17737.699         384.486          47.500  
> 2018  4 22 11 21 51.3688020  0  7                     
G 1  23461644.623      113419.322        2017.985          48.000  
G 3  22061954.756      -45030.764        -792.303          37.750  
G11  24123599.406      107831.161        2026.451          44.750  
G17  21758556.578     -118045.848       -2305.591          50.250  
G19  22178459.951     -158376.993       -3161.089          43.250  
G22  23626980.367       40339.237         832.061          48.250  
G28  21347705.317       17776.232         385.081          47.250  
> 2018  4 22 11 21 51.4688020  0  7                     
G 1  23463513.825      113621.154        2018.675          48.250  
G 3  22063768.591      -45109.988        -791.174          38.000  
G11  24125469.563      108033.777        2026.203          45.250  
G17  21760344.436     -118276.472       -2305.836          50.500  
G19  22180232.023     -158693.022       -3160.458          43.250  
G22  23628827.939       40422.369         832.057          48.250  
G28  21349542.428       17814.732         385.203          47.250  
> 2018  4 22 11 21 51.5688020  0  7                     
G 1  23465384.281      113823.013        2018.750          48.250  
G 3  22065585.077      -45189.185        -791.840          38.000  
G11  24127339.866      108236.417        2027.791          45.250  
G17  21762132.045     -118507.048       -2305.553          50.500  
G19  22182002.879     -159009.007       -3159.484          43.500  
G22  23630676.259       40505.525         831.470          48.500  
G28  21351382.385       17853.281         386.320          47.500  
> 2018  4 22 11 21 51.6688020  0  7                     
G 1  23467254.342      114024.806        2018.124          48.250  
G 3  22067403.322      -45268.413        -790.168          38.250  
G11  24129209.566      108439.008        2025.621          45.000  
G17  21763919.796     -118737.697       -2306.446          50.500  
G19  22183774.170     -159325.077       -3160.756          43.500  
G22  23632523.964       40588.634         831.203          48.250  
G28  21353220.543       17891.761         384.533          47.500  
> 2018  4 22 11 21 51.7688020  0  7                     
G 1  23469124.522      114226.557        2016.837          48.250  
G 3  22069220.504      -45347.709        -792.694          38.000  
G11  24131080.319      108641.542        2024.280          45.000  
G17  21765707.108     -118968.393       -2306.905          50.500  
G19  22185546.565     -159641.172       -3161.904          43.250  
G22  23634371.044       40671.684         830.184          48.500  
G28  21355058.424       17930.204         384.977          47.500  
> 2018  4 22 11 21 51.8688020  0  7                     
G 1  23470993.763      114428.255        2017.129          48.250  
G 3  22071035.719      -45427.052        -793.709          37.750  
G11  24132949.516      108844.038        2024.725          45.250  
G17  21767494.550     -119199.128       -2307.750          50.500  
G19  22187317.592     -159957.301       -3162.846          43.500  
G22  23636217.531       40754.698         830.293          48.000  
G28  21356899.197       17968.606         384.266          47.750  
> 2018  4 22 11 21 51.9688020  0  7                     
G 1  23472864.515      114629.987        2017.989          48.000  
G 3  22072851.445      -45506.330        -792.978          37.000  
G11  24134818.824      109046.566        2025.665          44.750  
G17  21769282.571     -119429.839       -2307.241          50.250  
G19  22189088.969     -160273.422       -3161.282          43.250  
G22  23638064.742       40837.748         830.546          48.250  
G28  21358737.086       18007.026         384.178          47.250  
> 2018  4 22 11 21 52.0688020  0  7                     
G 1  23474734.430      114831.740        2018.101          48.000  
G 3  22074667.046      -45585.588        -791.385          38.250  
G11  24136689.544      109249.091        2025.551          45.000  
G17  21771069.911     -119660.534       -2306.754          50.500  
G19  22190860.760     -160589.508       -3159.485          43.250  
G22  23639912.407       40920.805         831.239          48.250  
G28  21360577.341       18045.469         384.571          47.500  
> 2018  4 22 11 21 52.1688020  0  7                     
G 1  23476604.501      115033.576        2018.324          48.250  
G 3  22076484.616      -45664.762        -790.867          38.000  
G11  24138559.548      109451.725        2026.547          44.750  
G17  21772857.830     -119891.129       -2305.954          50.500  
G19  22192631.867     -160905.519       -3160.007          43.500  
G22  23641760.025       41003.976         831.698          48.250  
G28  21362414.797       18084.022         385.609          47.250  
> 2018  4 22 11 21 52.2688020  0  7                     
G 1  23478473.807      115235.420        2018.854          48.250  
G 3  22078300.378      -45743.905        -789.890          37.750  
G11  24140430.173      109654.351        2027.159          45.000  
G17  21774645.749     -120121.727       -2306.435          50.250  
G19  22194403.886     -161221.516       -3160.441          43.250  
G22  23643607.215       41087.151         832.077          48.250  
G28  21364253.196       18122.589         385.941          47.500  
> 2018  4 22 11 21 52.3688020  0  7                     
G 1  23480343.754      115437.429        2022.404          48.000  
G 3  22080117.996      -45822.927        -788.614          38.250  
G11  24142300.410      109857.151        2029.951          44.500  
G17  21776434.317     -120352.158       -2302.207          50.000  
G19  22196173.976     -161537.360       -3156.073          43.500  
G22  23645454.865       41170.496         835.742          48.000  
G28  21366093.803       18161.310         389.762          47.250  
> 2018  4 22 11 21 52.4688020  0  7                     
G 1  23482213.086      115639.850        2024.934          47.750  
G 3  22081934.650      -45901.477        -784.695          38.250  
G11  24144170.970      110060.356        2032.858          44.500  
G17  21778222.093     -120582.173       -2299.647          50.250  
G19  22197946.260     -161852.770       -3154.075          42.750  
G22  23647301.733       41254.247         838.641          48.250  
G28  21367930.525       18200.444         391.533          47.250  
> 2018  4 22 11 21 52.5688020  0  7                     
G 1  23484083.488      115842.218        2022.510          48.250  
G 3  22083751.513      -45980.120        -787.873          38.000  
G11  24146040.913      110263.514        2031.319          44.750  
G17  21780009.177     -120812.241       -2302.273          50.500  
G19  22199718.495     -162168.225       -3156.320          43.500  
G22  23649148.806       41337.961         836.725          48.500  
G28  21369770.869       18239.545         390.066          47.500  
> 2018  4 22 11 21 52.6688020  0  7                     
G 1  23485953.683      116044.278        2019.715          48.000  
G 3  22085569.301      -46059.043        -791.244          37.250  
G11  24147911.356      110466.359        2027.168          44.750  
G17  21781796.959     -121042.604       -2304.901          50.250  
G19  22201488.247     -162484.012       -3158.933          43.250  
G22  23650997.034       41421.356         832.839          48.000  
G28  21371609.775       18278.337         387.488          47.500  
> 2018  4 22 11 21 52.7688020  0  7                     
G 1  23487824.050      116246.160        2018.465          48.000  
G 3  22087388.356      -46138.106        -790.271          38.000  
G11  24149781.448      110669.022        2026.047          45.000  
G17  21783584.809     -121273.152       -2306.340          50.250  
G19  22203259.603     -162799.975       -3159.918          43.250  
G22  23652844.395       41504.594         831.461          48.000  
G28  21373448.181       18316.950         385.733          47.250  
> 2018  4 22 11 21 52.8688020  0  7                     
G 1  23489694.581      116447.900        2017.526          48.000  
G 3  22089202.764      -46217.372        -792.729          38.750  
G11  24151651.075      110871.550        2024.840          44.750  
G17  21785372.026     -121503.856       -2307.490          50.500  
G19  22205031.883     -163116.090       -3161.849          43.250  
G22  23654692.186       41587.672         830.416          48.250  
G28  21375288.481       18355.412         384.083          47.500  
> 2018  4 22 11 21 52.9688020  0  7                     
G 1  23491564.870      116649.557        2015.760          48.000  
G 3  22091019.344      -46296.641        -793.244          37.750  
G11  24153521.833      111073.995        2023.645          45.000  
G17  21787160.105     -121734.631       -2308.318          50.500  
G19  22206803.398     -163432.250       -3162.893          43.500  
G22  23656540.217       41670.693         829.845          48.500  
G28  21377125.969       18393.820         383.792          47.500  
> 2018  4 22 11 21 53.0688020  0  7                     
G 1  23493434.212      116851.190        2017.090          48.250  
G 3  22092838.330      -46375.979        -793.024          38.250  
G11  24155391.504      111276.428        2025.277          45.000  
G17  21788947.438     -121965.422       -2307.340          50.500  
G19  22208575.106     -163748.431       -3161.963          43.250  
G22  23658387.297       41753.689         830.674          48.500  
G28  21378966.062       18432.207         384.405          47.500  
> 2018  4 22 11 21 53.1688020  0  7                     
G 1  23495304.355      117052.885        2016.194          48.250  
G 3  22094653.777      -46455.264        -792.958          38.000  
G11  24157261.905      111478.892        2023.815          44.750  
G17  21790735.038     -122196.162       -2307.840          50.500  
G19  22210346.262     -164064.582       -3161.658          43.500  
G22  23660234.665       41836.742         830.488          48.250  
G28  21380804.191       18470.641         384.767          47.250  
> 2018  4 22 11 21 53.2688020  0  7                     
G 1  23497175.198      117254.607        2017.179          48.250  
G 3  22096469.644      -46534.488        -791.544          38.000  
G11  24159132.794      111681.409        2025.088          45.000  
G17  21792523.122     -122426.860       -2306.604          50.500  
G19  22212117.323     -164380.679       -3160.811          43.750  
G22  23662081.777       41919.841         830.674          48.500  
G28  21382642.552       18509.126         385.020          47.500  
> 2018  4 22 11 21 53.3688020  0  7                     
G 1  23499044.862      117456.365        2017.157          48.250  
G 3  22098288.228      -46613.668        -791.168          38.250  
G11  24161003.223      111883.949        2025.880          44.750  
G17  21794310.813     -122657.534       -2306.988          50.500  
G19  22213889.161     -164696.767       -3161.712          43.500  
G22  23663929.215       42002.959         831.297          48.500  
G28  21384483.538       18547.641         385.031          47.500  
> 2018  4 22 11 21 53.4688020  0  7                     
G 1  23500914.674      117658.142        2018.404          48.500  
G 3  22100103.948      -46692.821        -791.217          38.000  
G11  24162872.608      112086.520        2026.458          45.000  
G17  21796098.970     -122888.181       -2306.336          50.500  
G19  22215661.050     -165012.806       -3160.449          43.750  
G22  23665776.145       42086.115         831.839          48.500  
G28  21386321.501       18586.189         386.504          47.500  
> 2018  4 22 11 21 53.5688020  0  7                     
G 1  23502784.283      117859.903        2017.785          48.250  
G 3  22101920.118      -46771.999        -791.618          38.250  
G11  24164743.156      112289.065        2025.457          45.000  
G17  21797886.568     -123118.850       -2307.171          50.500  
G19  22217431.826     -165328.876       -3161.321          43.500  
G22  23667622.903       42169.250         830.963          48.500  
G28  21388160.603       18624.698         385.069          47.500  
> 2018  4 22 11 21 53.6688020  0  7                     
G 1  23504654.407      118061.591        2016.635          48.250  
G 3  22103735.579      -46851.232        -792.814          38.250  
G11  24166613.202      112491.546        2024.700          45.000  
G17  21799673.999     -123349.588       -2307.731          50.500  
G19  22219203.634     -165645.025       -3161.804          43.500  
G22  23669470.250       42252.316         830.647          48.250  
G28  21389999.062       18663.169         384.488          47.500  
> 2018  4 22 11 21 53.7688020  0  7                     
G 1  23506524.589      118263.224        2015.937          48.250  
G 3  22105550.758      -46930.513        -793.237          38.000  
G11  24168482.961      112693.974        2023.896          44.750  
G17  21801461.385     -123580.372       -2308.715          50.500  
G19  22220973.859     -165961.201       -3162.450          43.750  
G22  23671318.555       42335.339         829.700          48.500  
G28  21391838.032       18701.579         383.594          47.750  
> 2018  4 22 11 21 53.8688020  0  7                     
G 1  23508394.085      118464.775        2014.729          48.250  
G 3  22107367.457      -47009.868        -793.207          38.000  
G11  24170354.174      112896.290        2021.873          45.000  
G17  21803249.009     -123811.257       -2310.039          50.500  
G19  22222745.606     -166277.487       -3164.034          43.500  
G22  23673165.961       42418.279         828.573          48.250  
G28  21393677.703       18739.901         382.984          47.500  
> 2018  4 22 11 21 53.9688020  0  7                     
G 1  23510263.089      118666.218        2013.581          48.250  
G 3  22109184.732      -47089.352        -796.143          37.750  
G11  24172222.871      113098.531        2022.401          44.750  
G17  21805036.291     -124042.233       -2309.968          50.500  
G19  22224518.039     -166593.870       -3165.118          43.750  
G22  23675012.259       42501.106         827.880          48.250  
G28  21395515.119       18778.125         381.534          47.500  
> 2018  4 22 11 21 54.0688020  0  7                     
G 1  23512133.350      118867.602        2015.029          48.000  
G 3  22111000.554      -47168.871        -794.666          38.250  
G11  24174093.103      113300.728        2034.453          45.000  
G17  21806823.574     -124273.278       -2310.349          50.500  
G19  22226288.999     -166910.300       -3164.421          43.500  
G22  23676859.669       42583.886         828.096          48.250  
G28  21397355.731       18816.302         382.419          47.500  
> 2018  4 22 11 21 54.1688020  0  7                     
G 1  23514003.545      119068.969        2014.164          48.000  
G 3  22112816.446      -47248.403        -794.731          38.250  
G11  24175962.778      113502.345        1965.900          44.750  
G17  21808610.973     -124504.327       -2310.238          50.500  
G19  22228060.165     -167226.764       -3164.030          43.500  
G22  23678707.417       42666.654         828.430          48.250  
G28  21399193.474       18854.457         382.646          47.500  
> 2018  4 22 11 21 54.2688020  0  7                     
G 1  23515873.308      119270.393        2014.625          48.000  
G 3  22114632.612      -47327.874        -795.382          38.000  
G11  24177832.252      113705.057        2022.351          44.750  
G17  21810398.600     -124735.322       -2309.747          50.500  
G19  22229831.902     -167543.168       -3163.452          43.500  
G22  23680555.050       42749.486         828.280          48.500  
G28  21401031.728       18892.680         381.867          47.500  
> 2018  4 22 11 21 54.3688020  0  7                     
G 1  23517743.166      119471.907        2016.363          48.250  
G 3  22116449.368      -47407.219        -791.743          38.500  
G11  24179702.132      113907.338        2024.601          44.750  
G17  21812186.068     -124966.229       -2308.157          50.500  
G19  22231604.115     -167859.459       -3162.529          43.750  
G22  23682402.690       42832.411         830.484          48.250  
G28  21402871.900       18931.001         384.627          47.500  
> 2018  4 22 11 21 54.4688020  0  7                     
G 1  23519612.814      119673.556        2016.755          48.250  
G 3  22118265.478      -47486.453        -791.265          38.000  
G11  24181572.909      114109.779        2024.709          45.000  
G17  21813973.870     -125196.992       -2307.169          50.500  
G19  22233374.705     -168175.622       -3161.362          43.500  
G22  23684250.194       42915.467         831.445          48.500  
G28  21404709.368       18969.456         384.998          47.500  
> 2018  4 22 11 21 54.5688020  0  7                     
G 1  23521483.290      119875.253        2017.659          48.250  
G 3  22120082.442      -47565.658        -792.096          37.750  
G11  24183444.403      114312.269        2025.903          44.750  
G17  21815761.646     -125427.722       -2307.272          50.750  
G19  22235145.152     -168491.738       -3161.442          43.500  
G22  23686098.000       42998.584         831.769          48.500  
G28  21406549.195       19007.966         385.344          47.750  
> 2018  4 22 11 21 54.6688020  0  7                     
G 1  23523352.829      120076.999        2017.969          48.250  
G 3  22121900.355      -47644.760        -789.510          38.000  
G11  24185315.118      114514.790        2026.496          45.000  
G17  21817550.247     -125658.392       -2306.017          50.500  
G19  22236917.273     -168807.822       -3160.344          43.750  
G22  23687945.359       43081.747         832.396          48.500  
G28  21408387.455       19046.516         386.432          47.500  
> 2018  4 22 11 21 54.7688020  0  7                     
G 1  23525222.558      120278.781        2018.534          48.250  
G 3  22123716.789      -47723.859        -791.525          38.250  
G11  24187185.316      114717.343        2025.022          44.750  
G17  21819338.355     -125889.029       -2306.535          50.500  
G19  22238688.740     -169123.863       -3161.117          43.750  
G22  23689792.730       43164.942         832.214          48.250  
G28  21410226.165       19085.118         386.085          47.750  
> 2018  4 22 11 21 54.8688020  0  7                     
G 1  23527092.670      120480.524        2018.402          48.250  
G 3  22125532.459      -47802.980        -791.836          38.500  
G11  24189055.506      114919.870        2025.574          44.750  
G17  21821126.206     -126119.712       -2307.246          50.500  
G19  22240459.992     -169439.933       -3161.834          43.250  
G22  23691639.229       43248.113         832.450          48.500  
G28  21412066.422       19123.677         385.646          47.500  
> 2018  4 22 11 21 54.9688020  0  7                     
G 1  23528963.916      120682.238        2016.841          48.500  
G 3  22127352.238      -47882.114        -791.863          38.250  
G11  24190925.597      115122.361        2023.770          45.000  
G17  21822913.873     -126350.407       -2307.791          50.500  
G19  22242231.816     -169756.046       -3162.280          43.750  
G22  23693486.567       43331.253         830.625          48.500  
G28  21413904.419       19162.210         384.728          47.500  
> 2018  4 22 11 21 55.0688020  0  7                     
G 1  23530833.487      120883.861        2016.208          48.250  
G 3  22129168.180      -47961.346        -793.476          38.000  
G11  24192795.563      115324.769        2023.527          45.000  
G17  21824701.164     -126581.201       -2308.746          50.500  
G19  22244001.625     -170072.230       -3163.453          43.750  
G22  23695334.103       43414.318         830.284          48.500  
G28  21415744.112       19200.663         384.655          47.500  
> 2018  4 22 11 21 55.1688020  0  7                     
G 1  23532703.680      121085.364        2014.653          48.250  
G 3  22130984.088      -48040.682        -793.298          38.000  
G11  24194665.555      115527.055        2022.673          45.000  
G17  21826488.235     -126812.102       -2309.604          50.500  
G19  22245772.988     -170388.521       -3163.344          43.500  
G22  23697181.401       43497.260         828.749          48.500  
G28  21417582.100       19239.005         383.168          47.500  
> 2018  4 22 11 21 55.2688020  0  7                     
G 1  23534574.069      121286.794        2014.228          48.250  
G 3  22132799.990      -48120.079        -794.562          37.500  
G11  24196535.392      115729.277        2021.437          44.750  
G17  21828276.046     -127043.087       -2310.246          50.500  
G19  22247545.345     -170704.914       -3164.690          43.500  
G22  23699028.759       43580.134         828.528          48.250  
G28  21419421.149       19277.279         382.288          47.500  
> 2018  4 22 11 21 55.3688020  0  7                     
G 1  23536444.136      121488.237        2014.525          47.750  
G 3  22134617.166      -48199.442        -792.864          38.500  
G11  24198404.672      115931.490        2022.270          44.750  
G17  21830063.528     -127274.058       -2309.644          50.500  
G19  22249316.929     -171021.279       -3163.722          43.500  
G22  23700876.625       43663.018         829.231          48.500  
G28  21421260.878       19315.561         382.783          47.500  
> 2018  4 22 11 21 55.4688020  0  7                     
G 1  23538313.424      121689.747        2015.745          48.250  
G 3  22136432.414      -48278.800        -793.472          38.250  
G11  24200274.557      116133.777        2022.261          44.500  
G17  21831851.201     -127504.964       -2308.961          50.500  
G19  22251087.855     -171337.585       -3163.563          43.500  
G22  23702723.425       43745.974         828.991          48.500  
G28  21423097.742       19353.913         383.418          47.500  
> 2018  4 22 11 21 55.5688020  0  7                     
G 1  23540182.850      121891.256        2015.678          48.000  
G 3  22138248.867      -48358.081        -793.394          38.750  
G11  24202143.961      116336.061        2022.702          44.750  
G17  21833638.907     -127735.868       -2309.220          50.500  
G19  22252860.925     -171653.878       -3162.598          43.750  
G22  23704569.924       43828.932         829.803          48.500  
G28  21424938.340       19392.277         383.867          47.750  
> 2018  4 22 11 21 55.6688020  0  7                     
G 1  23542052.681      122092.855        2016.674          48.250  
G 3  22140065.005      -48437.287        -792.344          38.250  
G11  24204014.202      116538.443        2023.505          45.000  
G17  21835426.207     -127966.669       -2307.875          50.750  
G19  22254632.088     -171970.083       -3161.875          43.750  
G22  23706417.394       43911.993         831.327          48.500  
G28  21426776.699       19430.733         385.827          47.250  
> 2018  4 22 11 21 55.7688020  0  7                     
G 1  23543922.732      122294.519        2016.580          48.250  
G 3  22141881.286      -48516.464        -791.923          38.250  
G11  24205885.045      116740.896        2023.918          44.750  
G17  21837213.891     -128197.422       -2308.309          50.750  
G19  22256404.431     -172286.237       -3162.537          43.500  
G22  23708265.170       43995.109         830.643          48.500  
G28  21428615.204       19469.254         384.692          47.750  
> 2018  4 22 11 21 55.8688020  0  7                     
G 1  23545792.996      122496.145        2016.883          48.250  
G 3  22143699.038      -48595.620        -790.575          38.000  
G11  24207755.464      116943.309        2024.230          45.000  
G17  21839001.282     -128428.203       -2308.110          50.250  
G19  22258175.832     -172602.416       -3162.079          43.750  
G22  23710112.708       44078.206         831.302          48.250  
G28  21430455.312       19507.737         384.854          47.500  
> 2018  4 22 11 21 55.9688020  0  7                     
G 1  23547663.001      122697.804        2017.066          48.000  
G 3  22145515.651      -48674.765        -791.517          38.250  
G11  24209626.209      117145.745        2025.009          44.500  
G17  21840789.518     -128658.953       -2307.472          50.500  
G19  22259947.095     -172918.550       -3160.774          43.250  
G22  23711960.629       44161.333         831.282          48.500  
G28  21432292.516       19546.269         385.250          47.250  
> 2018  4 22 11 21 56.0688020  0  7                     
G 1  23549532.684      122899.410        2016.109          48.250  
G 3  22147333.702      -48753.952        -791.850          38.500  
G11  24211495.480      117348.133        2024.252          44.500  
G17  21842577.037     -128889.744       -2308.301          50.500  
G19  22261720.050     -173234.749       -3163.162          43.750  
G22  23713808.144       44244.415         830.977          48.500  
G28  21434132.994       19584.758         385.203          47.500  
> 2018  4 22 11 21 56.1688020  0  7                     
G 1  23551402.241      123100.973        2016.327          48.250  
G 3  22149148.939      -48833.166        -790.678          37.750  
G11  24213365.040      117550.469        2023.201          45.000  
G17  21844364.559     -129120.589       -2308.563          50.500  
G19  22263491.604     -173550.997       -3162.233          44.000  
G22  23715654.770       44327.456         830.307          48.750  
G28  21435972.196       19623.186         384.198          47.750  
> 2018  4 22 11 21 56.2688020  0  7                     
G 1  23553271.841      123302.520        2015.747          48.250  
G 3  22150964.762      -48912.409        -794.026          37.750  
G11  24215235.545      117752.791        2022.873          45.000  
G17  21846152.596     -129351.457       -2309.113          50.500  
G19  22265263.653     -173867.255       -3162.810          43.750  
G22  23717502.088       44410.464         830.598          48.250  
G28  21437811.002       19661.607         383.605          47.750  
> 2018  4 22 11 21 56.3688020  0  7                     
G 1  23555141.536      123503.993        2015.566          48.000  
G 3  22152781.069      -48991.697        -792.407          38.750  
G11  24217105.142      117955.044        2023.222          44.750  
G17  21847939.806     -129582.392       -2309.354          50.750  
G19  22267035.110     -174183.580       -3163.259          43.750  
G22  23719349.015       44493.419         829.304          48.500  
G28  21439650.771       19699.962         383.204          47.500  
> 2018  4 22 11 21 56.4688020  0  7                     
G 1  23557010.925      123705.450        2013.361          48.250  
G 3  22154598.526      -49071.003        -793.512          38.250  
G11  24218975.405      118157.293        2021.763          44.750  
G17  21849728.037     -129813.321       -2309.980          50.750  
G19  22268806.155     -174499.905       -3163.128          43.750  
G22  23721197.213       44576.376         829.653          48.500  
G28  21441488.063       19738.333         382.861          47.750  
> 2018  4 22 11 21 56.5688020  0  7                     
G 1  23558880.974      123906.817        2014.272          48.000  
G 3  22156413.780      -49150.396        -793.483          38.250  
G11  24220845.893      118359.434        2021.364          44.750  
G17  21851515.938     -130044.358       -2310.253          50.750  
G19  22270577.404     -174816.345       -3164.406          43.750  
G22  23723044.496       44659.227         829.389          48.500  
G28  21443327.423       19776.586         383.257          47.500  
> 2018  4 22 11 21 56.6688020  0  7                     
G 1  23560751.185      124108.136        2013.568          48.000  
G 3  22158231.748      -49229.849        -794.960          38.250  
G11  24222715.042      118561.517        2020.035          44.750  
G17  21853303.855     -130275.448       -2310.909          50.750  
G19  22272349.616     -175132.838       -3165.903          43.500  
G22  23724892.633       44742.038         827.867          48.500  
G28  21445165.116       19814.794         382.610          47.250  
> 2018  4 22 11 21 56.7688020  0  7                     
G 1  23562621.306      124309.396        2012.438          48.250  
G 3  22160047.474      -49309.344        -794.997          39.000  
G11  24224584.419      118763.562        2019.768          44.750  
G17  21855091.647     -130506.585       -2311.401          50.750  
G19  22274122.427     -175449.369       -3166.455          43.750  
G22  23726740.294       44824.792         826.849          48.500  
G28  21447003.888       19852.954         381.406          47.750  
> 2018  4 22 11 21 56.8688020  0  7                     
G 1  23564491.581      124510.583        2010.855          48.250  
G 3  22161863.749      -49388.906        -796.536          38.500  
G11  24226454.200      118965.512        2018.650          44.750  
G17  21856879.319     -130737.805       -2313.176          50.750  
G19  22275892.030     -175765.985       -3167.094          43.750  
G22  23728587.473       44907.483         825.982          48.750  
G28  21448843.937       19891.042         380.431          47.750  
> 2018  4 22 11 21 56.9688020  0  7                     
G 1  23566361.721      124711.715        2011.237          48.250  
G 3  22163681.120      -49468.503        -794.543          38.750  
G11  24228325.078      119167.440        2019.252          44.750  
G17  21858666.387     -130969.063       -2311.847          50.750  
G19  22277663.626     -176082.653       -3166.711          43.750  
G22  23730433.905       44990.118         827.212          48.750  
G28  21450681.473       19929.088         379.852          47.500  
> 2018  4 22 11 21 57.0688020  0  7                     
G 1  23568232.246      124912.836        2012.161          48.250  
G 3  22165497.047      -49548.130        -795.668          39.000  
G11  24230194.936      119369.321        2019.179          44.750  
G17  21860454.056     -131200.361       -2313.220          50.750  
G19  22279433.908     -176399.324       -3167.303          44.000  
G22  23732281.667       45072.735         826.435          48.750  
G28  21452521.640       19967.106         380.445          47.750  
> 2018  4 22 11 21 57.1688020  0  7                     
G 1  23570102.360      125113.853        2009.175          48.000  
G 3  22167312.194      -49627.847        -796.793          39.250  
G11  24232065.161      119571.143        2017.809          44.500  
G17  21862241.387     -131431.728       -2314.124          50.750  
G19  22281205.030     -176716.106       -3167.591          44.000  
G22  23734128.827       45155.274         825.072          48.750  
G28  21454360.034       20005.051         379.530          47.500  
> 2018  4 22 11 21 57.2688020  0  7                     
G 1  23571972.493      125314.866        2009.876          48.250  
G 3  22169130.214      -49707.551        -797.757          38.750  
G11  24233935.002      119772.904        2016.510          44.500  
G17  21864029.577     -131663.118       -2314.529          50.750  
G19  22282976.148     -177032.897       -3168.819          44.000  
G22  23735976.759       45237.801         824.335          48.500  
G28  21456198.397       20042.980         378.574          47.500  
> 2018  4 22 11 21 57.3688020  0  7                     
G 1  23573842.001      125515.843        2009.251          48.000  
G 3  22170948.668      -49787.312        -799.777          38.250  
G11  24235804.792      119974.671        2018.085          44.750  
G17  21865816.908     -131894.531       -2314.232          50.750  
G19  22284748.182     -177349.683       -3168.873          43.500  
G22  23737823.827       45320.298         824.843          48.750  
G28  21458038.406       20080.896         378.473          47.500  
> 2018  4 22 11 21 57.4688020  0  7                     
G 1  23575711.476      125716.769        2009.229          48.250  
G 3  22172766.056      -49867.075        -797.376          38.250  
G11  24237674.377      120176.368        2017.698          44.250  
G17  21867605.008     -132126.006       -2314.905          50.750  
G19  22286518.387     -177666.553       -3168.313          44.250  
G22  23739671.485       45402.742         823.953          48.750  
G28  21459875.310       20118.752         378.295          47.750  
> 2018  4 22 11 21 57.5688020  0  7                     
G 1  23577581.592      125917.695        2009.305          48.500  
G 3  22174581.436      -49946.858        -798.991          38.500  
G11  24239544.344      120378.060        2017.206          44.500  
G17  21869392.608     -132357.484       -2315.435          50.750  
G19  22288291.536     -177983.446       -3168.922          44.250  
G22  23741518.404       45485.199         824.664          48.750  
G28  21461715.033       20156.593         378.460          47.750  
> 2018  4 22 11 21 57.6688020  0  7                     
G 1  23579450.922      126118.601        2008.948          48.250  
G 3  22176396.956      -50026.645        -796.980          38.000  
G11  24241414.888      120579.746        2016.533          44.500  
G17  21871180.112     -132588.964       -2315.211          50.500  
G19  22290062.126     -178300.307       -3168.849          44.000  
G22  23743365.990       45567.634         824.324          48.250  
G28  21463553.766       20194.442         378.789          47.500  
> 2018  4 22 11 21 57.7688020  0  7                     
G 1  23581320.879      126319.528        2009.373          47.750  
G 3  22178213.188      -50106.425        -797.059          38.500  
G11  24243286.193      120781.460        2016.646          44.000  
G17  21872968.152     -132820.417       -2314.792          50.500  
G19  22291833.528     -178617.174       -3169.157          43.500  
G22  23745213.016       45650.108         824.824          48.250  
G28  21465392.905       20232.324         378.503          47.250  
> 2018  4 22 11 21 57.8688020  0  7                     
G 1  23583190.605      126520.474        2010.294          48.000  
G 3  22180029.344      -50186.185        -797.905          38.500  
G11  24245155.071      120983.174        2017.274          44.500  
G17  21874755.951     -133051.870       -2313.909          50.750  
G19  22293605.520     -178934.006       -3169.073          43.500  
G22  23747060.175       45732.574         825.656          48.500  
G28  21467233.034       20270.211         379.961          47.500  
> 2018  4 22 11 21 57.9688020  0  7                     
G 1  23585060.595      126721.428        2010.430          48.250  
G 3  22181847.051      -50265.891        -796.508          38.500  
G11  24247025.885      121184.893        2017.454          44.750  
G17  21876544.015     -133283.309       -2314.052          51.000  
G19  22295375.951     -179250.845       -3168.435          44.000  
G22  23748907.526       45815.069         825.082          48.750  
G28  21469069.469       20308.123         379.611          47.750  
> 2018  4 22 11 21 58.0688020  0  7                     
G 1  23586930.373      126922.417        2010.138          48.250  
G 3  22183663.131      -50345.592        -797.678          38.500  
G11  24248895.457      121386.671        2017.466          44.500  
G17  21878331.250     -133514.712       -2314.137          51.000  
G19  22297147.740     -179567.627       -3167.699          43.750  
G22  23750755.094       45897.606         824.651          48.750  
G28  21470908.683       20346.068         379.128          47.750  
> 2018  4 22 11 21 58.1688020  0  7                     
G 1  23588799.810      127123.458        2011.317          48.250  
G 3  22185479.305      -50425.209        -795.650          38.500  
G11  24250765.575      121588.487        2018.221          44.750  
G17  21880118.273     -133746.064       -2313.259          50.750  
G19  22298917.916     -179884.385       -3167.483          44.250  
G22  23752602.911       45980.205         826.593          48.750  
G28  21472748.771       20384.059         380.460          47.500  
> 2018  4 22 11 21 58.2688020  0  7                     
G 1  23590669.387      127324.514        2011.425          48.250  
G 3  22187295.189      -50504.838        -795.009          38.750  
G11  24252636.239      121790.317        2019.119          44.500  
G17  21881905.809     -133977.395       -2313.424          51.000  
G19  22300689.303     -180201.107       -3167.801          44.000  
G22  23754449.412       46062.803         826.793          48.750  
G28  21474587.005       20422.083         380.705          47.750  
> 2018  4 22 11 21 58.3688020  0  7                     
G 1  23592539.802      127525.630        2012.040          48.250  
G 3  22189112.044      -50584.391        -794.525          38.500  
G11  24254506.742      121992.200        2018.944          44.500  
G17  21883693.135     -134208.673       -2312.721          51.000  
G19  22302460.838     -180517.779       -3165.938          44.000  
G22  23756296.559       46145.480         827.023          48.500  
G28  21476426.852       20460.161         381.105          47.750  
> 2018  4 22 11 21 58.4688020  0  7                     
G 1  23594409.666      127726.837        2012.521          48.000  
G 3  22190930.913      -50663.834        -794.125          38.250  
G11  24256376.037      122194.182        2019.889          44.500  
G17  21885481.355     -134439.845       -2311.616          50.750  
G19  22304232.354     -180834.346       -3165.975          44.250  
G22  23758143.762       46228.245         828.266          48.250  
G28  21478263.584       20498.347         383.053          47.250  
> 2018  4 22 11 21 58.5688020  0  7                     
G 1  23596279.306      127928.131        2013.391          47.750  
G 3  22192745.536      -50743.176        -793.577          38.500  
G11  24258245.591      122396.267        2021.844          44.500  
G17  21887268.945     -134670.936       -2310.682          50.750  
G19  22306003.947     -181150.817       -3164.393          44.000  
G22  23759990.758       46311.108         829.377          48.500  
G28  21480103.179       20536.618         383.347          47.500  
> 2018  4 22 11 21 58.6688020  0  7                     
G 1  23598149.088      128129.492        2013.435          48.000  
G 3  22194562.386      -50822.468        -794.062          38.000  
G11  24260114.811      122598.392        2021.995          44.500  
G17  21889056.262     -134901.968       -2310.407          50.750  
G19  22307775.503     -181467.259       -3165.154          43.750  
G22  23761838.318       46394.029         829.182          48.750  
G28  21481942.846       20574.940         383.273          47.250  
> 2018  4 22 11 21 58.7688020  0  7                     
G 1  23600018.833      128330.882        2014.494          48.250  
G 3  22196378.490      -50901.723        -791.884          38.750  
G11  24261984.894      122800.559        2022.355          44.750  
G17  21890844.343     -135132.959       -2309.252          51.000  
G19  22309546.678     -181783.630       -3163.868          44.000  
G22  23763686.011       46477.005         830.783          48.750  
G28  21483780.730       20613.333         383.990          47.750  
> 2018  4 22 11 21 58.8688020  0  7                     
G 1  23601888.368      128532.339        2014.557          48.250  
G 3  22198195.571      -50980.887        -790.961          38.500  
G11  24263855.000      123002.787        2022.532          44.750  
G17  21892631.764     -135363.889       -2309.749          51.000  
G19  22311318.475     -182099.962       -3163.327          44.000  
G22  23765533.937       46560.021         830.140          48.750  
G28  21485621.731       20651.778         384.201          47.500  
> 2018  4 22 11 21 58.9688020  0  7                     
G 1  23603758.216      128733.848        2015.369          48.000  
G 3  22200010.770      -51060.020        -791.885          38.500  
G11  24265724.031      123205.072        2022.450          44.750  
G17  21894419.208     -135594.759       -2308.575          50.750  
G19  22313089.047     -182416.225       -3162.230          44.250  
G22  23767382.528       46643.112         831.028          48.500  
G28  21487459.018       20690.281         385.825          47.500  
> 2018  4 22 11 21 59.0688020  0  7                     
G 1  23605628.172      128935.400        2015.351          47.750  
G 3  22201824.881      -51139.099        -790.792          38.250  
G11  24267593.992      123407.370        2022.116          44.250  
G17  21896206.741     -135825.604       -2308.861          50.750  
G19  22314859.688     -182732.458       -3163.111          44.000  
G22  23769228.352       46726.242         831.226          48.500  
G28  21489298.891       20728.814         384.610          47.500  
> 2018  4 22 11 21 59.1688020  0  7                     
G 1  23607497.630      129136.890        2014.971          48.000  
G 3  22203642.026      -51218.221        -792.527          38.250  
G11  24269464.273      123609.644        2022.507          44.500  
G17  21897993.668     -136056.486       -2309.087          51.000  
G19  22316632.060     -183048.736       -3163.179          44.250  
G22  23771075.961       46809.317         830.654          48.750  
G28  21491137.261       20767.310         384.373          47.750  
> 2018  4 22 11 21 59.2688020  0  7                     
G 1  23609367.620      129338.290        2013.860          48.000  
G 3  22205455.931      -51297.429        -792.427          38.500  
G11  24271334.243      123811.820        2021.328          44.500  
G17  21899781.398     -136287.463       -2310.130          50.750  
G19  22318403.840     -183365.099       -3164.032          44.500  
G22  23772922.259       46892.313         830.051          48.750  
G28  21492975.087       20805.729         384.145          47.750  
> 2018  4 22 11 21 59.3688020  0  7                     
G 1  23611237.756      129539.643        2013.211          48.000  
G 3  22207271.757      -51376.706        -794.007          38.500  
G11  24273204.270      124013.925        2021.055          44.500  
G17  21901569.072     -136518.504       -2310.494          51.000  
G19  22320175.610     -183681.534       -3163.678          44.000  
G22  23774769.829       46975.250         829.560          48.500  
G28  21494816.363       20844.071         383.440          47.750  
> 2018  4 22 11 21 59.4688020  0  7                     
G 1  23613107.632      129740.972        2014.112          47.750  
G 3  22209087.786      -51455.963        -792.606          38.750  
G11  24275074.943      124216.042        2021.903          44.500  
G17  21903357.230     -136749.554       -2310.322          50.750  
G19  22321946.786     -183997.968       -3164.904          44.000  
G22  23776617.613       47058.175         829.500          48.500  
G28  21496652.468       20882.423         384.004          47.250  
> 2018  4 22 11 21 59.5688020  0  7                     
G 1  23614977.241      129942.321        2014.482          47.750  
G 3  22210902.912      -51535.224        -792.068          38.500  
G11  24276945.776      124418.160        2022.305          44.750  
G17  21905145.223     -136980.574       -2310.083          51.000  
G19  22323719.054     -184314.387       -3164.259          44.250  
G22  23778465.294       47141.131         830.330          48.750  
G28  21498491.289       20920.790         384.634          47.750  
> 2018  4 22 11 21 59.6688020  0  7                     
G 1  23616847.656      130143.742        2014.070          48.000  
G 3  22212720.969      -51614.366        -790.863          38.250  
G11  24278815.614      124620.348        2021.243          44.500  
G17  21906933.135     -137211.543       -2310.328          51.000  
G19  22325490.573     -184630.741       -3164.382          44.250  
G22  23780312.702       47224.151         829.870          48.500  
G28  21500331.042       20959.222         383.635          47.500  
> 2018  4 22 11 21 59.7688020  0  7                     
G 1  23618717.072      130345.121        2014.018          47.750  
G 3  22214538.553      -51693.584        -792.817          38.500  
G11  24280685.015      124822.524        2022.504          44.500  
G17  21908721.421     -137442.527       -2310.552          50.750  
G19  22327261.029     -184947.115       -3163.483          44.250  
G22  23782159.808       47307.148         830.337          48.750  
G28  21502168.967       20997.642         384.174          47.500  
> 2018  4 22 11 21 59.8688020  0  7                     
G 1  23620586.435      130546.504        2013.741          48.250  
G 3  22216355.046      -51772.788        -792.591          38.250  
G11  24282556.230      125024.652        2021.375          44.500  
G17  21910509.265     -137673.539       -2309.716          51.000  
G19  22329032.966     -185263.534       -3163.079          43.750  
G22  23784006.771       47390.129         830.338          48.500  
G28  21504010.185       21036.034         384.074          47.750  
> 2018  4 22 11 21 59.9688020  0  7                     
G 1  23622456.363      130747.875        2013.617          48.000  
G 3  22218172.350      -51851.983        -791.736          38.500  
G11  24284426.979      125226.789        2020.363          44.750  
G17  21912296.920     -137904.538       -2310.421          51.000  
G19  22330804.706     -185579.919       -3165.250          43.750  
G22  23785853.580       47473.108         830.036          48.750  
G28  21505847.276       21074.452         384.042          47.500  
> 2018  4 22 11 22  0.0688020  0  7                     
G 1  23624326.291      130949.237        2012.896          47.750  
G 3  22219988.796      -51931.195        -792.887          38.500  
G11  24286297.137      125428.730        2018.540          44.750  
G17  21914084.257     -138135.549       -2310.022          51.250  
G19  22332575.841     -185896.324       -3165.019          44.000  
G22  23787701.042       47556.099         829.708          48.750  
G28  21507686.262       21112.846         383.785          47.500  
> 2018  4 22 11 22  0.1688020  0  7                     
G 1  23626196.398      131150.611        2012.542          47.750  
G 3  22221807.983      -52010.383        -793.262          38.500  
G11  24288167.669      125631.299        2051.420          44.500  
G17  21915871.242     -138366.554       -2310.487          51.000  
G19  22334346.205     -186212.696       -3164.408          44.000  
G22  23789548.789       47639.082         829.039          48.750  
G28  21509525.697       21151.263         383.854          47.500  
> 2018  4 22 11 22  0.2688020  0  7                     
G 1  23628065.968      131351.960        2013.256          47.750  
G 3  22223624.524      -52089.553        -790.761          38.500  
G11  24290036.833      125832.983        2016.488          44.500  
G17  21917658.913     -138597.572       -2310.902          51.000  
G19  22336117.630     -186529.134       -3165.217          44.000  
G22  23791397.014       47722.075         829.090          48.750  
G28  21511364.141       21189.673         383.321          47.500  
> 2018  4 22 11 22  0.3688020  0  7                     
G 1  23629935.853      131553.313        2013.929          47.750  
G 3  22225441.309      -52168.777        -792.165          38.250  
G11  24291906.844      126035.306        2021.517          44.500  
G17  21919446.345     -138828.595       -2309.777          51.000  
G19  22337889.054     -186845.538       -3164.519          44.000  
G22  23793244.850       47805.056         830.624          48.750  
G28  21513205.282       21228.058         383.617          47.500  
> 2018  4 22 11 22  0.4688020  0  7                     
G 1  23631805.242      131754.681        2012.503          48.000  
G 3  22227257.344      -52247.926        -791.153          38.250  
G11  24293775.851      126237.452        2021.273          44.500  
G17  21921233.762     -139059.597       -2310.992          51.000  
G19  22339659.367     -187161.915       -3164.333          44.250  
G22  23795092.077       47888.059         829.161          48.750  
G28  21515042.394       21266.495         383.467          47.750  
> 2018  4 22 11 22  0.5688020  0  7                     
G 1  23633674.770      131956.038        2014.751          47.750  
G 3  22229070.825      -52327.147        -791.605          39.000  
G11  24295645.702      126439.568        2021.005          44.500  
G17  21923021.542     -139290.619       -2310.187          51.250  
G19  22341430.735     -187478.331       -3163.329          44.250  
G22  23796938.110       47971.054         830.145          48.750  
G28  21516881.263       21304.900         384.886          47.750  
> 2018  4 22 11 22  0.6688020  0  7                     
G 1  23635544.917      132157.399        2014.039          48.000  
G 3  22230886.302      -52406.324        -791.447          38.000  
G11  24297514.760      126641.706        2021.935          44.250  
G17  21924809.159     -139521.632       -2309.362          51.250  
G19  22343202.098     -187794.732       -3163.992          44.000  
G22  23798784.949       48054.035         830.276          48.500  
G28  21518720.560       21343.326         384.874          47.750  
> 2018  4 22 11 22  0.7688020  0  7                     
G 1  23637415.728      132358.798        2014.118          47.750  
G 3  22232703.470      -52485.440        -791.473          38.000  
G11  24299385.582      126843.881        2022.231          44.000  
G17  21926597.168     -139752.595       -2310.053          50.500  
G19  22344973.870     -188111.076       -3163.399          44.000  
G22  23800632.554       48137.084         829.454          48.500  
G28  21520559.266       21381.804         384.678          47.250  
> 2018  4 22 11 22  0.8688020  0  7                     
G 1  23639285.301      132560.162        2014.085          47.750  
G 3  22234520.572      -52564.613        -792.343          38.750  
G11  24301255.365      127046.011        2021.987          44.250  
G17  21928384.941     -139983.603       -2309.992          51.250  
G19  22346745.491     -188427.484       -3163.866          43.750  
G22  23802480.403       48220.102         830.332          48.750  
G28  21522399.841       21420.240         384.927          47.500  
> 2018  4 22 11 22  0.9688020  0  7                     
G 1  23641155.430      132761.523        2013.420          47.750  
G 3  22236335.682      -52643.760        -791.938          39.000  
G11  24303124.780      127248.133        2021.274          44.500  
G17  21930172.699     -140214.611       -2310.464          51.250  
G19  22348517.981     -188743.881       -3164.680          44.250  
G22  23804327.945       48303.116         830.138          48.750  
G28  21524236.849       21458.672         383.926          47.750  
> 2018  4 22 11 22  1.0688020  0  7                     
G 1  23643025.330      132962.878        2014.008          48.000  
G 3  22238152.358      -52722.905        -791.233          38.500  
G11  24304995.347      127450.240        2020.792          44.500  
G17  21931960.568     -140445.624       -2310.123          51.250  
G19  22350289.995     -189060.284       -3163.941          44.250  
G22  23806176.345       48386.126         830.359          48.750  
G28  21526075.756       21497.096         384.316          47.500  
> 2018  4 22 11 22  1.1688020  0  7                     
G 1  23644896.177      133164.267        2013.627          47.750  
G 3  22239969.627      -52802.031        -791.768          38.750  
G11  24306865.159      127652.403        2021.435          44.500  
G17  21933748.009     -140676.598       -2310.094          51.250  
G19  22352061.947     -189376.649       -3163.362          44.500  
G22  23808023.164       48469.184         830.332          49.000  
G28  21527915.818       21535.570         384.214          47.750  
> 2018  4 22 11 22  1.2688020  0  7                     
G 1  23646766.039      133365.642        2014.014          48.000  
G 3  22241786.200      -52881.160        -791.309          38.750  
G11  24308735.557      127854.550        2021.557          44.750  
G17  21935536.169     -140907.586       -2309.920          51.000  
G19  22353832.819     -189693.015       -3163.114          44.500  
G22  23809870.399       48552.222         831.010          49.000  
G28  21529753.270       21574.040         384.984          47.750  
> 2018  4 22 11 22  1.3688020  0  7                     
G 1  23648634.921      133567.017        2013.198          48.000  
G 3  22243604.851      -52960.264        -790.970          38.500  
G11  24310605.396      128056.698        2021.070          44.500  
G17  21937323.642     -141138.579       -2310.608          51.250  
G19  22355605.111     -190009.410       -3164.213          44.250  
G22  23811717.582       48635.258         830.363          48.750  
G28  21531593.273       21612.502         383.998          47.750  
> 2018  4 22 11 22  1.4688020  0  7                     
G 1  23650504.371      133768.399        2014.337          48.000  
G 3  22245421.891      -53039.381        -791.235          38.500  
G11  24312475.162      128258.842        2020.649          44.250  
G17  21939111.045     -141369.563       -2310.135          51.000  
G19  22357375.185     -190325.770       -3164.509          44.250  
G22  23813565.377       48718.308         830.785          48.750  
G28  21533430.850       21650.984         384.274          47.750  
> 2018  4 22 11 22  1.5688020  0  7                     
G 1  23652373.861      133969.748        2013.633          47.750  
G 3  22247239.887      -53118.511        -791.556          38.750  
G11  24314345.662      128460.952        2020.102          44.500  
G17  21940898.591     -141600.573       -2310.320          51.250  
G19  22359146.808     -190642.184       -3164.219          44.250  
G22  23815412.439       48801.335         830.365          48.750  
G28  21535270.164       21689.436         384.589          47.500  
> 2018  4 22 11 22  1.6688020  0  7                     
G 1  23654243.862      134171.116        2013.705          48.000  
G 3  22249057.834      -53197.614        -790.420          38.500  
G11  24316215.795      128663.091        2021.818          44.500  
G17  21942685.571     -141831.573       -2309.898          51.000  
G19  22360919.200     -190958.555       -3163.964          44.250  
G22  23817260.116       48884.370         830.662          48.750  
G28  21537109.268       21727.900         385.390          47.500  
> 2018  4 22 11 22  1.7688020  0  7                     
G 1  23656115.020      134372.496        2013.649          48.000  
G 3  22250874.271      -53276.717        -789.617          38.250  
G11  24318085.797      128865.239        2020.984          44.000  
G17  21944473.465     -142062.545       -2309.764          51.000  
G19  22362690.458     -191274.928       -3164.253          44.500  
G22  23819107.729       48967.443         830.126          48.500  
G28  21538947.949       21766.407         384.564          47.500  
> 2018  4 22 11 22  1.8688020  0  7                     
G 1  23657984.719      134573.901        2014.110          47.500  
G 3  22252690.316      -53355.776        -789.121          38.750  
G11  24319955.861      129067.419        2022.695          44.000  
G17  21946260.764     -142293.501       -2309.385          51.000  
G19  22364461.079     -191591.257       -3163.103          43.750  
G22  23820954.997       49050.540         831.249          48.750  
G28  21540788.798       21804.926         385.633          47.500  
> 2018  4 22 11 22  1.9688020  0  7                     
G 1  23659854.275      134775.343        2014.815          47.750  
G 3  22254505.267      -53434.789        -790.402          38.500  
G11  24321827.128      129269.625        2022.839          44.250  
G17  21948048.141     -142524.421       -2309.015          51.000  
G19  22366232.046     -191907.580       -3163.335          44.250  
G22  23822801.579       49133.665         831.219          48.750  
G28  21542626.216       21843.482         385.570          47.500  
> 2018  4 22 11 22  2.0688020  0  7                     
G 1  23661724.131      134976.858        2015.099          47.750  
G 3  22256322.166      -53513.740        -790.418          38.750  
G11  24323696.710      129471.893        2022.609          44.250  
G17  21949836.654     -142755.276       -2308.909          51.250  
G19  22368003.950     -192223.801       -3162.711          44.250  
G22  23824648.309       49216.877         832.147          48.750  
G28  21544465.974       21882.113         386.036          47.750  
> 2018  4 22 11 22  2.1688020  0  7                     
G 1  23663594.215      135178.313        2015.406          48.000  
G 3  22258138.481      -53592.725        -788.223          38.500  
G11  24325566.023      129674.110        2023.478          44.500  
G17  21951624.358     -142986.186       -2308.838          51.250  
G19  22369774.690     -192540.088       -3162.497          44.000  
G22  23826496.162       49300.018         832.011          49.000  
G28  21546304.423       21920.681         386.122          47.750  
> 2018  4 22 11 22  2.2688020  0  7                     
G 1  23665463.983      135379.775        2014.915          48.000  
G 3  22259954.804      -53671.732        -790.066          38.500  
G11  24327436.515      129876.350        2022.694          44.000  
G17  21953412.734     -143217.072       -2308.762          51.000  
G19  22371546.629     -192856.387       -3162.930          44.500  
G22  23828343.451       49383.187         832.369          48.500  
G28  21548142.832       21959.294         386.321          47.500  
> 2018  4 22 11 22  2.3688020  0  7                     
G 1  23667334.370      135581.279        2014.634          47.750  
G 3  22261770.457      -53750.661        -789.558          38.750  
G11  24329306.470      130078.614        2023.553          44.000  
G17  21955199.911     -143447.919       -2308.750          51.000  
G19  22373319.214     -193172.606       -3163.098          43.750  
G22  23830190.960       49466.397         832.281          48.750  
G28  21549983.274       21997.923         386.362          47.250  
> 2018  4 22 11 22  2.4688020  0  7                     
G 1  23669204.337      135782.763        2015.136          48.000  
G 3  22263588.658      -53829.583        -788.826          39.000  
G11  24331176.555      130280.865        2023.437          44.000  
G17  21956987.244     -143678.791       -2309.374          51.250  
G19  22375088.569     -193488.861       -3162.980          44.500  
G22  23832038.830       49549.589         831.832          49.000  
G28  21551819.995       22036.557         385.853          47.500  
> 2018  4 22 11 22  2.5688020  0  7                     
G 1  23671074.678      135984.306        2015.524          48.000  
G 3  22265404.538      -53908.484        -787.421          38.500  
G11  24333046.501      130483.173        2024.089          44.000  
G17  21958775.432     -143909.605       -2308.154          51.000  
G19  22376860.475     -193805.062       -3162.286          44.000  
G22  23833886.653       49632.842         832.224          48.250  
G28  21553658.921       22075.224         386.708          47.750  
> 2018  4 22 11 22  2.6688020  0  7                     
G 1  23672944.660      136185.836        2015.447          47.500  
G 3  22267221.160      -53987.368        -787.069          39.000  
G11  24334916.285      130685.464        2023.123          44.000  
G17  21960563.032     -144140.422       -2308.060          51.000  
G19  22378631.804     -194121.258       -3161.811          44.000  
G22  23835732.965       49716.097         832.854          48.750  
G28  21555498.034       22113.918         387.045          47.250  
> 2018  4 22 11 22  2.7688020  0  7                     
G 1  23674814.212      136387.430        2016.553          48.000  
G 3  22269037.191      -54066.188        -787.657          38.750  
G11  24336786.215      130887.820        2024.194          44.000  
G17  21962351.199     -144371.188       -2306.862          51.250  
G19  22380402.399     -194437.424       -3161.637          44.500  
G22  23837580.433       49799.394         833.676          48.750  
G28  21557336.058       22152.662         388.387          47.500  
> 2018  4 22 11 22  2.8688020  0  7                     
G 1  23676684.671      136589.035        2016.236          48.000  
G 3  22270853.121      -54145.001        -788.592          38.750  
G11  24338656.238      131090.191        2024.632          44.000  
G17  21964138.929     -144601.932       -2307.581          51.250  
G19  22382174.738     -194753.545       -3161.744          44.500  
G22  23839427.592       49882.730         833.363          48.750  
G28  21559176.223       22191.421         387.594          47.750  
> 2018  4 22 11 22  2.9688020  0  7                     
G 1  23678554.723      136790.620        2016.350          48.000  
G 3  22272670.123      -54223.821        -787.377          38.750  
G11  24340526.864      131292.537        2023.255          44.250  
G17  21965926.825     -144832.703       -2307.549          51.000  
G19  22383946.441     -195069.692       -3161.510          44.500  
G22  23841275.259       49966.038         833.505          48.500  
G28  21561014.025       22230.168         388.109          47.750  
> 2018  4 22 11 22  3.0688020  0  7                     
G 1  23680424.115      136992.237        2015.401          47.750  
G 3  22274487.684      -54302.598        -787.999          38.750  
G11  24342397.948      131494.909        2023.452          43.500  
G17  21967714.566     -145063.438       -2307.817          51.000  
G19  22385717.741     -195385.827       -3161.176          44.250  
G22  23843122.875       50049.389         833.292          48.750  
G28  21562853.090       22268.938         387.469          47.500  
> 2018  4 22 11 22  3.1688020  0  7                     
G 1  23682293.556      137193.831        2015.817          48.000  
G 3  22276304.106      -54381.396        -787.495          38.750  
G11  24344267.486      131697.262        2023.068          44.250  
G17  21969502.008     -145294.201       -2307.736          51.250  
G19  22387487.778     -195701.972       -3161.439          44.250  
G22  23844971.286       50132.702         832.823          48.750  
G28  21564692.875       22307.694         387.904          48.000  
> 2018  4 22 11 22  3.2688020  0  7                     
G 1  23684163.421      137395.371        2015.920          48.000  
G 3  22278121.508      -54460.254        -788.531          38.750  
G11  24346138.465      131899.572        2023.406          44.250  
G17  21971289.731     -145525.003       -2307.811          51.250  
G19  22389259.138     -196018.154       -3161.630          44.250  
G22  23846819.359       50216.000         832.729          48.750  
G28  21566531.264       22346.425         387.956          47.750  
> 2018  4 22 11 22  3.3688020  0  7                     
G 1  23686033.369      137596.844        2014.785          48.000  
G 3  22279937.594      -54539.149        -788.469          39.250  
G11  24348008.718      132101.817        2022.512          44.000  
G17  21973077.095     -145755.884       -2309.129          51.250  
G19  22391031.177     -196334.417       -3163.654          44.250  
G22  23848667.882       50299.213         832.107          49.000  
G28  21568371.198       22385.065         386.376          47.750  
> 2018  4 22 11 22  3.4688020  0  7                     
G 1  23687903.205      137798.302        2014.809          48.000  
G 3  22281754.588      -54618.080        -788.225          39.250  
G11  24349879.280      132304.016        2021.680          44.000  
G17  21974864.574     -145986.771       -2309.129          51.250  
G19  22392801.403     -196650.694       -3162.621          44.500  
G22  23850514.591       50382.420         832.108          48.750  
G28  21570209.080       22423.712         386.310          47.750  
> 2018  4 22 11 22  3.5688020  0  7                     
G 1  23689772.967      137999.783        2015.201          48.000  
G 3  22283571.703      -54696.983        -789.093          38.500  
G11  24351748.725      132506.262        2022.873          44.250  
G17  21976652.424     -146217.641       -2308.245          51.250  
G19  22394574.481     -196966.941       -3162.669          44.250  
G22  23852360.024       50465.643         832.681          48.750  
G28  21572049.002       22462.366         386.890          47.500  
> 2018  4 22 11 22  3.6688020  0  7                     
G 1  23691643.444      138201.221        2014.811          48.000  
G 3  22285389.653      -54775.892        -788.778          39.000  
G11  24353619.600      132708.462        2022.410          44.000  
G17  21978439.945     -146448.556       -2309.002          51.250  
G19  22396344.929     -197283.230       -3161.924          44.500  
G22  23854207.280       50548.834         832.626          49.000  
G28  21573887.993       22500.988         386.989          47.500  
> 2018  4 22 11 22  3.7688020  0  7                     
G 1  23693513.121      138402.699        2015.473          48.000  
G 3  22287205.568      -54854.786        -789.009          38.750  
G11  24355488.857      132910.713        2023.318          44.000  
G17  21980228.417     -146679.412       -2308.431          51.500  
G19  22398117.737     -197599.485       -3161.973          44.500  
G22  23856054.680       50632.072         832.834          48.750  
G28  21575726.412       22539.673         386.832          47.750  
> 2018  4 22 11 22  3.8688020  0  7                     
G 1  23695382.733      138604.240        2016.218          48.000  
G 3  22289021.056      -54933.595        -786.350          39.000  
G11  24357358.410      133113.000        2023.478          44.000  
G17  21982015.978     -146910.225       -2307.597          51.250  
G19  22399889.934     -197915.678       -3161.563          44.250  
G22  23857902.544       50715.362         833.690          49.000  
G28  21577567.369       22578.396         387.631          47.750  
> 2018  4 22 11 22  3.9688020  0  7                     
G 1  23697252.462      138805.869        2016.947          48.000  
G 3  22290836.748      -55012.301        -786.474          38.750  
G11  24359228.034      133315.395        2024.648          43.750  
G17  21983803.351     -147140.941       -2306.952          51.250  
G19  22401660.959     -198231.779       -3160.811          44.000  
G22  23859750.582       50798.769         834.395          48.500  
G28  21579404.780       22617.232         388.278          47.500  
> 2018  4 22 11 22  4.0688020  0  7                     
G 1  23699123.143      139007.561        2016.808          47.750  
G 3  22292652.410      -55090.967        -787.286          38.750  
G11  24361096.778      133517.849        2025.171          43.750  
G17  21985590.935     -147371.593       -2306.238          51.000  
G19  22403433.552     -198547.810       -3161.174          44.250  
G22  23861598.674       50882.224         834.643          48.750  
G28  21581244.757       22656.129         389.027          47.500  
> 2018  4 22 11 22  4.1688020  0  7                     
G 1  23700992.702      139209.319        2018.830          47.750  
G 3  22294469.552      -55169.563        -785.501          38.750  
G11  24362967.137      133720.370        2025.304          43.750  
G17  21987378.357     -147602.172       -2305.412          51.250  
G19  22405204.067     -198863.779       -3159.554          44.250  
G22  23863445.720       50965.761         836.624          48.750  
G28  21583083.605       22695.094         390.401          47.250  
> 2018  4 22 11 22  4.2688020  0  7                     
G 1  23702863.164      139411.188        2019.267          47.750  
G 3  22296286.519      -55247.979        -782.509          39.250  
G11  24364837.171      133922.995        2026.038          43.750  
G17  21989166.132     -147832.639       -2304.542          51.250  
G19  22406974.856     -199179.630       -3159.657          44.250  
G22  23865292.398       51049.402         836.327          49.000  
G28  21584922.512       22734.190         390.930          47.500  
> 2018  4 22 11 22  4.3688020  0  7                     
G 1  23704732.714      139613.094        2018.685          48.000  
G 3  22298103.558      -55326.433        -784.287          38.500  
G11  24366706.761      134125.667        2026.958          43.750  
G17  21990954.122     -148063.079       -2304.733          51.250  
G19  22408746.730     -199495.452       -3158.516          44.500  
G22  23867139.784       51133.094         837.190          48.500  
G28  21586762.331       22773.320         391.788          47.500  
> 2018  4 22 11 22  4.4688020  0  7                     
G 1  23706603.918      139815.076        2020.654          47.500  
G 3  22299920.464      -55404.760        -782.657          38.500  
G11  24368575.637      134328.407        2027.604          43.000  
G17  21992741.854     -148293.433       -2302.800          51.000  
G19  22410518.377     -199811.168       -3156.866          44.000  
G22  23868987.144       51216.852         838.613          48.500  
G28  21588599.278       22812.523         392.906          47.250  
> 2018  4 22 11 22  4.5688020  0  7                     
G 1  23708473.938      140017.126        2021.123          47.750  
G 3  22301736.824      -55483.028        -782.938          38.250  
G11  24370446.278      134531.205        2027.920          43.500  
G17  21994529.796     -148523.726       -2302.854          51.000  
G19  22412289.272     -200126.854       -3156.287          44.250  
G22  23870834.764       51300.690         838.291          48.500  
G28  21590439.201       22851.794         392.736          47.500  
> 2018  4 22 11 22  4.6688020  0  7                     
G 1  23710344.590      140219.194        2020.505          47.750  
G 3  22303552.422      -55561.279        -781.951          39.000  
G11  24372316.546      134734.029        2028.615          43.750  
G17  21996317.433     -148754.009       -2303.366          51.500  
G19  22414060.284     -200442.494       -3156.788          43.750  
G22  23872682.853       51384.540         838.564          48.750  
G28  21592277.573       22891.080         392.759          47.500  
> 2018  4 22 11 22  4.7688020  0  7                     
G 1  23712214.992      140421.282        2021.367          47.500  
G 3  22305368.575      -55639.496        -781.087          38.750  
G11  24374188.081      134936.872        2027.522          43.500  
G17  21998105.330     -148984.260       -2302.870          51.000  
G19  22415831.560     -200758.145       -3157.103          44.250  
G22  23874530.556       51468.422         838.832          48.500  
G28  21594116.715       22930.394         392.594          47.250  
> 2018  4 22 11 22  4.8688020  0  7                     
G 1  23714084.642      140623.359        2020.696          47.750  
G 3  22307186.373      -55717.702        -782.843          39.500  
G11  24376057.860      135139.721        2028.225          43.750  
G17  21999893.051     -149214.512       -2302.980          51.500  
G19  22417602.484     -201073.769       -3156.762          43.750  
G22  23876378.657       51552.302         838.853          49.000  
G28  21595956.940       22969.728         392.802          47.250  
> 2018  4 22 11 22  4.9688020  0  7                     
G 1  23715954.616      140825.458        2021.239          48.000  
G 3  22309002.866      -55795.897        -781.670          39.250  
G11  24377927.720      135342.584        2028.894          43.750  
G17  22001680.282     -149444.748       -2302.616          51.500  
G19  22419374.624     -201389.395       -3156.458          44.750  
G22  23878225.533       51636.207         839.300          49.000  
G28  21597795.097       23009.071         392.918          47.750  
> 2018  4 22 11 22  5.0688020  0  7                     
G 1  23717824.815      141027.494        2020.030          47.750  
G 3  22310819.461      -55874.162        -783.628          39.000  
G11  24379797.670      135545.369        2027.790          43.500  
G17  22003467.986     -149675.045       -2303.198          51.500  
G19  22421146.331     -201705.064       -3157.479          44.250  
G22  23880073.024       51720.037         838.259          48.750  
G28  21599636.012       23048.347         392.429          47.750  
> 2018  4 22 11 22  5.1688020  0  7                     
G 1  23719693.997      141229.485        2019.378          48.000  
G 3  22312636.759      -55952.446        -783.711          38.250  
G11  24381667.764      135748.114        2026.891          43.750  
G17  22005255.511     -149905.394       -2304.282          51.000  
G19  22422918.748     -202020.793       -3157.413          44.000  
G22  23881919.784       51803.838         837.428          48.250  
G28  21601473.637       23087.603         392.146          47.750  
> 2018  4 22 11 22  5.2688020  0  7                     
G 1  23721563.716      141431.416        2019.915          47.500  
G 3  22314455.516      -56030.795        -782.762          38.750  
G11  24383538.434      135950.795        2026.773          43.500  
G17  22007043.439     -150135.806       -2303.944          51.000  
G19  22424690.403     -202336.589       -3158.005          43.750  
G22  23883767.684       51887.579         837.990          48.750  
G28  21603313.145       23126.773         392.652          47.250  
> 2018  4 22 11 22  5.3688020  0  7                     
G 1  23723433.639      141633.369        2020.035          48.000  
G 3  22316271.320      -56109.096        -782.436          39.500  
G11  24385409.153      136153.527        2027.989          43.500  
G17  22008831.286     -150366.166       -2303.399          51.500  
G19  22426460.745     -202652.328       -3157.114          44.250  
G22  23885615.542       51971.362         838.618          49.000  
G28  21605152.478       23166.006         392.746          47.500  
> 2018  4 22 11 22  5.4688020  0  7                     
G 1  23725303.718      141835.372        2020.392          47.750  
G 3  22318086.163      -56187.362        -781.620          39.250  
G11  24387279.085      136356.270        2027.609          43.500  
G17  22010618.639     -150596.509       -2303.364          51.500  
G19  22428233.650     -202968.050       -3157.348          44.250  
G22  23887463.451       52055.174         838.466          49.000  
G28  21606990.723       23205.259         392.728          47.750  
> 2018  4 22 11 22  5.5688020  0  7                     
G 1  23727173.770      142037.351        2019.530          47.750  
G 3  22319901.647      -56265.635        -782.975          38.750  
G11  24389149.067      136559.034        2027.660          43.500  
G17  22012406.795     -150826.849       -2303.258          51.500  
G19  22430005.020     -203283.776       -3157.826          44.500  
G22  23889310.810       52138.986         837.587          48.750  
G28  21608830.862       23244.516         392.367          47.750  
> 2018  4 22 11 22  5.6688020  0  7                     
G 1  23729043.670      142239.260        2019.054          48.000  
G 3  22321718.516      -56343.988        -783.634          39.500  
G11  24391019.062      136761.679        2027.023          43.750  
G17  22014194.300     -151057.280       -2304.600          51.500  
G19  22431776.411     -203599.588       -3157.779          44.250  
G22  23891158.012       52222.716         837.195          49.000  
G28  21610668.704       23283.692         391.536          47.750  
> 2018  4 22 11 22  5.7688020  0  7                     
G 1  23730913.718      142441.109        2018.767          47.750  
G 3  22323534.973      -56422.395        -783.950          39.250  
G11  24392888.616      136964.277        2026.271          43.750  
G17  22015982.515     -151287.766       -2305.097          51.500  
G19  22433546.530     -203915.437       -3158.698          44.500  
G22  23893005.650       52306.394         836.912          49.000  
G28  21612508.596       23322.819         391.488          47.750  
> 2018  4 22 11 22  5.8688020  0  7                     
G 1  23732783.897      142642.905        2018.350          48.000  
G 3  22325351.081      -56500.832        -785.085          39.000  
G11  24394758.907      137166.836        2025.858          43.500  
G17  22017770.586     -151518.298       -2305.236          51.500  
G19  22435317.656     -204231.353       -3159.481          44.000  
G22  23894853.369       52390.027         836.809          48.750  
G28  21614347.494       23361.891         390.722          47.750  
> 2018  4 22 11 22  5.9688020  0  7                     
G 1  23734654.057      142844.752        2018.860          47.750  
G 3  22327168.464      -56579.245        -784.891          38.500  
G11  24396629.430      137369.444        2027.243          43.000  
G17  22019558.148     -151748.775       -2304.516          51.250  
G19  22437089.420     -204547.215       -3157.971          44.500  
G22  23896700.711       52473.723         837.619          48.750  
G28  21616185.924       23401.039         392.483          47.500  
> 2018  4 22 11 22  6.0688020  0  7                     
G 1  23736524.166      143046.711        2019.738          48.000  
G 3  22328984.689      -56657.505        -783.073          39.000  
G11  24398499.450      137572.019        2010.684          43.500  
G17  22021346.683     -151979.149       -2303.826          51.250  
G19  22438859.593     -204862.959       -3158.261          44.500  
G22  23898547.546       52557.513         837.827          49.000  
G28  21618026.202       23440.272         392.230          47.750  
> 2018  4 22 11 22  6.1688020  0  7                     
G 1  23738394.052      143248.708        2020.237          48.000  
G 3  22330801.312      -56735.727        -782.774          39.000  
G11  24400369.663      137775.123        2088.750          43.750  
G17  22023134.596     -152209.483       -2303.178          51.250  
G19  22440631.292     -205178.676       -3157.314          44.500  
G22  23900395.040       52641.357         839.200          49.000  
G28  21619863.404       23479.561         393.953          47.750  
> 2018  4 22 11 22  6.2688020  0  7                     
G 1  23740264.186      143450.763        2020.598          48.000  
G 3  22332618.725      -56813.887        -781.344          39.000  
G11  24402241.096      137977.724        2029.206          43.500  
G17  22024922.448     -152439.751       -2302.886          51.250  
G19  22442401.888     -205494.318       -3156.852          44.500  
G22  23902243.516       52725.265         839.473          48.750  
G28  21621702.920       23518.920         393.489          47.750  
> 2018  4 22 11 22  6.3688020  0  7                     
G 1  23742134.374      143652.849        2020.056          47.500  
G 3  22334435.053      -56891.995        -780.856          39.250  
G11  24404110.648      138180.558        2027.911          43.000  
G17  22026710.111     -152669.990       -2303.066          51.250  
G19  22444174.919     -205809.937       -3157.233          44.000  
G22  23904091.224       52809.212         838.654          48.500  
G28  21623541.727       23558.303         392.806          47.250  
> 2018  4 22 11 22  6.4688020  0  7                     
G 1  23744004.411      143854.904        2020.066          48.000  
G 3  22336250.828      -56970.174        -782.131          39.500  
G11  24405981.181      138383.354        2027.050          43.500  
G17  22028497.889     -152900.268       -2303.137          51.500  
G19  22445945.548     -206125.583       -3157.736          44.000  
G22  23905938.075       52893.107         839.117          49.250  
G28  21625380.365       23597.661         393.126          47.750  
> 2018  4 22 11 22  6.5688020  0  7                     
G 1  23745874.176      144057.055        2024.396          47.750  
G 3  22338067.440      -57048.215        -778.294          37.750  
G11  24407852.043      138586.270        2032.259          43.250  
G17  22030285.985     -153130.432       -2298.905          50.750  
G19  22447717.112     -206441.142       -3152.366          44.500  
G22  23907785.856       52977.132         843.289          48.000  
G28  21627221.386       23637.133         397.386          47.500  
> 2018  4 22 11 22  6.6688020  0  7                     
G 1  23747744.459      144259.838        2029.656          46.750  
G 3  22339883.890      -57125.641        -773.168          38.750  
G11  24409722.150      138789.807        2037.160          42.250  
G17  22032074.241     -153359.977       -2293.810          50.750  
G19  22449489.232     -206756.041       -3147.566          42.500  
G22  23909633.547       53061.773         848.459          48.500  
G28  21629058.885       23677.234         402.571          46.500  
> 2018  4 22 11 22  6.7688020  0  7                     
G 1  23749614.490      144462.782        2029.033          47.750  
G 3  22341701.246      -57202.911        -774.708          38.750  
G11  24411592.805      138993.498        2036.010          43.250  
G17  22033861.647     -153589.357       -2294.848          51.500  
G19  22451261.673     -207070.817       -3148.942          44.250  
G22  23911480.792       53146.584         847.057          48.750  
G28  21630899.143       23717.490         401.949          47.750  
> 2018  4 22 11 22  6.8688020  0  7                     
G 1  23751484.199      144665.354        2024.065          47.500  
G 3  22343519.357      -57280.488        -777.548          38.500  
G11  24413463.190      139196.819        2031.681          43.000  
G17  22035650.121     -153819.103       -2299.126          50.750  
G19  22453032.788     -207385.938       -3153.663          44.000  
G22  23913329.054       53231.029         842.972          48.250  
G28  21632737.927       23757.379         396.754          47.000  
> 2018  4 22 11 22  6.9688020  0  7                     
G 1  23753354.578      144867.771        2025.732          47.250  
G 3  22345336.388      -57358.253        -776.811          39.250  
G11  24415333.728      139399.985        2033.110          43.000  
G17  22037437.464     -154049.017       -2297.845          51.500  
G19  22454804.867     -207701.224       -3150.690          43.750  
G22  23915176.761       53315.315         844.086          49.000  
G28  21634576.382       23797.118         398.706          47.250  
> 2018  4 22 11 22  7.0688020  0  7                     
G 1  23755224.128      145070.291        2024.090          48.000  
G 3  22347151.606      -57435.934        -777.032          38.500  
G11  24417204.026      139603.251        2031.603          43.500  
G17  22039225.673     -154278.818       -2298.994          51.500  
G19  22456575.585     -208016.406       -3152.802          44.250  
G22  23917024.580       53399.717         843.124          49.000  
G28  21636416.688       23836.970         397.337          47.750  
> 2018  4 22 11 22  7.1688020  0  7                     
G 1  23757093.848      145272.537        2020.732          47.750  
G 3  22348967.950      -57513.836        -779.994          39.000  
G11  24419073.823      139806.254        2027.976          43.000  
G17  22041013.205     -154508.885       -2302.227          51.500  
G19  22458346.808     -208331.860       -3157.020          44.500  
G22  23918872.732       53483.857         840.422          48.750  
G28  21638254.195       23876.550         394.304          47.500  
> 2018  4 22 11 22  7.2688020  0  7                     
G 1  23758963.181      145474.546        2018.666          47.750  
G 3  22350786.010      -57591.997        -781.372          39.000  
G11  24420942.959      140009.029        2026.862          43.250  
G17  22042800.898     -154739.201       -2305.129          51.250  
G19  22460117.656     -208647.530       -3157.952          44.000  
G22  23920720.536       53567.752         837.698          48.500  
G28  21640094.360       23915.903         392.726          47.750  
> 2018  4 22 11 22  7.3688020  0  7                     
G 1  23760833.715      145676.313        2017.579          47.250  
G 3  22352602.586      -57670.397        -784.292          38.750  
G11  24422812.728      140211.528        2024.209          42.500  
G17  22044588.614     -154969.755       -2305.926          51.250  
G19  22461891.217     -208963.469       -3159.710          43.750  
G22  23922567.366       53651.404         836.291          48.750  
G28  21641932.644       23955.014         391.340          47.000  
> 2018  4 22 11 22  7.4688020  0  7                     
G 1  23762703.535      145878.102        2019.286          47.250  
G 3  22354419.205      -57748.752        -783.749          39.250  
G11  24424682.622      140414.095        2026.785          42.750  
G17  22046375.574     -155200.273       -2304.425          51.250  
G19  22463661.784     -209279.346       -3157.921          44.250  
G22  23924414.509       53735.095         837.873          49.000  
G28  21643770.890       23994.156         392.878          47.500  
> 2018  4 22 11 22  7.5688020  0  7                     
G 1  23764573.135      146080.050        2019.651          47.750  
G 3  22356235.939      -57826.936        -781.030          39.000  
G11  24426553.198      140616.793        2027.738          43.250  
G17  22048163.532     -155430.647       -2303.677          51.750  
G19  22465432.461     -209595.098       -3157.683          44.500  
G22  23926262.162       53818.933         838.578          49.250  
G28  21645610.570       24033.449         393.536          47.750  
> 2018  4 22 11 22  7.6688020  0  7                     
G 1  23766443.057      146282.056        2021.515          48.000  
G 3  22358052.454      -57905.099        -781.049          39.000  
G11  24428422.212      140819.537        2029.277          43.250  
G17  22049951.854     -155660.951       -2301.854          51.750  
G19  22467204.416     -209910.783       -3156.108          44.750  
G22  23928110.655       53902.848         840.401          49.000  
G28  21647448.594       24072.806         394.978          47.750  
> 2018  4 22 11 22  7.7688020  0  7                     
G 1  23768312.853      146484.401        2024.827          47.750  
G 3  22359870.165      -57982.872        -776.235          39.000  
G11  24430292.593      141022.635        2032.586          43.000  
G17  22051739.710     -155890.926       -2298.430          51.250  
G19  22468975.615     -210226.147       -3154.096          43.750  
G22  23929958.477       53987.101         844.277          48.750  
G28  21649288.904       24112.509         397.962          47.500  
> 2018  4 22 11 22  7.8688020  0  7                     
G 1  23770183.416      146686.856        2024.125          48.000  
G 3  22361686.854      -58060.554        -777.264          39.250  
G11  24432163.402      141225.839        2030.904          43.250  
G17  22053528.003     -156120.791       -2299.924          51.750  
G19  22470748.039     -210541.377       -3152.637          44.250  
G22  23931806.400       54071.464         842.539          49.000  
G28  21651127.089       24152.338         397.324          47.500  
> 2018  4 22 11 22  7.9688020  0  7                     
G 1  23772053.658      146889.059        2020.546          47.250  
G 3  22363503.532      -58138.478        -782.323          38.750  
G11  24434033.570      141428.781        2027.168          42.500  
G17  22055315.511     -156350.904       -2302.923          51.000  
G19  22472521.550     -210856.864       -3156.366          44.000  
G22  23933653.936       54155.570         839.511          48.500  
G28  21652966.860       24191.903         393.431          47.250  
> 2018  4 22 11 22  8.0688020  0  7                     
G 1  23773923.587      147090.884        2017.798          47.250  
G 3  22365319.460      -58216.765        -784.245          38.750  
G11  24435903.069      141631.361        2025.195          42.750  
G17  22057103.078     -156581.386       -2306.062          51.500  
G19  22474293.154     -211172.737       -3160.474          43.750  
G22  23935501.962       54239.321         837.262          49.000  
G28  21654806.528       24231.103         391.572          47.500  
> 2018  4 22 11 22  8.1688020  0  7                     
G 1  23775793.938      147292.601        2016.651          47.750  
G 3  22367135.556      -58295.165        -784.195          38.750  
G11  24437773.880      141833.818        2023.950          43.000  
G17  22058891.148     -156811.989       -2306.680          51.750  
G19  22476063.826     -211488.686       -3160.721          44.250  
G22  23937349.138       54322.948         835.757          49.000  
G28  21656645.157       24270.188         389.998          47.750  
