     3.02           OBSERVATION DATA    M: Mixed            RINEX VERSION / TYPE
GNSS-SDRLIB v1.1                        20180429 102920 UTC PGM / RUN BY / DATE 
                                                            MARKER NAME         
                                                            MARKER NUMBER       
                                                            MARKER TYPE         
                                                            OBSERVER / AGENCY   
GNSS-SDRLIB         GNSS-SDRLIB         1.1                 REC # / TYPE / VERS 
                                                            ANT # / TYPE        
        0.0000        0.0000        0.0000                  APPROX POSITION XYZ 
        0.0000        0.0000        0.0000                  ANTENNA: DELTA H/E/N
G    4 C1C L1C D1C S1C                                      SYS / # / OBS TYPES 
R    4 C1C L1C D1C S1C                                      SYS / # / OBS TYPES 
E    4 C1C L1C D1C S1C                                      SYS / # / OBS TYPES 
J    4 C1C L1C D1C S1C                                      SYS / # / OBS TYPES 
S    4 C1C L1C D1C S1C                                      SYS / # / OBS TYPES 
C    4 C1C L1C D1C S1C                                      SYS / # / OBS TYPES 
  1970     1     1     0     0    0.0000000     GPS         TIME OF FIRST OBS   
  1970     1     1     0     0    0.0000000     GPS         TIME OF LAST OBS    
G                                                           SYS / PHASE SHIFT   
R                                                           SYS / PHASE SHIFT   
E                                                           SYS / PHASE SHIFT   
J                                                           SYS / PHASE SHIFT   
S                                                           SYS / PHASE SHIFT   
C                                                           SYS / PHASE SHIFT   
  0                                                         GLONASS SLOT / FRQ #
 C1C    0.000 C1P    0.000 C2C    0.000 C2P    0.000        GLONASS COD/PHS/BIS 
                                                            END OF HEADER       
> 2018  4 22 11 21  6.0688020  0  1                     
G17  20625056.081      -25377.335       -2324.071          51.750  
> 2018  4 22 11 21  6.0688020  0  2                     
G17  21059048.156      -25373.970       -2324.050          51.750  
G28  20625059.329        3649.699         352.531          48.250  
> 2018  4 22 11 21  6.0688020  0  3                     
G17  21059048.156      -25373.970       -2324.050          51.750  
G22  22900473.522        8513.292         785.693          46.250  
G28  20625059.329        3649.699         352.531          48.250  
> 2018  4 22 11 21  6.0688020  0  4                     
G 1  22724837.668       22286.425        1994.441          48.750  
G17  21059048.156      -25373.970       -2324.050          51.750  
G22  22900473.522        8513.473         800.926          46.250  
G28  20625059.329        3649.699         352.531          48.250  
> 2018  4 22 11 21  6.0688020  0  5                     
G 1  22724837.668       22277.333        2004.250          49.000  
G11  23386715.862       22374.522        2029.168          44.250  
G17  21059048.156      -25373.970       -2324.050          51.750  
G22  22900473.522        8513.473         800.926          46.250  
G28  20625059.329        3649.699         352.531          48.250  
> 2018  4 22 11 21  6.1688020  0  5                     
G 1  22726725.705       22478.287        2004.207          49.000  
G11  23388604.408       22575.709        2013.425          44.500  
G17  21060853.711      -25606.304       -2323.821          51.750  
G22  22902337.529        8593.537         801.390          46.250  
G28  20626915.768        3684.926         353.090          48.250  
> 2018  4 22 11 21  6.2688020  0  5                     
G 1  22728595.289       22678.785        2005.248          49.000  
G11  23390475.317       22777.106        2014.181          44.500  
G17  21062641.690      -25838.593       -2322.594          51.750  
G22  22904184.861        8673.645         801.434          46.500  
G28  20628755.324        3720.228         353.018          48.250  
> 2018  4 22 11 21  6.3688020  0  5                     
G 1  22730465.288       22879.386        2006.155          48.750  
G11  23392345.329       22978.608        2015.185          44.250  
G17  21064429.015      -26070.768       -2322.538          51.750  
G22  22906032.101        8753.876         802.141          46.500  
G28  20630591.254        3755.632         354.289          48.250  
> 2018  4 22 11 21  6.4688020  0  5                     
G 1  22732335.789       23080.039        2007.373          49.000  
G11  23394215.008       23180.156        2016.015          44.000  
G17  21066216.677      -26302.912       -2320.949          51.500  
G22  22907879.126        8834.137         803.287          46.250  
G28  20632430.298        3791.086         354.427          48.250  
> 2018  4 22 11 21  6.5688020  0  5                     
G 1  22734205.556       23280.733        2006.998          49.000  
G11  23396084.251       23381.748        2015.719          44.500  
G17  21068004.730      -26534.998       -2320.750          51.750  
G22  22909725.159        8914.461         803.119          46.250  
G28  20634269.761        3826.590         355.526          48.500  
> 2018  4 22 11 21  6.6688020  0  5                     
G 1  22736075.329       23481.452        2008.092          49.000  
G11  23397955.218       23583.389        2017.197          44.250  
G17  21069792.219      -26767.055       -2320.367          51.750  
G22  22911571.929        8994.813         804.244          46.500  
G28  20636106.888        3862.129         356.043          48.250  
> 2018  4 22 11 21  6.7688020  0  5                     
G 1  22737945.595       23682.285        2008.752          49.000  
G11  23399825.489       23785.110        2017.705          44.500  
G17  21071579.677      -26999.001       -2319.374          51.500  
G22  22913419.683        9075.279         805.768          46.500  
G28  20637946.709        3897.775         356.693          48.500  
> 2018  4 22 11 21  6.8688020  0  5                     
G 1  22739815.353       23883.157        2008.243          49.000  
G11  23401695.321       23986.885        2017.244          44.500  
G17  21073366.696      -27230.910       -2319.281          51.750  
G22  22915266.659        9155.792         805.831          46.750  
G28  20639784.201        3933.458         356.827          48.250  
> 2018  4 22 11 21  6.9688020  0  5                     
G 1  22741684.535       24084.082        2009.629          49.000  
G11  23403565.631       24188.708        2018.479          44.250  
G17  21075154.431      -27462.763       -2318.360          51.500  
G22  22917113.365        9236.361         805.645          46.500  
G28  20641621.658        3969.201         357.887          48.250  
> 2018  4 22 11 21  7.0688020  0  5                     
G 1  22743554.228       24285.018        2009.248          48.750  
G11  23405436.392       24390.540        2018.422          44.000  
G17  21076941.931      -27694.608       -2318.377          51.750  
G22  22918960.879        9316.945         806.587          46.500  
G28  20643461.128        4004.966         358.108          48.250  
> 2018  4 22 11 21  7.1688020  0  5                     
G 1  22745423.854       24485.975        2009.031          49.000  
G11  23407306.018       24592.402        2019.136          44.000  
G17  21078729.661      -27926.438       -2319.002          51.750  
G22  22920808.291        9397.535         806.118          46.250  
G28  20645298.489        4040.757         357.853          48.250  
> 2018  4 22 11 21  7.2688020  0  5                     
G 1  22747294.017       24686.898        2008.838          49.000  
G11  23409176.034       24794.214        2017.668          44.000  
G17  21080517.331      -28158.285       -2318.177          51.750  
G22  22922655.600        9478.120         804.978          46.250  
G28  20647136.983        4076.517         357.234          48.250  
> 2018  4 22 11 21  7.3688020  0  5                     
G 1  22749163.540       24887.797        2008.445          49.250  
G11  23411046.454       24996.014        2017.078          44.000  
G17  21082304.214      -28390.162       -2319.298          51.750  
G22  22924502.290        9558.680         806.458          46.500  
G28  20648976.553        4112.258         357.427          48.250  
> 2018  4 22 11 21  7.4688020  0  5                     
G 1  22751033.596       25088.705        2009.955          49.000  
G11  23412916.641       25197.835        2019.300          44.000  
G17  21084091.554      -28622.017       -2318.090          51.750  
G22  22926347.292        9639.239         806.158          46.250  
G28  20650812.497        4148.024         358.454          47.750  
> 2018  4 22 11 21  7.5688020  0  5                     
G 1  22752903.706       25289.666        2009.506          49.000  
G11  23414785.623       25399.687        2018.256          44.250  
G17  21085879.122      -28853.845       -2318.117          51.750  
G22  22928194.492        9719.860         806.344          46.250  
G28  20652651.563        4183.818         357.742          48.250  
> 2018  4 22 11 21  7.6688020  0  5                     
G 1  22754773.830       25490.609        2009.257          49.000  
G11  23416655.738       25601.511        2019.006          44.250  
G17  21087666.301      -29085.684       -2318.766          51.750  
G22  22930041.906        9800.465         805.675          46.500  
G28  20654490.526        4219.605         358.290          48.000  
> 2018  4 22 11 21  7.7688020  0  5                     
G 1  22756644.482       25691.510        2009.767          48.750  
G11  23418525.479       25803.314        2018.077          44.250  
G17  21089453.667      -29317.553       -2318.947          51.750  
G22  22931889.704        9881.045         806.103          46.500  
G28  20656327.488        4255.374         357.647          48.250  
> 2018  4 22 11 21  7.8688020  0  5                     
G 1  22758514.349       25892.393        2008.582          49.000  
G11  23420395.315       26005.095        2017.138          44.000  
G17  21091240.593      -29549.434       -2319.124          51.750  
G22  22933736.458        9961.603         805.479          46.250  
G28  20658166.655        4291.111         357.229          48.250  
> 2018  4 22 11 21  7.9688020  0  5                     
G 1  22760384.729       26093.272        2009.057          48.750  
G11  23422266.831       26206.863        2017.358          44.000  
G17  21093028.443      -29781.330       -2318.992          51.750  
G22  22935583.661       10042.153         805.728          46.500  
G28  20660005.059        4326.867         357.862          48.250  
> 2018  4 22 11 21  8.0688020  0  5                     
G 1  22762254.326       26294.132        2008.268          49.000  
G11  23424136.727       26408.652        2017.625          44.250  
G17  21094815.865      -30013.230       -2319.704          52.000  
G22  22937430.229       10122.709         805.140          46.500  
G28  20661843.755        4362.602         357.526          48.250  
> 2018  4 22 11 21  8.1688020  0  5                     
G 1  22764123.757       26494.988        2009.110          49.000  
G11  23426006.409       26610.393        2017.201          44.000  
G17  21096603.073      -30245.143       -2318.799          52.000  
G22  22939277.585       10203.244         806.146          46.250  
G28  20663684.123        4398.331         358.255          48.000  
> 2018  4 22 11 21  8.2688020  0  5                     
G 1  22765993.013       26695.863        2009.191          49.000  
G11  23427876.957       26812.154        2018.019          44.250  
G17  21098390.663      -30477.046       -2318.541          51.750  
G22  22941125.261       10283.807         806.486          46.500  
G28  20665520.107        4434.078         358.233          48.000  
> 2018  4 22 11 21  8.3688020  0  5                     
G 1  22767862.617       26896.782        2009.419          49.000  
G11  23429745.862       27013.984        2018.597          44.250  
G17  21100178.243      -30708.894       -2318.631          51.750  
G22  22942972.867       10364.430         806.580          46.500  
G28  20667358.087        4469.882         358.941          48.250  
> 2018  4 22 11 21  8.4688020  0  5                     
G 1  22769732.020       27097.659        2009.039          49.000  
G11  23431615.419       27215.758        2017.953          44.500  
G17  21101965.987      -30940.794       -2318.691          51.750  
G22  22944819.260       10445.004         806.118          46.500  
G28  20669197.310        4505.646         358.399          48.250  
> 2018  4 22 11 21  8.5688020  0  5                     
G 1  22771602.108       27298.573        2009.935          49.250  
G11  23433485.607       27417.565        2018.375          44.000  
G17  21103753.333      -31172.643       -2318.480          51.750  
G22  22946666.359       10525.608         806.482          46.000  
G28  20671034.299        4541.447         358.431          48.250  
> 2018  4 22 11 21  8.6688020  0  5                     
G 1  22773471.200       27499.481        2009.154          49.000  
G11  23435356.303       27619.384        2018.627          44.250  
G17  21105541.354      -31404.484       -2318.703          51.750  
G22  22948511.841       10606.250         806.719          46.250  
G28  20672874.554        4577.263         357.466          48.000  
> 2018  4 22 11 21  8.7688020  0  5                     
G 1  22775340.553       27700.355        2008.619          49.000  
G11  23437227.526       27821.126        2017.118          44.500  
G17  21107328.496      -31636.393       -2319.668          51.750  
G22  22950358.671       10686.810         805.309          46.250  
G28  20674712.399        4613.019         357.392          48.250  
> 2018  4 22 11 21  8.8688020  0  5                     
G 1  22777210.733       27901.166        2008.618          49.000  
G11  23439096.911       28022.847        2017.674          44.500  
G17  21109115.961      -31868.331       -2319.731          52.000  
G22  22952206.193       10767.344         805.297          46.500  
G28  20676550.136        4648.744         356.609          48.500  
> 2018  4 22 11 21  8.9688020  0  5                     
G 1  22779080.585       28101.999        2008.170          49.000  
G11  23440967.106       28224.578        2017.248          44.250  
G17  21110903.315      -32100.278       -2319.372          51.750  
G22  22954053.392       10847.879         805.315          46.250  
G28  20678389.777        4684.470         357.133          48.000  
> 2018  4 22 11 21  9.0688020  0  5                     
G 1  22780950.745       28302.845        2008.326          49.000  
G11  23442836.532       28426.322        2016.641          44.250  
G17  21112690.551      -32332.184       -2319.268          51.750  
G22  22955900.392       10928.467         805.439          46.250  
G28  20680227.129        4720.249         357.962          47.750  
> 2018  4 22 11 21  9.1688020  0  5                     
G 1  22782820.938       28503.699        2008.497          48.750  
G11  23444705.667       28628.070        2016.725          44.000  
G17  21114478.434      -32564.091       -2319.132          51.750  
G22  22957746.462       11009.030         805.992          46.250  
G28  20682064.871        4756.013         357.764          48.000  
> 2018  4 22 11 21  9.2688020  0  5                     
G 1  22784690.436       28704.537        2008.200          48.750  
G11  23446576.055       28829.821        2017.120          44.250  
G17  21116265.730      -32796.010       -2319.427          51.750  
G22  22959592.614       11089.600         805.147          46.250  
G28  20683904.957        4791.773         357.076          48.000  
> 2018  4 22 11 21  9.3688020  0  5                     
G 1  22786559.868       28905.355        2008.816          49.000  
G11  23448445.833       29031.521        2016.823          44.250  
G17  21118053.131      -33027.965       -2319.608          51.750  
G22  22961440.041       11170.140         805.952          46.250  
G28  20685741.524        4827.513         357.330          48.250  
> 2018  4 22 11 21  9.4688020  0  5                     
G 1  22788429.523       29106.182        2008.110          49.250  
G11  23450316.165       29233.231        2017.618          44.250  
G17  21119841.141      -33259.882       -2318.882          51.750  
G22  22963288.390       11250.702         805.615          46.500  
G28  20687580.637        4863.271         358.321          48.000  
> 2018  4 22 11 21  9.5688020  0  5                     
G 1  22790299.308       29306.963        2008.370          49.000  
G11  23452186.038       29434.901        2017.115          44.000  
G17  21121628.405      -33491.876       -2319.830          52.000  
G22  22965135.868       11331.224         805.243          46.750  
G28  20689418.523        4898.978         357.521          48.000  
> 2018  4 22 11 21  9.6688020  0  5                     
G 1  22792169.184       29507.643        2006.518          49.000  
G11  23454056.389       29636.490        2015.442          44.000  
G17  21123416.315      -33723.942       -2321.203          51.750  
G22  22966982.605       11411.655         803.066          46.250  
G28  20691255.837        4934.603         355.636          47.750  
> 2018  4 22 11 21  9.7688020  0  5                     
G 1  22794038.331       29708.294        2006.222          49.000  
G11  23455926.129       29838.024        2014.813          44.500  
G17  21125203.465      -33956.061       -2321.570          52.000  
G22  22968829.593       11492.048         803.583          46.250  
G28  20693095.180        4970.193         355.468          48.000  
> 2018  4 22 11 21  9.8688020  0  5                     
G 1  22795908.131       29908.916        2006.500          49.250  
G11  23457795.883       30039.554        2015.343          44.750  
G17  21126991.001      -34188.193       -2321.931          51.750  
G22  22970677.162       11572.410         803.894          46.500  
G28  20694933.157        5005.765         355.308          48.000  
> 2018  4 22 11 21  9.9688020  0  5                     
G 1  22797778.093       30109.490        2005.841          48.750  
G11  23459666.773       30241.012        2014.781          44.250  
G17  21128778.469      -34420.381       -2322.124          51.750  
G22  22972523.738       11652.752         803.475          45.750  
G28  20696770.785        5041.285         354.953          47.750  
> 2018  4 22 11 21 10.0688020  0  5                     
G 1  22799648.125       30310.011        2004.787          49.000  
G11  23461537.042       30442.419        2014.040          44.250  
G17  21130565.355      -34652.597       -2322.708          52.000  
G22  22974370.158       11733.027         803.146          46.500  
G28  20698610.733        5076.767         354.366          48.000  
> 2018  4 22 11 21 10.1688020  0  5                     
G 1  22801518.251       30510.496        2004.753          49.000  
G11  23463406.302       30643.802        2013.866          44.000  
G17  21132353.249      -34884.880       -2323.036          51.750  
G22  22976217.266       11813.271         802.816          46.250  
G28  20700447.871        5112.205         354.382          48.000  
> 2018  4 22 11 21 10.2688020  0  5                     
G 1  22803387.873       30710.909        2003.561          49.000  
G11  23465276.241       30845.098        2012.737          44.000  
G17  21134140.522      -35117.219       -2324.403          51.750  
G22  22978064.172       11893.445         801.288          46.500  
G28  20702287.017        5147.583         353.019          48.000  
> 2018  4 22 11 21 10.3688020  0  5                     
G 1  22805257.886       30911.309        2004.075          49.000  
G11  23467145.999       31046.403        2013.711          44.250  
G17  21135927.743      -35349.570       -2323.154          52.000  
G22  22979911.321       11973.628         802.229          46.500  
G28  20704125.560        5182.948         354.375          48.250  
> 2018  4 22 11 21 10.4688020  0  5                     
G 1  22807127.430       31111.756        2004.367          49.000  
G11  23469015.483       31247.741        2014.223          44.000  
G17  21137715.338      -35581.876       -2323.392          51.750  
G22  22981757.141       12053.833         802.079          46.250  
G28  20705962.600        5218.373         354.089          48.250  
> 2018  4 22 11 21 10.5688020  0  5                     
G 1  22808996.939       31312.187        2004.339          49.250  
G11  23470884.303       31449.066        2013.248          44.250  
G17  21139502.590      -35814.202       -2323.054          52.000  
G22  22983603.176       12134.043         801.922          46.500  
G28  20707801.619        5253.776         354.040          48.000  
> 2018  4 22 11 21 10.6688020  0  5                     
G 1  22810866.731       31512.656        2005.032          49.000  
G11  23472754.942       31650.410        2014.649          44.250  
G17  21141290.864      -36046.493       -2322.976          52.000  
G22  22985450.034       12214.291         803.032          46.500  
G28  20709639.669        5289.207         355.158          48.000  
> 2018  4 22 11 21 10.7688020  0  5                     
G 1  22812736.345       31713.124        2004.543          49.250  
G11  23474624.803       31851.770        2013.224          44.250  
G17  21143077.829      -36278.785       -2323.100          51.750  
G22  22987296.851       12294.528         802.236          46.250  
G28  20711476.973        5324.659         354.330          48.250  
> 2018  4 22 11 21 10.8688020  0  5                     
G 1  22814606.240       31913.607        2005.432          49.250  
G11  23476494.775       32053.129        2013.222          44.500  
G17  21144865.187      -36511.044       -2322.811          52.000  
G22  22989144.366       12374.807         802.756          46.250  
G28  20713317.016        5360.118         354.437          48.000  
> 2018  4 22 11 21 10.9688020  0  5                     
G 1  22816476.114       32114.102        2004.453          49.250  
G11  23478365.501       32254.537        2013.908          44.000  
G17  21146652.716      -36743.280       -2322.672          51.750  
G22  22990991.569       12455.101         802.594          46.500  
G28  20715154.033        5395.622         355.307          48.000  
> 2018  4 22 11 21 11.0688020  0  5                     
G 1  22818346.118       32314.590        2004.909          49.250  
G11  23480234.056       32455.893        2013.194          44.250  
G17  21148439.421      -36975.552       -2322.855          52.000  
G22  22992836.553       12535.376         803.000          46.250  
G28  20716991.936        5431.091         354.446          48.000  
> 2018  4 22 11 21 11.1688020  0  5                     
G 1  22820215.752       32515.088        2005.204          49.250  
G11  23482102.704       32657.287        2013.714          43.750  
G17  21150226.796      -37207.797       -2322.493          52.000  
G22  22994683.484       12615.659         802.861          46.500  
G28  20718832.239        5466.587         354.520          47.750  
> 2018  4 22 11 21 11.2688020  0  5                     
G 1  22822084.890       32715.607        2005.409          49.000  
G11  23483972.902       32858.691        2014.806          43.750  
G17  21152013.773      -37440.026       -2322.549          51.750  
G22  22996530.863       12695.988         803.886          46.250  
G28  20720668.054        5502.111         355.370          47.750  
> 2018  4 22 11 21 11.3688020  0  5                     
G 1  22823954.427       32916.111        2005.417          49.000  
G11  23485841.656       33060.090        2014.019          44.000  
G17  21153801.493      -37672.271       -2322.371          51.750  
G22  22998378.348       12776.288         802.860          46.250  
G28  20722506.562        5537.621         354.680          48.000  
> 2018  4 22 11 21 11.4688020  0  5                     
G 1  22825824.402       33116.587        2004.853          49.000  
G11  23487711.389       33261.458        2013.358          44.000  
G17  21155588.866      -37904.538       -2322.703          51.750  
G22  23000225.975       12856.576         803.103          46.500  
G28  20724346.195        5573.106         354.881          47.750  
> 2018  4 22 11 21 11.5688020  0  5                     
G 1  22827694.919       33317.073        2005.080          48.750  
G11  23489581.808       33462.822        2014.027          43.750  
G17  21157376.215      -38136.794       -2322.188          51.750  
G22  23002072.118       12936.862         803.979          46.500  
G28  20726183.633        5608.619         355.649          48.000  
> 2018  4 22 11 21 11.6688020  0  5                     
G 1  22829563.959       33517.567        2005.538          49.000  
G11  23491451.117       33664.198        2014.383          44.000  
G17  21159163.893      -38369.039       -2322.033          52.000  
G22  23003919.055       13017.178         803.039          46.250  
G28  20728023.166        5644.115         355.356          47.750  
> 2018  4 22 11 21 11.7688020  0  5                     
G 1  22831433.194       33718.066        2005.246          49.000  
G11  23493321.413       33865.604        2014.562          43.750  
G17  21160951.185      -38601.283       -2322.265          52.000  
G22  23005766.011       13097.500         803.824          46.500  
G28  20729860.589        5679.647         355.499          48.000  
> 2018  4 22 11 21 11.8688020  0  5                     
G 1  22833302.903       33918.573        2005.514          49.250  
G11  23495191.289       34066.995        2014.886          44.000  
G17  21162738.890      -38833.510       -2321.953          52.000  
G22  23007613.170       13177.832         803.882          46.500  
G28  20731698.617        5715.200         356.278          48.000  
> 2018  4 22 11 21 11.9688020  0  5                     
G 1  22835172.662       34119.137        2005.856          49.000  
G11  23497061.039       34268.457        2015.272          44.250  
G17  21164526.321      -39065.679       -2321.271          52.000  
G22  23009459.781       13258.233         804.690          46.250  
G28  20733538.812        5750.792         356.347          48.000  
> 2018  4 22 11 21 12.0688020  0  5                     
G 1  22837042.710       34319.744        2007.153          49.250  
G11  23498931.735       34469.949        2016.587          44.250  
G17  21166313.637      -39297.821       -2320.870          52.000  
G22  23011306.784       13338.605         787.299          46.250  
G28  20735375.924        5786.438         357.899          48.000  
> 2018  4 22 11 21 12.1688020  0  5                     
G 1  22838912.637       34520.503        2007.888          49.250  
G11  23500801.947       34671.579        2016.826          44.250  
G17  21168101.637      -39529.791       -2319.609          52.000  
G22  23013152.797       13419.172         801.852          46.250  
G28  20737215.252        5822.230         358.789          48.000  
> 2018  4 22 11 21 12.2688020  0  5                     
G 1  22840782.896       34721.238        2007.538          49.250  
G11  23502672.475       34873.213        2015.774          44.250  
G17  21169888.838      -39761.796       -2320.542          52.000  
G22  23015000.269       13499.834         806.106          46.250  
G28  20739053.621        5858.021         357.603          48.000  
> 2018  4 22 11 21 12.3688020  0  5                     
G 1  22842653.497       34922.094        2009.570          49.000  
G11  23504542.743       35074.939        2017.084          44.000  
G17  21171676.436      -39993.688       -2318.571          52.000  
G22  23016846.579       13580.525         807.390          46.250  
G28  20740890.225        5893.899         360.157          48.000  
> 2018  4 22 11 21 12.4688020  0  5                     
G 1  22844522.600       35122.993        2008.688          49.000  
G11  23506412.443       35276.744        2018.932          44.000  
G17  21173463.574      -40225.510       -2318.211          52.000  
G22  23018694.690       13661.277         808.353          46.250  
G28  20742729.577        5929.878         360.086          47.750  
> 2018  4 22 11 21 12.5688020  0  5                     
G 1  22846391.915       35323.963        2009.402          49.000  
G11  23508281.819       35478.589        2018.888          44.000  
G17  21175251.058      -40457.288       -2318.006          52.000  
G22  23020541.965       13742.085         807.971          46.500  
G28  20744568.364        5965.891         360.451          48.000  
> 2018  4 22 11 21 12.6688020  0  5                     
G 1  22848261.611       35524.965        2010.849          49.000  
G11  23510151.248       35680.491        2019.617          44.000  
G17  21177038.864      -40689.012       -2316.981          52.000  
G22  23022389.512       13822.956         808.726          46.250  
G28  20746406.452        6001.952         360.410          48.250  
> 2018  4 22 11 21 12.7688020  0  5                     
G 1  22850131.192       35726.073        2011.358          49.250  
G11  23512021.378       35882.453        2019.529          44.000  
G17  21178826.775      -40920.641       -2315.875          52.000  
G22  23024236.013       13903.915         809.931          46.250  
G28  20748246.575        6038.120         362.128          47.750  
> 2018  4 22 11 21 12.8688020  0  5                     
G 1  22852001.667       35927.344        2013.523          48.500  
G11  23513890.305       36084.625        2022.937          43.750  
G17  21180614.366      -41152.103       -2313.757          51.750  
G22  23026082.918       13985.045         812.730          46.250  
G28  20750084.193        6074.471         364.524          47.750  
> 2018  4 22 11 21 12.9688020  0  5                     
G 1  22853872.029       36128.823        2015.401          49.000  
G11  23515761.217       36286.970        2024.292          43.750  
G17  21182401.206      -41383.368       -2312.443          51.750  
G22  23027929.619       14066.384         814.509          46.500  
G28  20751923.405        6110.993         365.688          47.750  
> 2018  4 22 11 21 13.0688020  0  5                     
G 1  22855742.037       36330.463        2016.838          49.250  
G11  23517631.723       36489.486        2025.708          44.000  
G17  21184188.654      -41614.467       -2310.059          52.000  
G22  23029776.500       14147.880         815.703          46.750  
G28  20753762.441        6147.717         367.837          48.000  
> 2018  4 22 11 21 13.1688020  0  5                     
G 1  22857611.781       36532.207        2017.915          49.250  
G11  23519501.775       36692.131        2026.464          44.000  
G17  21185975.962      -41845.451       -2309.783          52.000  
G22  23031623.875       14229.500         816.789          46.500  
G28  20755600.431        6184.549         369.069          48.000  
> 2018  4 22 11 21 13.2688020  0  5                     
G 1  22859481.961       36733.997        2018.268          49.250  
G11  23521372.161       36894.800        2026.578          44.000  
G17  21187763.489      -42076.393       -2309.578          52.000  
G22  23033471.633       14311.163         816.281          46.250  
G28  20757440.331        6221.418         368.732          48.000  
> 2018  4 22 11 21 13.3688020  0  5                     
G 1  22861351.517       36935.811        2017.520          49.250  
G11  23523242.374       37097.499        2025.635          44.000  
G17  21189551.298      -42307.299       -2309.609          52.000  
G22  23035318.373       14392.876         816.434          46.250  
G28  20759276.986        6258.330         368.105          47.750  
> 2018  4 22 11 21 13.4688020  0  5                     
G 1  22863221.090       37137.574        2016.642          49.000  
G11  23525111.307       37300.141        2024.897          44.250  
G17  21191338.345      -42538.276       -2310.713          51.750  
G22  23037164.852       14474.503         815.850          46.000  
G28  20761115.009        6295.182         367.142          47.750  
> 2018  4 22 11 21 13.5688020  0  5                     
G 1  22865091.611       37339.187        2015.672          49.000  
G11  23526981.886       37502.650        2025.485          44.000  
G17  21193126.056      -42769.379       -2311.206          52.000  
G22  23039010.893       14556.011         814.544          46.250  
G28  20762955.297        6331.909         366.889          48.000  
> 2018  4 22 11 21 13.6688020  0  5                     
G 1  22866961.609       37540.774        2015.941          49.000  
G11  23528852.334       37705.103        2024.190          44.250  
G17  21194913.981      -43000.530       -2311.828          52.000  
G22  23040858.052       14637.466         813.871          46.250  
G28  20764791.300        6368.591         367.063          47.750  
> 2018  4 22 11 21 13.7688020  0  5                     
G 1  22868831.171       37742.282        2015.073          48.750  
G11  23530721.968       37907.527        2024.641          44.000  
G17  21196701.957      -43231.735       -2312.117          52.000  
G22  23042704.526       14718.901         813.935          46.250  
G28  20766629.506        6405.210         365.559          48.000  
> 2018  4 22 11 21 13.8688020  0  5                     
G 1  22870701.218       37943.771        2014.843          49.000  
G11  23532592.323       38109.870        2023.931          43.750  
G17  21198489.810      -43462.984       -2312.500          52.000  
G22  23044552.178       14800.275         813.845          46.500  
G28  20768469.139        6441.806         366.122          48.000  
> 2018  4 22 11 21 13.9688020  0  5                     
G 1  22872571.247       38145.233        2014.724          49.000  
G11  23534462.802       38312.231        2024.185          44.000  
G17  21200276.998      -43694.235       -2312.587          52.000  
G22  23046399.816       14881.645         813.011          46.250  
G28  20770306.662        6478.390         365.831          48.000  
> 2018  4 22 11 21 14.0688020  0  5                     
G 1  22874440.693       38346.643        2013.536          49.250  
G11  23536333.154       38514.516        2022.780          44.000  
G17  21202065.050      -43925.558       -2313.472          52.000  
G22  23048246.808       14962.964         813.592          46.250  
G28  20772146.594        6514.919         365.417          48.000  
> 2018  4 22 11 21 14.1688020  0  5                     
G 1  22876310.535       38548.047        2014.086          49.000  
G11  23538202.278       38716.806        2023.513          43.750  
G17  21203852.645      -44156.866       -2313.120          52.000  
G22  23050092.913       15044.279         813.172          46.250  
G28  20773984.115        6551.442         365.949          48.000  
> 2018  4 22 11 21 14.2688020  0  5                     
G 1  22878180.345       38749.477        2014.225          49.250  
G11  23540071.832       38919.109        2022.669          43.750  
G17  21205640.180      -44388.171       -2313.457          52.000  
G22  23051940.785       15125.607         812.672          46.750  
G28  20775821.869        6587.998         364.977          48.000  
> 2018  4 22 11 21 14.3688020  0  5                     
G 1  22880050.051       38950.838        2013.611          49.000  
G11  23541942.124       39121.365        2022.641          43.750  
G17  21207427.875      -44619.521       -2313.932          52.250  
G22  23053787.539       15206.894         812.451          46.250  
G28  20777662.690        6624.492         364.672          48.000  
> 2018  4 22 11 21 14.4688020  0  5                     
G 1  22881919.940       39152.233        2013.949          49.250  
G11  23543811.493       39323.630        2022.429          44.000  
G17  21209215.479      -44850.856       -2313.818          52.000  
G22  23055635.645       15288.202         812.869          46.500  
G28  20779500.135        6661.018         364.894          48.000  
> 2018  4 22 11 21 14.5688020  0  5                     
G 1  22883789.556       39353.586        2013.673          49.250  
G11  23545681.364       39525.868        2022.280          44.000  
G17  21211003.241      -45082.228       -2314.120          52.000  
G22  23057483.260       15369.479         812.602          46.500  
G28  20781339.178        6697.505         364.678          48.000  
> 2018  4 22 11 21 14.6688020  0  5                     
G 1  22885659.944       39554.864        2013.584          49.250  
G11  23547551.664       39728.017        2022.842          43.750  
G17  21212790.336      -45313.682       -2314.690          52.000  
G22  23059329.565       15450.669         811.966          46.250  
G28  20783177.720        6733.921         364.336          48.000  
> 2018  4 22 11 21 14.7688020  0  5                     
G 1  22887529.401       39756.130        2012.658          49.000  
G11  23549423.619       39930.164        2020.994          43.750  
G17  21214577.758      -45545.122       -2314.753          52.000  
G22  23061175.959       15531.891         811.864          46.500  
G28  20785015.150        6770.347         363.741          47.750  
> 2018  4 22 11 21 14.8688020  0  5                     
G 1  22889399.896       39957.357        2012.042          49.000  
G11  23551293.630       40132.271        2020.311          44.000  
G17  21216365.401      -45776.608       -2315.139          52.000  
G22  23063023.729       15613.041         811.679          46.250  
G28  20786854.480        6806.723         364.290          47.750  
> 2018  4 22 11 21 14.9688020  0  5                     
G 1  22891270.267       40158.568        2012.901          49.250  
G11  23553164.136       40334.377        2022.808          44.000  
G17  21218153.049      -46008.108       -2314.459          52.000  
G22  23064870.155       15694.194         812.454          46.500  
G28  20788692.033        6843.103         365.083          47.750  
> 2018  4 22 11 21 15.0688020  0  5                     
G 1  22893139.949       40359.879        2012.999          49.000  
G11  23555033.917       40536.551        2021.700          43.750  
G17  21219940.543      -46239.521       -2314.247          52.000  
G22  23066717.500       15775.456         812.811          46.250  
G28  20790529.962        6879.565         364.890          48.000  
> 2018  4 22 11 21 15.1688020  0  5                     
G 1  22895009.690       40561.210        2013.453          49.250  
G11  23556904.012       40738.766        2022.110          44.000  
G17  21221727.707      -46470.907       -2314.055          52.000  
G22  23068565.078       15856.723         812.740          46.500  
G28  20792370.117        6916.055         365.317          47.750  
> 2018  4 22 11 21 15.2688020  0  5                     
G 1  22896880.317       40762.607        2014.534          49.250  
G11  23558774.580       40941.055        2022.453          44.000  
G17  21223515.002      -46702.216       -2312.602          51.750  
G22  23070412.475       15938.088         813.940          46.500  
G28  20794207.068        6952.635         365.509          47.750  
> 2018  4 22 11 21 15.3688020  0  5                     
G 1  22898750.235       40964.075        2015.696          49.250  
G11  23560643.954       41143.377        2023.525          44.000  
G17  21225302.948      -46933.479       -2312.717          52.000  
G22  23072259.034       16019.490         814.120          46.250  
G28  20796045.958        6989.266         366.477          47.500  
> 2018  4 22 11 21 15.4688020  0  5                     
G 1  22900620.060       41165.574        2015.574          49.250  
G11  23562514.549       41345.761        2023.297          43.500  
G17  21227090.112      -47164.694       -2312.312          52.000  
G22  23074106.458       16100.959         815.230          46.000  
G28  20797884.865        7025.943         366.455          47.750  
> 2018  4 22 11 21 15.5688020  0  5                     
G 1  22902490.314       41367.067        2015.434          49.000  
G11  23564385.149       41548.131        2022.830          44.000  
G17  21228877.945      -47395.917       -2312.557          52.000  
G22  23075953.208       16182.402         813.806          46.250  
G28  20799722.181        7062.616         366.760          47.500  
> 2018  4 22 11 21 15.6688020  0  5                     
G 1  22904360.444       41568.579        2015.391          49.000  
G11  23566255.875       41750.519        2023.133          44.000  
G17  21230665.938      -47627.121       -2312.224          52.000  
G22  23077799.189       16263.882         814.796          46.500  
G28  20801561.987        7099.315         367.003          47.750  
> 2018  4 22 11 21 15.7688020  0  5                     
G 1  22906230.471       41770.101        2016.378          49.250  
G11  23568126.247       41952.909        2024.492          44.000  
G17  21232453.430      -47858.322       -2311.882          52.000  
G22  23079647.108       16345.362         814.595          46.250  
G28  20803400.108        7136.012         367.592          47.750  
> 2018  4 22 11 21 15.8688020  0  5                     
G 1  22908100.342       41971.590        2015.843          49.000  
G11  23569995.831       42155.291        2024.114          43.750  
G17  21234241.050      -48089.527       -2312.129          52.000  
G22  23081494.987       16426.847         814.911          46.250  
G28  20805238.608        7172.711         366.235          47.750  
> 2018  4 22 11 21 15.9688020  0  5                     
G 1  22909970.023       42173.041        2014.400          49.000  
G11  23571865.691       42357.627        2023.339          44.000  
G17  21236028.864      -48320.785       -2312.871          52.000  
G22  23083341.530       16508.266         814.111          46.500  
G28  20807077.832        7209.363         366.340          47.750  
> 2018  4 22 11 21 16.0688020  0  5                     
G 1  22911840.394       42374.473        2014.443          49.000  
G11  23573735.207       42559.936        2023.610          44.250  
G17  21237816.331      -48552.069       -2312.245          52.000  
G22  23085188.309       16589.678         813.978          46.250  
G28  20808914.426        7245.997         366.744          47.750  
> 2018  4 22 11 21 16.1688020  0  5                     
G 1  22913710.207       42575.924        2014.631          49.000  
G11  23575605.163       42762.268        2023.598          44.000  
G17  21239604.222      -48783.315       -2312.149          52.000  
G22  23087035.280       16671.130         815.680          46.500  
G28  20810754.671        7282.655         367.068          47.750  
> 2018  4 22 11 21 16.2688020  0  5                     
G 1  22915579.493       42777.412        2014.489          49.000  
G11  23577475.155       42964.630        2023.226          44.250  
G17  21241391.692      -49014.538       -2312.890          52.000  
G22  23088882.693       16752.601         814.268          46.500  
G28  20812593.272        7319.352         366.234          47.750  
> 2018  4 22 11 21 16.3688020  0  5                     
G 1  22917448.984       42978.860        2014.948          49.000  
G11  23579345.124       43166.952        2023.720          44.250  
G17  21243179.462      -49245.809       -2312.556          52.000  
G22  23090729.391       16834.018         814.146          46.500  
G28  20814430.777        7356.009         366.932          47.750  
> 2018  4 22 11 21 16.4688020  0  5                     
G 1  22919318.713       43180.246        2013.479          49.000  
G11  23581215.291       43369.208        2021.065          44.250  
G17  21244966.505      -49477.120       -2313.830          52.000  
G22  23092576.695       16915.416         812.615          46.750  
G28  20816271.693        7392.620         365.264          47.500  
> 2018  4 22 11 21 16.5688020  0  5                     
G 1  22921189.055       43381.586        2013.560          49.000  
G11  23583085.990       43571.432        2021.558          44.250  
G17  21246754.177      -49708.497       -2314.202          52.000  
G22  23094424.653       16996.746         813.161          46.500  
G28  20818108.620        7429.180         365.166          47.750  
> 2018  4 22 11 21 16.6688020  0  5                     
G 1  22923057.910       43582.896        2013.101          49.000  
G11  23584956.643       43773.610        2022.410          44.500  
G17  21248541.764      -49939.895       -2314.234          52.000  
G22  23096271.909       17078.058         812.878          46.500  
G28  20819947.334        7465.714         365.360          47.500  
> 2018  4 22 11 21 16.7688020  0  5                     
G 1  22924927.986       43784.187        2013.714          48.750  
G11  23586826.389       43975.796        2022.718          44.000  
G17  21250329.266      -50171.295       -2313.180          52.000  
G22  23098117.967       17159.352         813.146          46.500  
G28  20821786.835        7502.244         365.493          47.750  
> 2018  4 22 11 21 16.8688020  0  5                     
G 1  22926797.857       43985.512        2012.643          49.000  
G11  23588696.413       44177.981        2021.941          44.000  
G17  21252117.084      -50402.675       -2314.406          52.000  
G22  23099964.827       17240.698         812.783          46.250  
G28  20823624.240        7538.813         365.150          47.500  
> 2018  4 22 11 21 16.9688020  0  5                     
G 1  22928667.951       44186.816        2013.115          49.250  
G11  23590565.636       44380.150        2021.457          44.250  
G17  21253904.037      -50634.085       -2314.215          52.000  
G22  23101811.010       17322.008         813.287          46.500  
G28  20825464.317        7575.342         365.028          47.750  
> 2018  4 22 11 21 17.0688020  0  5                     
G 1  22930538.115       44388.083        2013.462          49.250  
G11  23592435.956       44582.298        2021.497          44.250  
G17  21255691.924      -50865.522       -2314.401          52.000  
G22  23103658.024       17403.283         812.408          46.250  
G28  20827302.074        7611.854         365.744          47.750  
> 2018  4 22 11 21 17.1688020  0  5                     
G 1  22932408.109       44589.366        2013.597          49.250  
G11  23594306.289       44784.463        2022.533          44.000  
G17  21257479.078      -51096.937       -2313.333          52.000  
G22  23105505.694       17484.591         812.965          46.250  
G28  20829140.158        7648.393         366.309          47.750  
> 2018  4 22 11 21 17.2688020  0  5                     
G 1  22934277.998       44790.741        2014.527          49.250  
G11  23596176.119       44986.702        2021.836          44.000  
G17  21259266.432      -51328.266       -2313.311          52.000  
G22  23107353.085       17565.992         814.141          46.750  
G28  20830980.351        7685.013         366.590          47.750  
> 2018  4 22 11 21 17.3688020  0  5                     
G 1  22936147.488       44992.188        2015.005          48.750  
G11  23598046.068       45189.019        2023.999          44.000  
G17  21261054.467      -51559.524       -2312.307          52.000  
G22  23109201.178       17647.460         814.907          46.500  
G28  20832817.512        7721.715         367.268          47.750  
> 2018  4 22 11 21 17.4688020  0  5                     
G 1  22938017.456       45193.702        2015.916          49.250  
G11  23599917.104       45391.391        2024.337          44.250  
G17  21262841.852      -51790.714       -2311.829          52.000  
G22  23111047.291       17729.021         817.027          46.500  
G28  20834656.804        7758.490         368.854          47.750  
> 2018  4 22 11 21 17.5688020  0  5                     
G 1  22939887.250       45395.271        2016.393          49.250  
G11  23601786.964       45593.855        2024.879          44.250  
G17  21264629.671      -52021.838       -2310.789          52.000  
G22  23112893.748       17810.617         817.116          46.250  
G28  20836495.586        7795.325         369.278          47.750  
> 2018  4 22 11 21 17.6688020  0  5                     
G 1  22941756.768       45596.926        2017.140          49.250  
G11  23603656.924       45796.380        2025.693          44.000  
G17  21266417.617      -52252.882       -2310.219          51.750  
G22  23114740.056       17892.315         817.274          46.250  
G28  20838333.335        7832.254         369.339          47.500  
> 2018  4 22 11 21 17.7688020  0  5                     
G 1  22943626.346       45798.597        2017.440          49.000  
G11  23605527.784       45998.920        2026.514          43.750  
G17  21268205.017      -52483.915       -2310.154          51.750  
G22  23116588.153       17974.015         817.125          46.500  
G28  20840174.086        7869.181         369.219          47.750  
> 2018  4 22 11 21 17.8688020  0  5                     
G 1  22945496.743       46000.283        2017.225          49.000  
G11  23607398.101       46201.486        2026.402          44.000  
G17  21269992.753      -52714.914       -2310.301          51.750  
G22  23118435.807       18055.756         817.030          46.250  
G28  20842010.820        7906.158         369.578          47.500  
> 2018  4 22 11 21 17.9688020  0  5                     
G 1  22947366.725       46202.001        2017.537          49.000  
G11  23609268.172       46404.060        2025.913          44.000  
G17  21271780.164      -52945.898       -2309.717          52.000  
G22  23120282.109       18137.522         817.879          46.000  
G28  20843849.598        7943.149         369.838          47.750  
> 2018  4 22 11 21 18.0688020  0  5                     
G 1  22949237.297       46403.692        2016.715          49.000  
G11  23611136.572       46606.560        1972.028          44.250  
G17  21273568.093      -53176.905       -2310.622          52.000  
G22  23122129.230       18219.276         817.743          46.500  
G28  20845688.469        7980.125         369.024          48.000  
> 2018  4 22 11 21 18.2688020  0  5                     
G 1  22952976.490       46807.078        2017.277          49.000  
G11  23614876.166       47011.755        2026.207          43.500  
G17  21277143.239      -53638.903       -2309.678          52.000  
G22  23125823.741       18382.766         817.357          46.500  
G28  20849366.292        8054.094         369.182          47.750  
> 2018  4 22 11 21 18.3688020  0  5                     
G 1  22954846.177       47008.696        2015.483          49.000  
G11  23616745.210       47214.258        2024.637          44.000  
G17  21278931.026      -53869.975       -2311.148          52.000  
G22  23127670.921       18464.467         816.827          46.250  
G28  20851204.582        8091.023         368.783          47.750  
> 2018  4 22 11 21 18.4688020  0  5                     
G 1  22956715.891       47210.274        2015.240          49.000  
G11  23618615.543       47416.707        2024.092          44.250  
G17  21280718.286      -54101.088       -2311.585          52.000  
G22  23129517.676       18546.124         816.575          46.250  
G28  20853042.707        8127.915         368.715          47.750  
> 2018  4 22 11 21 18.5688020  0  5                     
G 1  22958585.380       47411.812        2014.826          49.000  
G11  23620487.244       47619.115        2023.695          43.750  
G17  21282506.100      -54332.240       -2312.240          52.000  
G22  23131363.950       18627.714         814.812          46.250  
G28  20854882.499        8164.759         367.829          48.000  
> 2018  4 22 11 21 18.6688020  0  5                     
G 1  22960455.980       47613.247        2013.770          49.000  
G11  23622357.811       47821.407        2022.618          43.750  
G17  21284293.392      -54563.503       -2313.081          52.000  
G22  23133211.246       18709.224         813.834          46.500  
G28  20856719.295        8201.494         366.567          48.000  
> 2018  4 22 11 21 18.7688020  0  5                     
G 1  22962325.466       47814.599        2013.944          49.000  
G11  23624227.700       48023.632        2021.800          43.750  
G17  21286080.689      -54794.830       -2313.114          51.750  
G22  23135058.693       18790.667         814.645          46.500  
G28  20858558.716        8238.163         366.566          48.000  
> 2018  4 22 11 21 18.8688020  0  5                     
G 1  22964195.566       48015.934        2012.897          48.750  
G11  23626097.304       48225.846        2022.190          43.750  
G17  21287868.558      -55026.182       -2313.581          51.750  
G22  23136905.906       18872.086         814.464          46.250  
G28  20860396.949        8274.817         366.095          48.000  
> 2018  4 22 11 21 18.9688020  0  5                     
G 1  22966065.341       48217.239        2012.721          49.000  
G11  23627967.214       48428.002        2021.895          43.500  
G17  21289655.914      -55257.576       -2314.020          52.000  
G22  23138753.409       18953.462         813.604          46.500  
G28  20862235.061        8311.437         366.215          47.750  
> 2018  4 22 11 21 19.0688020  0  5                     
G 1  22967935.351       48418.480        2012.151          48.750  
G11  23629836.943       48630.122        2020.039          43.500  
G17  21291443.696      -55489.022       -2314.898          51.750  
G22  23140600.761       19034.798         812.681          46.500  
G28  20864075.037        8348.013         365.926          47.750  
> 2018  4 22 11 21 19.1688020  0  5                     
G 1  22969805.404       48619.664        2011.626          49.000  
G11  23631705.811       48832.169        2021.091          43.500  
G17  21293231.303      -55720.538       -2315.886          52.000  
G22  23142448.399       19116.073         811.864          46.750  
G28  20865911.872        8384.514         364.858          48.000  
> 2018  4 22 11 21 19.2688020  0  5                     
G 1  22971675.180       48820.808        2011.329          49.000  
G11  23633576.206       49034.184        2020.559          43.750  
G17  21295018.804      -55952.084       -2316.161          52.250  
G22  23144294.623       19197.324         812.299          46.500  
G28  20867750.450        8421.000         364.821          47.750  
> 2018  4 22 11 21 19.3688020  0  5                     
G 1  22973544.806       49021.958        2011.889          48.750  
G11  23635446.094       49236.202        2020.341          43.750  
G17  21296806.083      -56183.600       -2314.876          52.250  
G22  23146142.324       19278.575         813.213          46.750  
G28  20869590.175        8457.498         365.347          47.750  
> 2018  4 22 11 21 19.4688020  0  5                     
G 1  22975414.619       49223.215        2012.832          49.000  
G11  23637316.594       49438.337        2022.018          43.750  
G17  21298593.029      -56415.030       -2314.178          51.750  
G22  23147988.491       19359.932         813.580          46.500  
G28  20871427.200        8494.098         366.437          48.000  
> 2018  4 22 11 21 19.5688020  0  5                     
G 1  22977284.347       49424.527        2013.279          49.000  
G11  23639185.972       49640.517        2021.953          44.000  
G17  21300380.798      -56646.399       -2313.678          51.750  
G22  23149835.124       19441.360         814.233          46.500  
G28  20873266.793        8530.753         366.118          48.000  
> 2018  4 22 11 21 19.6688020  0  5                     
G 1  22979154.104       49625.985        2014.715          48.750  
G11  23641056.409       49842.839        2024.328          44.000  
G17  21302168.428      -56877.630       -2312.066          51.750  
G22  23151683.088       19522.921         815.941          46.500  
G28  20875104.375        8567.561         368.282          47.750  
> 2018  4 22 11 21 19.7688020  0  5                     
G 1  22981023.432       49827.442        2014.804          48.750  
G11  23642925.856       50045.175        2023.146          43.750  
G17  21303956.258      -57108.851       -2312.180          52.250  
G22  23153529.893       19604.507         815.144          46.500  
G28  20876941.963        8604.383         367.958          47.750  
> 2018  4 22 11 21 19.8688020  0  5                     
G 1  22982893.879       50028.980        2015.348          48.750  
G11  23644797.340       50247.559        2023.966          44.250  
G17  21305743.998      -57339.998       -2311.510          52.000  
G22  23155377.551       19686.170         816.459          46.500  
G28  20878782.915        8641.272         368.732          47.750  
> 2018  4 22 11 21 19.9688020  0  5                     
G 1  22984763.942       50230.533        2015.616          48.750  
G11  23646666.975       50449.985        2025.127          44.000  
G17  21307531.519      -57571.130       -2311.235          52.000  
G22  23157224.588       19767.842         816.904          46.500  
G28  20880620.391        8678.200         369.500          48.000  
> 2018  4 22 11 21 20.0688020  0  5                     
G 1  22986633.904       50432.054        2015.356          49.000  
G11  23648537.832       50652.379        2023.574          43.750  
G17  21309319.446      -57802.288       -2311.653          52.000  
G22  23159071.077       19849.489         816.842          46.750  
G28  20882460.032        8715.092         368.920          48.250  
> 2018  4 22 11 21 20.1688020  0  5                     
G 1  22988503.539       50633.580        2015.220          49.000  
G11  23650407.960       50854.761        2024.448          44.000  
G17  21311106.775      -58033.451       -2312.323          52.000  
G22  23160918.831       19931.133         816.074          46.250  
G28  20884298.948        8751.977         369.380          47.750  
> 2018  4 22 11 21 20.2688020  0  5                     
G 1  22990374.140       50835.061        2014.993          48.250  
G11  23652278.458       51057.112        2024.094          43.500  
G17  21312894.263      -58264.634       -2311.996          51.500  
G22  23162765.871       20012.757         816.041          46.500  
G28  20886136.796        8788.840         368.944          47.750  
> 2018  4 22 11 21 20.3688020  0  5                     
G 1  22992243.715       51036.518        2014.627          48.750  
G11  23654147.801       51259.443        2023.018          43.750  
G17  21314682.307      -58495.865       -2311.816          51.750  
G22  23164614.043       20094.350         816.241          46.750  
G28  20887977.335        8825.676         368.231          47.750  
> 2018  4 22 11 21 20.4688020  0  5                     
G 1  22994112.598       51237.955        2014.259          48.750  
G11  23656017.915       51461.740        2023.249          44.250  
G17  21316469.499      -58727.101       -2312.814          52.000  
G22  23166462.038       20175.944         815.370          46.500  
G28  20889815.160        8862.515         367.846          48.000  
> 2018  4 22 11 21 20.5688020  0  5                     
G 1  22995983.025       51439.356        2013.827          48.750  
G11  23657888.140       51664.010        2022.420          44.000  
G17  21318257.250      -58958.372       -2313.357          52.000  
G22  23168308.081       20257.495         815.533          46.500  
G28  20891653.609        8899.298         367.018          47.750  
> 2018  4 22 11 21 20.6688020  0  5                     
G 1  22997852.773       51640.713        2013.322          48.750  
G11  23659758.499       51866.235        2022.324          43.750  
G17  21320044.721      -59189.699       -2313.309          51.750  
G22  23170154.664       20339.001         814.165          46.500  
G28  20893492.518        8936.053         367.208          48.000  
> 2018  4 22 11 21 20.7688020  0  5                     
G 1  22999722.509       51841.967        2012.114          48.750  
G11  23661627.861       52068.358        2022.703          43.750  
G17  21321831.890      -59421.114       -2314.120          52.000  
G22  23172001.416       20420.412         814.490          46.750  
G28  20895328.769        8972.707         366.477          48.000  
> 2018  4 22 11 21 20.8688020  0  5                     
G 1  23001592.814       52043.293        2013.470          49.000  
G11  23663497.607       52270.536        2022.363          43.750  
G17  21323620.089      -59652.466       -2313.612          52.000  
G22  23173848.642       20501.891         814.960          46.750  
G28  20897168.157        9009.436         367.815          48.000  
> 2018  4 22 11 21 20.9688020  0  5                     
G 1  23003463.139       52244.648        2013.932          48.750  
G11  23665367.696       52472.767        2022.589          43.500  
G17  21325407.852      -59883.785       -2313.026          52.000  
G22  23175695.772       20583.404         815.687          46.500  
G28  20899007.405        9046.189         367.595          47.750  
> 2018  4 22 11 21 21.0688020  0  5                     
G 1  23005332.929       52446.086        2015.133          48.750  
G11  23667237.984       52675.062        2023.799          43.750  
G17  21327195.478      -60115.011       -2311.543          52.000  
G22  23177542.255       20665.015         816.628          46.500  
G28  20900846.076        9083.042         369.197          48.000  
> 2018  4 22 11 21 21.1688020  0  5                     
G 1  23007202.359       52647.567        2015.380          48.750  
G11  23669109.054       52877.410        2024.135          43.750  
G17  21328982.643      -60346.214       -2311.498          52.000  
G22  23179390.057       20746.665         816.516          46.750  
G28  20902686.290        9119.941         370.144          48.000  
> 2018  4 22 11 21 21.2688020  0  5                     
G 1  23009073.009       52849.124        2016.450          48.750  
G11  23670978.282       53079.841        2024.884          43.500  
G17  21330770.192      -60577.324       -2310.970          51.750  
G22  23181236.908       20828.397         817.814          46.500  
G28  20904522.954        9156.925         370.403          47.750  
> 2018  4 22 11 21 21.3688020  0  5                     
G 1  23010943.038       53050.722        2016.061          48.500  
G11  23672848.956       53282.303        2025.038          43.750  
G17  21332557.806      -60808.393       -2310.795          51.750  
G22  23183083.548       20910.173         817.617          46.500  
G28  20906362.144        9193.950         371.145          48.000  
> 2018  4 22 11 21 21.4688020  0  5                     
G 1  23012812.820       53252.351        2016.211          48.750  
G11  23674718.008       53484.795        2025.625          43.750  
G17  21334345.250      -61039.431       -2310.064          52.000  
G22  23184930.133       20991.993         818.426          46.750  
G28  20908200.189        9231.007         371.605          47.750  
> 2018  4 22 11 21 21.5688020  0  5                     
G 1  23014682.845       53454.027        2017.078          48.750  
G11  23676588.108       53687.332        2026.102          43.750  
G17  21336133.193      -61270.427       -2309.686          51.750  
G22  23186777.753       21073.846         818.129          46.750  
G28  20910037.519        9268.115         371.905          47.500  
> 2018  4 22 11 21 21.6688020  0  5                     
G 1  23016552.473       53655.768        2017.534          48.500  
G11  23678459.614       53889.932        2026.465          43.500  
G17  21337920.609      -61501.361       -2309.332          51.750  
G22  23188625.158       21155.773         819.804          46.750  
G28  20911877.371        9305.271         371.264          47.500  
> 2018  4 22 11 21 21.7688020  0  5                     
G 1  23018422.577       53857.483        2017.230          48.500  
G11  23680329.135       54092.518        2025.606          43.750  
G17  21339708.306      -61732.311       -2309.347          51.750  
G22  23190472.830       21237.687         819.323          46.500  
G28  20913714.867        9342.442         372.299          47.750  
> 2018  4 22 11 21 21.8688020  0  5                     
G 1  23020293.151       54059.227        2017.608          48.750  
G11  23682199.231       54295.125        2026.482          43.750  
G17  21341495.447      -61963.242       -2309.079          51.750  
G22  23192319.975       21319.620         819.744          46.750  
G28  20915553.051        9379.621         372.187          48.000  
> 2018  4 22 11 21 21.9688020  0  5                     
G 1  23022162.676       54260.943        2017.038          48.750  
G11  23684068.941       54497.694        2026.347          43.750  
G17  21343282.758      -62194.192       -2309.544          51.500  
G22  23194167.529       21401.538         819.046          46.750  
G28  20917393.695        9416.794         371.765          48.000  
> 2018  4 22 11 21 22.0688020  0  5                     
G 1  23024032.812       54462.685        2018.086          48.750  
G11  23685939.501       54700.311        2026.901          43.500  
G17  21345070.736      -62425.117       -2309.453          51.750  
G22  23196015.279       21483.478         819.125          46.500  
G28  20919230.192        9453.993         372.352          48.000  
> 2018  4 22 11 21 22.1688020  0  5                     
G 1  23025903.268       54664.417        2017.431          49.000  
G11  23687809.668       54902.894        2026.150          43.750  
G17  21346858.937      -62656.045       -2309.811          51.750  
G22  23197862.537       21565.424         819.866          46.750  
G28  20921069.510        9491.194         371.807          47.500  
> 2018  4 22 11 21 22.2688020  0  5                     
G 1  23027773.373       54866.155        2017.939          48.750  
G11  23689679.966       55105.493        2026.738          43.250  
G17  21348646.592      -62886.982       -2309.347          51.750  
G22  23199708.523       21647.370         819.618          46.500  
G28  20922908.701        9528.374         371.860          47.500  
> 2018  4 22 11 21 22.3688020  0  5                     
G 1  23029643.632       55067.869        2017.536          48.750  
G11  23691549.929       55308.059        2026.497          43.500  
G17  21350433.908      -63117.926       -2309.658          51.750  
G22  23201555.632       21729.291         819.415          46.750  
G28  20924746.606        9565.558         371.452          47.750  
> 2018  4 22 11 21 22.4688020  0  5                     
G 1  23031513.001       55269.529        2016.142          48.500  
G11  23693419.240       55510.594        2025.201          43.250  
G17  21352221.296      -63348.921       -2310.064          51.750  
G22  23203401.998       21811.183         819.931          46.500  
G28  20926587.701        9602.679         370.751          47.750  
> 2018  4 22 11 21 22.5688020  0  5                     
G 1  23033383.104       55471.130        2016.018          48.750  
G11  23695290.460       55713.049        2025.079          43.750  
G17  21354009.158      -63579.996       -2310.980          51.750  
G22  23205248.776       21893.000         818.505          46.500  
G28  20928424.259        9639.761         370.935          48.000  
> 2018  4 22 11 21 22.6688020  0  5                     
G 1  23035252.588       55672.710        2016.211          48.750  
G11  23697159.651       55915.492        2025.881          43.250  
G17  21355796.603      -63811.073       -2310.776          51.500  
G22  23207095.836       21974.810         819.425          46.250  
G28  20930263.286        9676.812         371.203          48.000  
> 2018  4 22 11 21 22.7688020  0  5                     
G 1  23037122.947       55874.251        2015.102          48.750  
G11  23699030.237       56117.911        2024.543          44.000  
G17  21357584.174      -64042.183       -2311.555          51.750  
G22  23208943.299       22056.595         817.525          46.500  
G28  20932101.945        9713.854         369.436          47.750  
> 2018  4 22 11 21 22.8688020  0  5                     
G 1  23038992.780       56075.816        2015.928          48.500  
G11  23700899.923       56320.324        2024.927          43.250  
G17  21359371.618      -64273.282       -2311.464          51.500  
G22  23210790.862       22138.378         818.049          46.750  
G28  20933940.003        9750.903         370.822          47.750  
> 2018  4 22 11 21 22.9688020  0  5                     
G 1  23040863.084       56277.364        2016.208          48.750  
G11  23702770.237       56522.723        2025.675          43.500  
G17  21361158.944      -64504.392       -2310.573          51.750  
G22  23212638.006       22220.153         817.945          46.750  
G28  20935779.859        9787.936         371.264          47.750  
> 2018  4 22 11 21 23.0688020  0  5                     
G 1  23042732.799       56478.970        2016.964          48.750  
G11  23704640.152       56725.204        2026.368          43.250  
G17  21362946.653      -64735.442       -2310.415          51.750  
G22  23214486.482       22302.004         819.369          46.750  
G28  20937616.841        9825.043         372.132          47.750  
> 2018  4 22 11 21 23.1688020  0  5                     
G 1  23044603.023       56680.642        2016.826          48.500  
G11  23706512.258       56927.700        2024.851          43.500  
G17  21364733.732      -64966.443       -2310.778          51.750  
G22  23216334.503       22383.908         818.413          46.500  
G28  20939455.141        9862.196         371.493          47.750  
> 2018  4 22 11 21 23.2688020  0  5                     
G 1  23046472.434       56882.316        2017.059          48.500  
G11  23708382.933       57130.250        2026.078          43.750  
G17  21366521.237      -65197.419       -2310.056          51.500  
G22  23218181.794       22465.841         819.238          46.750  
G28  20941295.976        9899.381         372.345          47.750  
> 2018  4 22 11 21 23.3688020  0  5                     
G 1  23048341.999       57084.074        2017.515          48.750  
G11  23710252.929       57332.864        2026.619          43.500  
G17  21368308.808      -65428.323       -2309.314          51.750  
G22  23220028.717       22547.850         820.195          46.500  
G28  20943132.713        9936.646         372.941          48.000  
> 2018  4 22 11 21 23.4688020  0  5                     
G 1  23050212.595       57285.834        2017.964          48.750  
G11  23712123.342       57535.482        2026.682          43.500  
G17  21370096.492      -65659.217       -2308.593          51.750  
G22  23221876.203       22629.860         819.464          47.000  
G28  20944972.192        9973.914         372.996          47.750  
> 2018  4 22 11 21 23.5688020  0  5                     
G 1  23052082.260       57487.603        2018.730          49.000  
G11  23713992.657       57738.119        2026.712          43.500  
G17  21371884.184      -65890.096       -2308.367          51.750  
G22  23223723.583       22711.888         820.044          47.000  
G28  20946810.954       10011.203         372.954          47.750  
> 2018  4 22 11 21 23.6688020  0  5                     
G 1  23053952.182       57689.406        2018.167          49.000  
G11  23715862.667       57940.780        2026.458          43.250  
G17  21373671.819      -66120.942       -2308.844          51.750  
G22  23225570.636       22793.950         820.575          46.750  
G28  20948649.346       10048.529         373.385          48.000  
> 2018  4 22 11 21 23.7688020  0  5                     
G 1  23055821.949       57891.215        2018.010          48.750  
G11  23717733.345       58143.448        2026.532          43.000  
G17  21375459.463      -66351.798       -2308.707          51.750  
G22  23227417.368       22876.029         821.146          46.750  
G28  20950490.392       10085.856         373.090          48.000  
> 2018  4 22 11 21 23.8688020  0  5                     
G 1  23057692.137       58093.015        2018.319          48.750  
G11  23719602.591       58346.106        2027.689          43.500  
G17  21377247.488      -66582.638       -2308.322          52.000  
G22  23229264.449       22958.113         820.742          46.500  
G28  20952326.730       10123.199         373.614          48.000  
> 2018  4 22 11 21 23.9688020  0  5                     
G 1  23059562.431       58294.859        2018.469          48.750  
G11  23721471.609       58548.789        2026.562          43.250  
G17  21379034.696      -66813.452       -2308.089          51.750  
G22  23231110.786       23040.233         821.043          46.750  
G28  20954165.885       10160.575         373.606          47.750  
> 2018  4 22 11 21 24.0688020  0  5                     
G 1  23061432.245       58496.731        2019.400          48.750  
G11  23723340.576       58751.478        2007.393          43.250  
G17  21380822.276      -67044.237       -2308.040          51.500  
G22  23232957.683       23122.368         821.734          46.500  
G28  20956004.573       10197.971         374.583          47.500  
> 2018  4 22 11 21 24.1688020  0  5                     
G 1  23063302.893       58698.634        2019.138          48.750  
G11  23725210.806       58954.301        2027.910          43.000  
G17  21382609.552      -67274.981       -2307.887          51.500  
G22  23234804.537       23204.562         821.346          47.000  
G28  20957842.376       10235.419         374.855          48.000  
> 2018  4 22 11 21 24.2688020  0  5                     
G 1  23065172.149       58900.513        2019.106          48.750  
G11  23727081.317       59157.035        2028.101          43.000  
G17  21384396.983      -67505.751       -2307.833          51.750  
G22  23236653.253       23286.725         821.862          47.000  
G28  20959682.388       10272.850         373.821          48.000  
> 2018  4 22 11 21 24.3688020  0  5                     
G 1  23067041.824       59102.403        2018.772          48.750  
G11  23728951.512       59359.779        2028.503          43.250  
G17  21386184.986      -67736.516       -2308.160          51.750  
G22  23238500.939       23368.905         822.320          47.000  
G28  20961519.794       10310.284         374.360          47.750  
> 2018  4 22 11 21 24.4688020  0  5                     
G 1  23068912.508       59304.263        2018.428          48.750  
G11  23730821.653       59562.508        2028.213          43.250  
G17  21387972.714      -67967.301       -2308.021          51.750  
G22  23240348.488       23451.056         821.707          46.750  
G28  20963358.649       10347.691         373.761          47.250  
> 2018  4 22 11 21 24.5688020  0  5                     
G 1  23070782.532       59506.086        2018.120          49.000  
G11  23732691.640       59765.173        2026.727          43.250  
G17  21389760.317      -68198.130       -2308.646          51.500  
G22  23242196.486       23533.174         821.161          46.750  
G28  20965199.066       10385.071         373.503          48.000  
> 2018  4 22 11 21 24.6688020  0  5                     
G 1  23072652.143       59707.899        2018.381          49.000  
G11  23734563.369       59967.850        2026.398          43.250  
G17  21391547.860      -68428.957       -2308.656          51.750  
G22  23244042.113       23615.293         821.479          46.750  
G28  20967035.767       10422.459         373.429          48.250  
> 2018  4 22 11 21 24.7688020  0  5                     
G 1  23074521.812       59909.688        2017.816          48.750  
G11  23736432.662       60170.490        2026.530          43.500  
G17  21393335.774      -68659.807       -2308.682          51.750  
G22  23245889.574       23697.381         820.456          46.500  
G28  20968875.158       10459.828         373.539          48.000  
> 2018  4 22 11 21 24.8688020  0  5                     
G 1  23076391.477       60111.439        2017.386          48.750  
G11  23738302.709       60373.098        2026.403          43.500  
G17  21395123.266      -68890.709       -2309.675          51.750  
G22  23247736.384       23779.441         820.229          46.750  
G28  20970713.507       10497.129         372.587          47.500  
> 2018  4 22 11 21 24.9688020  0  5                     
G 1  23078261.674       60313.173        2017.209          49.000  
G11  23740172.406       60575.679        2025.808          43.500  
G17  21396910.861      -69121.619       -2309.458          51.500  
G22  23249583.696       23861.493         820.460          46.750  
G28  20972551.623       10534.425         372.884          47.500  
> 2018  4 22 11 21 25.0688020  0  5                     
G 1  23080132.056       60514.918        2018.243          49.000  
G11  23742041.733       60778.275        2026.042          43.000  
G17  21398698.804      -69352.524       -2309.278          51.500  
G22  23251431.557       23943.551         821.311          46.750  
G28  20974392.723       10571.749         373.736          48.250  
> 2018  4 22 11 21 25.1688020  0  5                     
G 1  23082001.986       60716.648        2017.002          48.750  
G11  23743912.697       60980.872        2025.528          43.000  
G17  21400486.153      -69583.427       -2309.646          51.500  
G22  23253278.859       24025.593         819.948          46.750  
G28  20976230.172       10609.075         372.472          48.250  
> 2018  4 22 11 21 25.2688020  0  5                     
G 1  23083871.816       60918.314        2015.553          48.750  
G11  23745782.397       61183.392        2025.191          43.000  
G17  21402273.696      -69814.407       -2310.599          51.750  
G22  23255126.385       24107.588         819.017          46.750  
G28  20978070.138       10646.334         372.445          47.500  
> 2018  4 22 11 21 25.3688020  0  5                     
G 1  23085742.283       61119.949        2016.552          49.000  
G11  23747652.175       61385.877        2025.917          43.000  
G17  21404061.196      -70045.418       -2310.204          51.500  
G22  23256973.601       24189.548         819.833          47.000  
G28  20979908.265       10683.539         372.453          47.500  
> 2018  4 22 11 21 25.4688020  0  5                     
G 1  23087613.010       61321.567        2016.959          49.000  
G11  23749522.629       61588.355        2025.618          43.000  
G17  21405848.616      -70276.442       -2309.937          51.500  
G22  23258820.894       24271.488         819.957          46.750  
G28  20981746.219       10720.759         372.550          48.000  
> 2018  4 22 11 21 25.5688020  0  5                     
G 1  23089482.864       61523.155        2015.730          49.000  
G11  23751393.134       61790.803        2023.769          43.250  
G17  21407636.542      -70507.488       -2311.417          51.750  
G22  23260666.570       24353.427         818.769          46.750  
G28  20983586.722       10757.944         372.272          48.000  
> 2018  4 22 11 21 25.6688020  0  5                     
G 1  23091352.500       61724.762        2016.491          49.000  
G11  23753263.644       61993.246        2024.607          43.250  
G17  21409423.713      -70738.516       -2310.539          51.750  
G22  23262514.038       24435.357         819.546          46.750  
G28  20985423.256       10795.156         372.687          48.250  
> 2018  4 22 11 21 25.7688020  0  5                     
G 1  23093222.878       61926.277        2014.965          49.000  
G11  23755133.506       62195.629        2023.191          43.000  
G17  21411211.461      -70969.639       -2311.458          51.750  
G22  23264361.070       24517.212         817.918          46.750  
G28  20987262.855       10832.280         370.262          48.000  
> 2018  4 22 11 21 25.8688020  0  5                     
G 1  23095091.892       62127.755        2014.931          48.750  
G11  23757003.365       62397.951        2024.176          42.750  
G17  21412999.088      -71200.796       -2311.598          51.750  
G22  23266209.405       24599.045         817.546          46.750  
G28  20989102.062       10869.380         371.832          47.750  
> 2018  4 22 11 21 25.9688020  0  5                     
G 1  23096961.528       62329.239        2014.332          49.000  
G11  23758872.967       62600.294        2022.963          43.250  
G17  21414786.515      -71431.951       -2311.232          51.750  
G22  23268055.129       24680.879         818.480          46.500  
G28  20990940.324       10906.484         371.353          47.750  
> 2018  4 22 11 21 26.0688020  0  5                     
G 1  23098831.315       62530.817        2016.783          48.750  
G11  23760743.934       62802.701        2024.825          42.750  
G17  21416573.943      -71663.011       -2309.937          51.500  
G22  23269901.469       24762.800         819.883          46.500  
G28  20992779.734       10943.674         372.649          47.500  
> 2018  4 22 11 21 26.1688020  0  5                     
G 1  23100700.760       62732.459        2016.757          48.750  
G11  23762614.503       63005.229        2026.060          43.000  
G17  21418361.176      -71893.998       -2309.786          51.500  
G22  23271749.157       24844.793         819.968          46.500  
G28  20994616.457       10980.938         373.200          47.750  
> 2018  4 22 11 21 26.2688020  0  5                     
G 1  23102570.628       62934.195        2018.048          49.000  
G11  23764485.120       63207.802        2026.030          42.500  
G17  21420149.034      -72124.896       -2308.497          51.750  
G22  23273596.411       24926.907         821.820          46.750  
G28  20996455.040       11018.309         374.291          47.500  
> 2018  4 22 11 21 26.3688020  0  5                     
G 1  23104440.746       63136.005        2018.618          49.000  
G11  23766353.640       63410.478        2026.591          43.000  
G17  21421936.349      -72355.715       -2308.211          51.750  
G22  23275443.947       25009.074         822.083          46.750  
G28  20998294.801       11055.738         374.317          47.500  
> 2018  4 22 11 21 26.4688020  0  5                     
G 1  23106310.712       63337.834        2018.692          49.000  
G11  23768223.201       63613.147        2026.236          43.000  
G17  21423723.987      -72586.526       -2308.315          51.500  
G22  23277291.618       25091.263         820.951          46.750  
G28  21000132.012       11093.211         374.916          47.750  
> 2018  4 22 11 21 26.5688020  0  5                     
G 1  23108180.981       63539.605        2017.201          49.000  
G11  23770093.744       63815.783        2026.203          43.250  
G17  21425511.931      -72817.381       -2309.167          51.500  
G22  23279139.605       25173.408         820.871          47.000  
G28  21001971.637       11130.613         373.587          47.500  
> 2018  4 22 11 21 26.6688020  0  5                     
G 1  23110050.986       63741.348        2017.598          49.000  
G11  23771964.318       64018.364        2025.895          43.250  
G17  21427299.297      -73048.265       -2309.110          51.500  
G22  23280986.106       25255.533         820.867          46.750  
G28  21003809.868       11168.018         374.205          47.750  
> 2018  4 22 11 21 26.7688020  0  5                     
G 1  23111920.967       63943.048        2016.412          49.000  
G11  23773833.884       64220.926        2024.947          43.250  
G17  21429087.146      -73279.197       -2310.032          51.500  
G22  23282832.668       25337.603         820.752          46.750  
G28  21005648.181       11205.356         372.957          47.750  
> 2018  4 22 11 21 26.8688020  0  5                     
G 1  23113790.532       64144.735        2016.381          49.000  
G11  23775703.852       64423.455        2024.961          43.000  
G17  21430874.418      -73510.135       -2309.489          51.750  
G22  23284679.555       25419.676         820.300          46.500  
G28  21007489.032       11242.695         373.513          48.250  
> 2018  4 22 11 21 26.9688020  0  5                     
G 1  23115660.493       64346.412        2016.530          49.000  
G11  23777573.923       64625.985        2025.033          43.000  
G17  21432661.763      -73741.086       -2310.127          51.750  
G22  23286527.451       25501.747         820.799          47.000  
G28  21009326.403       11280.036         373.750          48.250  
> 2018  4 22 11 21 27.0688020  0  5                     
G 1  23117530.104       64548.054        2016.415          48.750  
G11  23779444.144       64828.485        2024.987          43.000  
G17  21434449.641      -73972.071       -2309.800          51.750  
G22  23288375.488       25583.778         820.916          46.750  
G28  21011166.299       11317.331         373.040          48.000  
> 2018  4 22 11 21 27.1688020  0  5                     
G 1  23119400.628       64749.754        2017.583          49.000  
G11  23781314.416       65031.020        2026.526          43.250  
G17  21436237.037      -74203.011       -2309.586          51.500  
G22  23290222.963       25665.854         820.967          46.500  
G28  21013004.311       11354.684         373.886          48.000  
> 2018  4 22 11 21 27.2688020  0  5                     
G 1  23121270.688       64951.422        2016.807          49.000  
G11  23783185.286       65233.553        2025.323          43.500  
G17  21438024.822      -74433.952       -2309.631          51.500  
G22  23292070.356       25747.936         820.471          47.000  
G28  21014843.227       11392.041         373.164          47.750  
> 2018  4 22 11 21 27.3688020  0  5                     
G 1  23123141.172       65153.103        2016.917          49.000  
G11  23785055.213       65436.079        2026.139          43.000  
G17  21439812.080      -74664.898       -2309.374          51.500  
G22  23293916.857       25830.015         821.265          46.750  
G28  21016683.495       11429.393         373.929          47.750  
> 2018  4 22 11 21 27.4688020  0  5                     
G 1  23125011.172       65354.800        2017.575          49.000  
G11  23786925.802       65638.628        2026.086          43.000  
G17  21441599.786      -74895.836       -2309.785          51.500  
G22  23295763.835       25912.105         821.022          46.750  
G28  21018520.029       11466.763         373.309          47.750  
> 2018  4 22 11 21 27.5688020  0  5                     
G 1  23126880.846       65556.500        2016.466          49.000  
G11  23788796.904       65841.164        2024.950          43.250  
G17  21443387.381      -75126.753       -2309.656          51.500  
G22  23297610.850       25994.218         820.820          46.750  
G28  21020359.794       11504.145         373.308          47.750  
> 2018  4 22 11 21 27.6688020  0  5                     
G 1  23128750.856       65758.163        2016.677          48.750  
G11  23790666.169       66043.696        2025.655          43.250  
G17  21445174.560      -75357.706       -2309.423          51.500  
G22  23299457.459       26076.290         820.880          47.000  
G28  21022198.242       11541.501         373.871          48.250  
> 2018  4 22 11 21 27.7688020  0  5                     
G 1  23130620.040       65959.750        2015.521          48.500  
G11  23792536.279       66246.123        2023.883          43.000  
G17  21446962.598      -75588.745       -2310.803          51.250  
G22  23301305.015       26158.307         820.230          46.750  
G28  21024035.232       11578.785         372.887          47.750  
> 2018  4 22 11 21 27.8688020  0  5                     
G 1  23132489.832       66161.325        2016.092          48.750  
G11  23794406.612       66448.534        2024.548          43.250  
G17  21448749.642      -75819.793       -2310.104          51.250  
G22  23303152.059       26240.299         820.549          47.000  
G28  21025875.231       11616.053         373.263          47.500  
> 2018  4 22 11 21 27.9688020  0  5                     
G 1  23134359.467       66362.946        2016.386          48.500  
G11  23796275.506       66651.003        2025.380          43.250  
G17  21450537.506      -76050.790       -2309.321          51.500  
G22  23304999.795       26322.343         821.153          46.750  
G28  21027712.623       11653.385         374.294          47.250  
> 2018  4 22 11 21 28.0688020  0  5                     
G 1  23136229.235       66564.652        2017.310          49.000  
G11  23798145.788       66853.563        2024.868          43.000  
G17  21452325.557      -76281.702       -2308.876          51.250  
G22  23306847.313       26404.467         820.965          47.000  
G28  21029552.459       11690.784         374.689          48.250  
> 2018  4 22 11 21 28.1688020  0  5                     
G 1  23138099.409       66766.373        2016.876          48.750  
G11  23800016.525       67056.133        2025.421          43.250  
G17  21454113.377      -76512.591       -2309.237          51.750  
G22  23308694.107       26486.626         820.839          47.250  
G28  21031391.916       11728.214         374.333          48.250  
> 2018  4 22 11 21 28.2688020  0  5                     
G 1  23139969.544       66968.047        2016.730          48.750  
G11  23801886.817       67258.663        2025.702          42.750  
G17  21455901.645      -76743.541       -2309.375          51.500  
G22  23310541.961       26568.736         821.300          47.000  
G28  21033229.388       11765.592         374.657          47.750  
> 2018  4 22 11 21 28.3688020  0  5                     
G 1  23141839.835       67169.784        2018.449          48.750  
G11  23803759.026       67461.249        2026.556          43.000  
G17  21457689.866      -76974.429       -2308.411          51.750  
G22  23312387.911       26650.906         822.940          47.250  
G28  21035069.493       11803.040         374.839          47.500  
> 2018  4 22 11 21 28.4688020  0  5                     
G 1  23143709.297       67371.642        2019.102          48.500  
G11  23805628.044       67663.944        2026.892          42.750  
G17  21459477.501      -77205.195       -2308.241          51.500  
G22  23314235.245       26733.207         821.876          47.000  
G28  21036907.223       11840.629         375.963          48.000  
> 2018  4 22 11 21 28.5688020  0  5                     
G 1  23145579.160       67573.507        2019.131          48.750  
G11  23807497.458       67866.667        2029.863          43.000  
G17  21461265.184      -77435.942       -2307.273          51.500  
G22  23316083.006       26815.503         823.443          46.750  
G28  21038745.654       11878.205         376.354          47.750  
> 2018  4 22 11 21 28.6688020  0  5                     
G 1  23147449.021       67775.358        2018.142          49.000  
G11  23809367.511       68069.342        2026.874          42.750  
G17  21463052.683      -77666.713       -2308.113          51.500  
G22  23317930.100       26897.800         822.721          47.000  
G28  21040585.565       11915.782         376.124          47.500  
> 2018  4 22 11 21 28.7688020  0  5                     
G 1  23149319.131       67977.169        2017.789          48.750  
G11  23811238.055       68271.999        2026.884          43.250  
G17  21464840.377      -77897.504       -2308.210          51.500  
G22  23319776.751       26980.080         823.371          47.000  
G28  21042422.477       11953.339         375.007          47.750  
> 2018  4 22 11 21 28.8688020  0  5                     
G 1  23151188.968       68178.946        2017.895          48.750  
G11  23813108.984       68474.627        2026.669          43.000  
G17  21466628.082      -78128.345       -2308.470          51.500  
G22  23321624.368       27062.308         821.780          47.000  
G28  21044262.148       11990.845         374.913          47.750  
> 2018  4 22 11 21 28.9688020  0  5                     
G 1  23153059.263       68380.726        2018.202          48.750  
G11  23814978.596       68677.265        2026.996          43.250  
G17  21468415.367      -78359.175       -2307.938          51.500  
G22  23323471.830       27144.557         822.500          47.250  
G28  21046100.655       12028.372         375.266          47.750  
> 2018  4 22 11 21 29.0688020  0  5                     
G 1  23154929.053       68582.513        2017.855          49.000  
G11  23816847.948       68879.906        2027.620          43.000  
G17  21470203.557      -78589.996       -2308.085          51.500  
G22  23325319.199       27226.808         823.192          47.250  
G28  21047939.168       12065.909         375.447          47.750  
> 2018  4 22 11 21 29.1688020  0  5                     
G 1  23156798.782       68784.294        2017.867          48.500  
G11  23818717.997       69082.534        2027.882          42.750  
G17  21471990.530      -78820.831       -2308.185          51.000  
G22  23327166.506       27309.045         822.512          46.750  
G28  21049779.956       12103.439         375.700          47.750  
> 2018  4 22 11 21 29.2688020  0  5                     
G 1  23158669.619       68986.074        2018.281          49.000  
G11  23820587.889       69285.147        2025.326          43.000  
G17  21473778.412      -79051.664       -2308.121          51.250  
G22  23329014.117       27391.301         822.597          47.250  
G28  21051617.100       12140.971         375.729          47.750  
> 2018  4 22 11 21 29.3688020  0  5                     
G 1  23160539.887       69187.868        2018.551          49.000  
G11  23822457.339       69487.793        2026.648          42.750  
G17  21475566.318      -79282.475       -2307.915          51.500  
G22  23330861.548       27473.579         823.056          46.750  
G28  21053456.383       12178.525         376.019          48.000  
> 2018  4 22 11 21 29.4688020  0  5                     
G 1  23162409.938       69389.689        2019.025          48.750  
G11  23824328.417       69690.460        2027.253          42.750  
G17  21477353.898      -79513.273       -2307.743          51.500  
G22  23332709.354       27555.883         823.685          46.750  
G28  21055295.825       12216.095         375.770          47.750  
> 2018  4 22 11 21 29.5688020  0  5                     
G 1  23164280.717       69591.531        2019.137          48.750  
G11  23826199.019       69893.136        2026.883          42.750  
G17  21479141.893      -79744.035       -2307.649          51.500  
G22  23334555.778       27638.199         823.365          46.750  
G28  21057134.295       12253.710         375.650          48.000  
> 2018  4 22 11 21 29.6688020  0  5                     
G 1  23166150.262       69793.409        2018.873          48.500  
G11  23828068.043       70095.858        2026.941          42.750  
G17  21480929.246      -79974.777       -2307.643          51.500  
G22  23336403.406       27720.554         823.355          46.750  
G28  21058974.426       12291.345         376.453          48.000  
> 2018  4 22 11 21 29.7688020  0  5                     
G 1  23168020.265       69995.346        2019.749          48.750  
G11  23829937.355       70298.641        2028.043          43.000  
G17  21482717.155      -80205.437       -2306.643          51.500  
G22  23338250.514       27802.976         824.776          47.250  
G28  21060810.655       12329.062         377.449          47.750  
> 2018  4 22 11 21 29.8688020  0  5                     
G 1  23169890.613       70197.252        2018.516          48.750  
G11  23831807.684       70501.392        2027.497          42.500  
G17  21484504.656      -80436.150       -2307.651          51.500  
G22  23340098.085       27885.385         824.213          47.250  
G28  21062650.268       12366.739         376.742          47.500  
> 2018  4 22 11 21 29.9688020  0  5                     
G 1  23171761.287       70399.124        2018.020          48.750  
G11  23833677.906       70704.117        2026.487          42.500  
G17  21486292.450      -80666.873       -2308.081          51.000  
G22  23341945.141       27967.755         824.340          47.000  
G28  21064488.649       12404.404         375.799          47.750  
> 2018  4 22 11 21 30.0688020  0  5                     
G 1  23173630.771       70600.954        2018.365          49.000  
G11  23835548.145       70906.798        2027.790          42.750  
G17  21488080.206      -80897.648       -2307.754          51.250  
G22  23343792.392       28050.090         823.212          47.000  
G28  21066325.660       12442.024         376.520          47.500  
> 2018  4 22 11 21 30.1688020  0  5                     
G 1  23175500.418       70802.797        2018.241          48.750  
G11  23837418.250       71109.460        2026.511          42.250  
G17  21489867.800      -81128.409       -2307.576          51.250  
G22  23345638.777       28132.436         824.056          47.000  
G28  21068165.206       12479.647         376.316          47.500  
> 2018  4 22 11 21 30.2688020  0  5                     
G 1  23177369.452       71004.566        2017.823          48.500  
G11  23839288.780       71312.079        2025.703          43.000  
G17  21491655.352      -81359.253       -2308.416          51.250  
G22  23347486.235       28214.709         822.852          47.000  
G28  21070003.513       12517.212         375.509          47.500  
> 2018  4 22 11 21 30.3688020  0  5                     
G 1  23179239.401       71206.307        2017.111          49.000  
G11  23841157.997       71514.658        2025.780          42.750  
G17  21493443.174      -81590.104       -2308.888          51.500  
G22  23349334.137       28296.974         822.701          47.000  
G28  21071841.783       12554.761         375.125          47.500  
> 2018  4 22 11 21 30.4688020  0  5                     
G 1  23181109.432       71408.055        2017.548          49.000  
G11  23843029.050       71717.252        2025.461          42.750  
G17  21495230.940      -81820.961       -2308.238          51.500  
G22  23351181.853       28379.235         822.906          47.500  
G28  21073681.989       12592.298         375.880          47.500  
> 2018  4 22 11 21 30.5688020  0  5                     
G 1  23182979.130       71609.777        2017.590          48.750  
G11  23844898.684       71919.814        2025.928          42.750  
G17  21497019.012      -82051.834       -2309.363          51.250  
G22  23353029.841       28461.472         822.638          47.250  
G28  21075518.997       12629.848         375.861          47.500  
> 2018  4 22 11 21 30.6688020  0  5                     
G 1  23184849.640       71811.582        2018.761          48.750  
G11  23846767.886       72122.473        2027.541          42.750  
G17  21498806.056      -82282.638       -2308.015          51.500  
G22  23354876.927       28543.790         822.834          46.750  
G28  21077358.912       12667.466         376.235          47.250  
> 2018  4 22 11 21 30.7688020  0  5                     
G 1  23186720.217       72013.405        2019.073          48.500  
G11  23848637.946       72325.143        2027.307          42.750  
G17  21500593.536      -82513.404       -2307.606          51.000  
G22  23356724.115       28626.164         824.070          47.000  
G28  21079197.814       12705.100         376.362          47.750  
> 2018  4 22 11 21 30.8688020  0  5                     
G 1  23188590.491       72215.275        2019.001          49.000  
G11  23850508.252       72527.834        2027.157          42.750  
G17  21502380.889      -82744.138       -2306.538          51.500  
G22  23358570.095       28708.551         824.461          46.750  
G28  21081036.394       12742.786         376.950          48.000  
> 2018  4 22 11 21 30.9688020  0  5                     
G 1  23190459.921       72417.136        2018.283          49.000  
G11  23852377.362       72730.541        2026.461          42.500  
G17  21504168.787      -82974.860       -2307.753          51.250  
G22  23360416.793       28790.961         823.852          47.000  
G28  21082876.673       12780.475         375.689          48.000  
> 2018  4 22 11 21 31.0688020  0  5                     
G 1  23192329.965       72618.979        2018.448          49.000  
G11  23854247.259       72933.221        2027.673          42.500  
G17  21505956.047      -83205.625       -2307.439          51.500  
G22  23362263.561       28873.329         823.972          47.000  
G28  21084713.735       12818.144         376.901          47.750  
> 2018  4 22 11 21 31.1688020  0  5                     
G 1  23194199.720       72820.806        2017.965          48.750  
G11  23856117.842       73135.893        2026.343          42.750  
G17  21507743.661      -83436.395       -2308.729          51.000  
G22  23364110.498       28955.690         822.818          47.500  
G28  21086553.232       12855.797         376.623          47.750  
> 2018  4 22 11 21 31.2688020  0  5                     
G 1  23196069.944       73022.598        2018.374          48.750  
G11  23857988.725       73338.529        2026.226          42.250  
G17  21509531.610      -83667.216       -2308.253          51.500  
G22  23365958.116       29038.030         823.438          47.000  
G28  21088392.261       12893.418         376.124          47.750  
> 2018  4 22 11 21 31.3688020  0  5                     
G 1  23197940.667       73224.384        2017.936          48.750  
G11  23859860.685       73541.148        2025.359          42.500  
G17  21511319.877      -83898.016       -2308.156          51.250  
G22  23367805.900       29120.370         823.491          47.000  
G28  21090229.765       12931.047         376.248          47.750  
> 2018  4 22 11 21 31.4688020  0  5                     
G 1  23199810.418       73426.061        2016.275          48.750  
G11  23861730.903       73743.660        2025.047          42.500  
G17  21513107.138      -84128.936       -2309.221          51.250  
G22  23369651.978       29202.603         822.220          47.250  
G28  21092070.014       12968.573         375.399          47.750  
> 2018  4 22 11 21 31.5688020  0  5                     
G 1  23201680.227       73627.736        2017.464          49.000  
G11  23863600.096       73946.187        2024.842          42.500  
G17  21514895.167      -84359.855       -2309.304          51.000  
G22  23371499.100       29284.826         822.526          47.250  
G28  21093906.883       13006.094         375.329          47.750  
> 2018  4 22 11 21 31.6688020  0  5                     
G 1  23203550.552       73829.400        2016.538          49.000  
G11  23865470.821       74148.685        2025.443          42.500  
G17  21516683.070      -84590.784       -2309.469          51.250  
G22  23373347.978       29367.049         822.014          47.000  
G28  21095745.774       13043.604         375.190          47.500  
> 2018  4 22 11 21 31.7688020  0  5                     
G 1  23205420.708       74031.024        2016.430          48.750  
G11  23867340.256       74351.152        2025.127          42.750  
G17  21518470.856      -84821.753       -2309.741          51.250  
G22  23375194.343       29449.246         821.856          47.000  
G28  21097585.002       13081.085         374.980          47.750  
> 2018  4 22 11 21 31.8688020  0  5                     
G 1  23207290.042       74232.652        2016.024          48.750  
G11  23869210.423       74553.624        2024.310          43.000  
G17  21520258.585      -85052.710       -2310.100          51.000  
G22  23377041.427       29531.455         821.751          47.000  
G28  21099422.783       13118.583         375.231          47.250  
> 2018  4 22 11 21 31.9688020  0  5                     
G 1  23209160.225       74434.236        2016.032          48.750  
G11  23871079.974       74756.031        2023.687          42.750  
G17  21522045.535      -85283.733       -2310.461          51.250  
G22  23378889.578       29613.595         821.143          47.500  
G28  21101262.948       13156.022         374.483          47.750  
> 2018  4 22 11 21 32.0688020  0  5                     
G 1  23211030.474       74635.747        2015.245          49.000  
G11  23872949.699       74958.381        2023.247          43.000  
G17  21523833.188      -85514.794       -2310.624          51.250  
G22  23380736.971       29695.687         821.037          47.250  
G28  21103100.885       13193.410         374.384          47.750  
> 2018  4 22 11 21 32.1688020  0  5                     
G 1  23212899.837       74837.261        2015.276          48.750  
G11  23874819.851       75160.742        2023.207          42.750  
G17  21525620.079      -85745.870       -2310.636          51.250  
G22  23382584.077       29777.787         821.243          47.000  
G28  21104938.908       13230.798         373.786          47.500  
> 2018  4 22 11 21 32.2688020  0  5                     
G 1  23214769.562       75038.806        2016.048          48.750  
G11  23876690.671       75363.116        2023.956          42.500  
G17  21527407.571      -85976.914       -2310.183          51.250  
G22  23384431.281       29859.915         822.371          47.250  
G28  21106778.932       13268.223         375.237          47.500  
> 2018  4 22 11 21 32.3688020  0  5                     
G 1  23216639.118       75240.451        2016.854          48.750  
G11  23878562.139       75565.614        2025.516          42.250  
G17  21529195.144      -86207.853       -2308.568          51.250  
G22  23386278.618       29942.145         822.941          47.500  
G28  21108616.032       13305.747         376.254          47.250  
> 2018  4 22 11 21 32.4688020  0  5                     
G 1  23218509.188       75442.121        2017.915          48.750  
G11  23880433.486       75768.136        2024.905          42.500  
G17  21530982.415      -86438.771       -2309.063          51.000  
G22  23388125.566       30024.408         823.369          47.000  
G28  21110455.200       13343.301         376.472          47.250  
> 2018  4 22 11 21 32.5688020  0  5                     
G 1  23220379.098       75643.910        2018.946          48.750  
G11  23882303.979       75970.735        2026.467          42.750  
G17  21532769.884      -86669.581       -2307.567          51.250  
G22  23389973.766       30106.782         824.041          47.250  
G28  21112293.495       13380.974         377.673          47.500  
> 2018  4 22 11 21 32.6688020  0  5                     
G 1  23222249.858       75845.753        2019.426          48.750  
G11  23884173.682       76173.426        2027.807          43.000  
G17  21534556.912      -86900.319       -2307.181          51.000  
G22  23391821.262       30189.233         824.856          47.250  
G28  21114131.897       13418.719         378.109          47.750  
> 2018  4 22 11 21 32.7688020  0  5                     
G 1  23224119.936       76047.631        2018.162          49.000  
G11  23886043.396       76376.139        2026.332          43.250  
G17  21536344.986      -87131.023       -2307.462          51.250  
G22  23393669.015       30271.717         824.625          47.250  
G28  21115972.002       13456.499         378.062          48.000  
> 2018  4 22 11 21 32.8688020  0  5                     
G 1  23225989.583       76249.515        2019.682          48.750  
G11  23887911.490       76578.864        2027.898          43.000  
G17  21538132.293      -87361.723       -2307.053          51.000  
G22  23395516.679       30354.213         825.585          47.250  
G28  21117810.516       13494.291         378.245          47.750  
> 2018  4 22 11 21 32.9688020  0  5                     
G 1  23227859.291       76451.478        2019.609          48.750  
G11  23889781.982       76781.658        2027.754          42.750  
G17  21539920.220      -87592.330       -2305.647          51.250  
G22  23397363.177       30436.784         826.391          47.250  
G28  21119650.383       13532.162         379.252          48.000  
> 2018  4 22 11 21 33.0688020  0  5                     
G 1  23229729.973       76653.451        2019.991          48.750  
G11  23891653.129       76984.473        2027.701          42.750  
G17  21541708.243      -87822.944       -2306.261          51.250  
G22  23399209.789       30519.364         825.411          47.000  
G28  21121489.323       13570.044         378.771          47.750  
> 2018  4 22 11 21 33.1688020  0  5                     
G 1  23231599.551       76855.427        2020.381          48.750  
G11  23893523.597       77187.286        2027.721          43.000  
G17  21543495.689      -88053.557       -2306.458          51.250  
G22  23401057.164       30601.946         825.643          47.500  
G28  21123327.755       13607.925         379.179          48.000  
> 2018  4 22 11 21 33.2688020  0  5                     
G 1  23233469.317       77057.432        2020.079          48.750  
G11  23895394.918       77390.125        2029.046          43.000  
G17  21545283.777      -88284.140       -2305.772          51.000  
G22  23402903.875       30684.575         826.602          47.250  
G28  21125167.915       13645.848         378.615          47.750  
> 2018  4 22 11 21 33.3688020  0  5                     
G 1  23235340.086       77259.395        2019.297          49.000  
G11  23897263.735       77592.934        2027.790          43.000  
G17  21547071.063      -88514.742       -2306.139          51.250  
G22  23404751.964       30767.175         825.459          47.250  
G28  21127004.976       13683.759         379.000          48.250  
> 2018  4 22 11 21 33.4688020  0  5                     
G 1  23237210.092       77461.381        2020.585          48.750  
G11  23899133.106       77795.733        2027.943          43.250  
G17  21548858.552      -88745.343       -2305.277          51.250  
G22  23406599.830       30849.770         825.743          47.250  
G28  21128844.084       13721.659         379.478          47.750  
> 2018  4 22 11 21 33.5688020  0  5                     
G 1  23239079.964       77663.379        2019.231          49.000  
G11  23901003.851       77998.579        2026.150          42.500  
G17  21550646.305      -88975.922       -2307.067          51.250  
G22  23408447.025       30932.405         825.747          47.250  
G28  21130683.509       13759.592         378.325          47.750  
> 2018  4 22 11 21 33.6688020  0  5                     
G 1  23240949.824       77865.328        2018.896          48.750  
G11  23902874.594       78201.372        2027.623          43.000  
G17  21552433.521      -89206.553       -2306.724          51.000  
G22  23410293.783       31015.003         826.252          47.250  
G28  21132521.106       13797.484         378.593          48.000  
> 2018  4 22 11 21 33.7688020  0  5                     
G 1  23242820.688       78067.289        2019.992          49.000  
G11  23904744.025       78404.159        2026.744          43.000  
G17  21554221.205      -89437.168       -2306.715          51.000  
G22  23412141.160       31097.591         826.150          47.500  
G28  21134362.063       13835.376         378.673          47.750  
> 2018  4 22 11 21 33.8688020  0  5                     
G 1  23244690.989       78269.262        2019.763          49.000  
G11  23906614.292       78606.961        2028.101          43.250  
G17  21556008.565      -89667.782       -2306.287          51.250  
G22  23413988.490       31180.205         826.471          47.250  
G28  21136199.693       13873.291         379.102          47.750  
> 2018  4 22 11 21 33.9688020  0  5                     
G 1  23246560.470       78471.214        2020.544          48.750  
G11  23908484.498       78809.755        2029.054          43.250  
G17  21557796.216      -89898.400       -2305.936          51.000  
G22  23415835.393       31262.797         826.129          47.500  
G28  21138039.579       13911.178         379.041          47.750  
> 2018  4 22 11 21 34.0688020  0  5                     
G 1  23248430.464       78673.154        2019.456          49.000  
G11  23910356.524       79012.528        2027.357          43.500  
G17  21559583.976      -90129.032       -2306.854          51.250  
G22  23417683.005       31345.395         825.840          47.250  
G28  21139877.951       13949.091         379.080          47.750  
> 2018  4 22 11 21 34.1688020  0  5                     
G 1  23250300.344       78875.072        2019.202          48.500  
G11  23912227.006       79215.272        2027.443          43.250  
G17  21561371.753      -90359.688       -2307.128          51.000  
G22  23419530.400       31427.970         825.983          47.250  
G28  21141715.560       13986.957         378.019          47.500  
> 2018  4 22 11 21 34.2688020  0  5                     
G 1  23252169.975       79076.897        2018.284          48.750  
G11  23914097.264       79417.922        2025.696          43.250  
G17  21563159.574      -90590.441       -2307.779          51.000  
G22  23421377.598       31510.450         823.668          47.500  
G28  21143556.219       14024.741         377.887          47.750  
> 2018  4 22 11 21 34.3688020  0  5                     
G 1  23254040.175       79278.639        2017.071          48.750  
G11  23915967.170       79620.510        2025.299          43.250  
G17  21564947.303      -90821.264       -2309.120          51.000  
G22  23423224.233       31592.871         824.481          47.250  
G28  21145392.440       14062.463         377.044          47.750  
> 2018  4 22 11 21 34.4688020  0  5                     
G 1  23255910.044       79480.376        2017.267          48.500  
G11  23917836.964       79823.072        2025.414          43.250  
G17  21566734.680      -91052.107       -2309.094          51.250  
G22  23425071.397       31675.258         823.538          47.500  
G28  21147231.538       14100.150         376.615          47.750  
> 2018  4 22 11 21 34.5688020  0  5                     
G 1  23257779.804       79682.098        2017.433          48.750  
G11  23919706.546       80025.648        2025.530          43.000  
G17  21568522.179      -91282.943       -2308.716          50.750  
G22  23426918.094       31757.645         823.539          47.000  
G28  21149071.019       14137.861         376.894          47.500  
> 2018  4 22 11 21 34.6688020  0  5                     
G 1  23259649.417       79883.833        2016.697          48.750  
G11  23921576.705       80228.197        2025.010          43.000  
G17  21570309.482      -91513.791       -2309.164          51.000  
G22  23428765.695       31840.042         823.327          47.250  
G28  21150908.574       14175.564         376.641          47.750  
> 2018  4 22 11 21 34.7688020  0  5                     
G 1  23261519.527       80085.533        2017.319          49.000  
G11  23923447.094       80430.728        2024.960          43.250  
G17  21572096.899      -91744.656       -2308.970          51.000  
G22  23430613.219       31922.424         823.620          47.500  
G28  21152748.697       14213.246         376.023          47.750  
> 2018  4 22 11 21 34.8688020  0  5                     
G 1  23263389.675       80287.286        2017.717          48.750  
G11  23925318.418       80633.305        2025.938          43.000  
G17  21573884.601      -91975.484       -2308.582          51.000  
G22  23432460.621       32004.860         824.030          47.500  
G28  21154587.202       14250.994         377.475          47.750  
> 2018  4 22 11 21 34.9688020  0  5                     
G 1  23265259.776       80489.070        2017.796          48.750  
G11  23927187.699       80835.949        2026.979          43.250  
G17  21575671.949      -92206.252       -2307.796          51.000  
G22  23434307.742       32087.332         825.189          47.750  
G28  21156425.291       14288.771         377.601          47.750  
> 2018  4 22 11 21 35.0688020  0  5                     
G 1  23267130.001       80690.929        2019.087          49.000  
G11  23929057.874       81038.623        2028.191          43.250  
G17  21577460.089      -92436.969       -2307.054          51.000  
G22  23436154.612       32169.883         825.784          47.250  
G28  21158264.525       14326.611         377.899          47.750  
> 2018  4 22 11 21 35.1688020  0  5                     
G 1  23268999.848       80892.853        2019.867          48.750  
G11  23930928.642       81241.371        2027.546          43.500  
G17  21579247.484      -92667.616       -2305.900          50.750  
G22  23438001.880       32252.480         826.769          47.000  
G28  21160100.942       14364.522         378.624          47.250  
> 2018  4 22 11 21 35.2688020  0  5                     
G 1  23270869.261       81094.808        2019.745          48.500  
G11  23932799.012       81444.163        2028.306          43.250  
G17  21581035.513      -92898.223       -2306.529          50.750  
G22  23439849.739       32335.150         826.584          47.250  
G28  21161940.407       14402.508         380.336          47.750  
> 2018  4 22 11 21 35.3688020  0  5                     
G 1  23272739.014       81296.826        2021.084          48.750  
G11  23934669.528       81647.007        2027.811          43.500  
G17  21582822.683      -93128.765       -2304.555          51.000  
G22  23441697.825       32417.853         827.663          47.250  
G28  21163779.900       14440.519         380.870          47.500  
> 2018  4 22 11 21 35.4688020  0  5                     
G 1  23274609.218       81498.902        2020.631          48.750  
G11  23936539.183       81849.915        2028.884          43.500  
G17  21584609.778      -93359.265       -2305.768          51.000  
G22  23443545.856       32500.637         828.006          47.250  
G28  21165618.283       14478.602         380.199          47.500  
> 2018  4 22 11 21 35.5688020  0  5                     
G 1  23276478.832       81700.902        2020.423          48.750  
G11  23938409.469       82052.747        2028.794          43.750  
G17  21586397.761      -93589.828       -2305.782          51.000  
G22  23445393.482       32583.340         826.705          47.500  
G28  21167458.839       14516.624         380.110          47.750  
> 2018  4 22 11 21 35.6688020  0  5                     
G 1  23278348.392       81902.912        2020.583          48.750  
G11  23940279.998       82255.584        2029.100          43.750  
G17  21588184.990      -93820.387       -2305.680          51.000  
G22  23447240.446       32666.058         826.993          47.500  
G28  21169295.759       14554.648         380.660          47.500  
> 2018  4 22 11 21 35.7688020  0  5                     
G 1  23280218.658       82104.919        2020.693          48.500  
G11  23942150.939       82458.431        2029.296          43.750  
G17  21589972.995      -94050.936       -2305.217          50.750  
G22  23449086.872       32748.776         827.766          47.000  
G28  21171134.892       14592.680         380.877          47.750  
> 2018  4 22 11 21 35.8688020  0  5                     
G 1  23282088.978       82306.895        2020.658          48.750  
G11  23944021.807       82661.226        2027.215          43.750  
G17  21591760.466      -94281.522       -2305.519          51.000  
G22  23450934.362       32831.458         827.398          47.500  
G28  21172974.151       14630.670         380.119          47.750  
> 2018  4 22 11 21 35.9688020  0  5                     
G 1  23283959.338       82508.905        2020.022          48.500  
G11  23945891.707       82864.072        2028.107          43.750  
G17  21593548.641      -94512.080       -2306.061          50.750  
G22  23452781.275       32914.197         827.551          47.250  
G28  21174812.408       14668.729         380.655          47.500  
> 2018  4 22 11 21 36.0688020  0  5                     
G 1  23285829.793       82710.923        2020.796          48.750  
G11  23947761.464       83066.922        2029.720          43.750  
G17  21595336.201      -94742.610       -2305.315          50.750  
G22  23454627.806       32996.952         827.525          47.500  
G28  21176652.990       14706.785         380.807          47.750  
> 2018  4 22 11 21 36.1688020  0  5                     
G 1  23287699.248       82912.980        2019.960          48.750  
G11  23949631.205       83269.816        2027.420          43.750  
G17  21597123.263      -94973.114       -2305.740          51.000  
G22  23456475.342       33079.734         827.868          47.500  
G28  21178490.032       14744.883         381.193          47.750  
> 2018  4 22 11 21 36.2688020  0  5                     
G 1  23289569.020       83115.006        2020.295          48.750  
G11  23951501.577       83472.671        2029.456          43.750  
G17  21598911.286      -95203.639       -2304.572          51.000  
G22  23458323.242       33162.500         827.858          47.500  
G28  21180328.958       14782.964         380.578          47.500  
> 2018  4 22 11 21 36.3688020  0  5                     
G 1  23291439.021       83317.093        2020.863          48.750  
G11  23953372.263       83675.582        2029.573          43.750  
G17  21600699.145      -95434.116       -2304.911          51.000  
G22  23460171.551       33245.320         828.434          47.250  
G28  21182167.950       14821.082         381.617          47.500  
> 2018  4 22 11 21 36.4688020  0  5                     
G 1  23293309.223       83519.195        2020.914          48.500  
G11  23955242.097       83878.513        2029.583          43.750  
G17  21602486.656      -95664.572       -2304.522          50.750  
G22  23462019.085       33328.165         829.100          47.500  
G28  21184005.993       14859.246         381.643          47.500  
> 2018  4 22 11 21 36.5688020  0  5                     
G 1  23295179.276       83721.303        2021.440          48.750  
G11  23957112.413       84081.452        2029.427          43.750  
G17  21604274.454      -95895.018       -2304.222          51.000  
G22  23463865.657       33411.007         828.008          47.500  
G28  21185847.193       14897.413         381.621          47.500  
> 2018  4 22 11 21 36.6688020  0  5                     
G 1  23297049.263       83923.436        2021.682          48.750  
G11  23958981.048       84284.406        2030.227          43.750  
G17  21606062.334      -96125.449       -2304.618          51.000  
G22  23465713.091       33493.889         828.326          47.500  
G28  21187683.982       14935.607         381.352          47.750  
> 2018  4 22 11 21 36.7688020  0  5                     
G 1  23298919.390       84125.578        2022.219          48.500  
G11  23960850.824       84487.372        2030.069          43.750  
G17  21607850.287      -96355.858       -2303.307          50.750  
G22  23467560.905       33576.777         830.330          47.500  
G28  21189523.667       14973.811         383.594          47.750  
> 2018  4 22 11 21 36.8688020  0  5                     
G 1  23300790.800       84327.709        2020.359          48.750  
G11  23962720.273       84690.348        2029.134          43.250  
G17  21609638.041      -96586.278       -2304.260          51.000  
G22  23469407.578       33659.674         827.627          47.500  
G28  21191362.474       15012.017         382.038          47.750  
> 2018  4 22 11 21 36.9688020  0  5                     
G 1  23302660.901       84529.839        2021.669          48.750  
G11  23964591.016       84893.286        2029.221          43.250  
G17  21611425.718      -96816.697       -2304.199          50.750  
G22  23471254.907       33742.564         829.538          47.500  
G28  21193199.819       15050.214         382.358          47.500  
> 2018  4 22 11 21 37.0688020  0  5                     
G 1  23304530.540       84731.979        2021.750          48.750  
G11  23966460.332       85096.247        2029.210          43.250  
G17  21613213.334      -97047.121       -2304.253          50.750  
G22  23473102.000       33825.457         829.857          47.500  
G28  21195040.274       15088.417         381.730          47.750  
> 2018  4 22 11 21 37.1688020  0  5                     
G 1  23306400.486       84934.114        2020.989          48.750  
G11  23968330.698       85299.201        2029.539          43.750  
G17  21615000.423      -97277.548       -2304.610          50.750  
G22  23474948.770       33908.343         828.162          47.500  
G28  21196879.015       15126.635         382.210          47.500  
> 2018  4 22 11 21 37.2688020  0  5                     
G 1  23308270.088       85136.167        2020.173          48.750  
G11  23970201.150       85502.103        2028.856          43.750  
G17  21616788.048      -97508.039       -2305.741          50.750  
G22  23476796.048       33991.184         827.649          47.500  
G28  21198718.685       15164.777         380.492          47.500  
> 2018  4 22 11 21 37.3688020  0  5                     
G 1  23310140.519       85338.192        2020.017          48.500  
G11  23972070.267       85704.936        2027.835          43.750  
G17  21618575.926      -97738.560       -2305.491          50.750  
G22  23478644.185       34073.972         827.571          47.500  
G28  21200557.205       15202.891         380.875          47.500  
> 2018  4 22 11 21 37.4688020  0  5                     
G 1  23312010.285       85540.172        2020.052          48.500  
G11  23973941.195       85907.746        2027.924          43.750  
G17  21620363.562      -97969.129       -2305.844          51.000  
G22  23480491.207       34156.738         827.538          47.250  
G28  21202395.388       15240.969         380.420          47.750  
> 2018  4 22 11 21 37.5688020  0  5                     
G 1  23313880.125       85742.150        2020.283          48.500  
G11  23975812.081       86110.551        2028.967          44.000  
G17  21622151.578      -98199.703       -2305.666          51.000  
G22  23482338.864       34239.488         827.553          47.750  
G28  21204235.685       15279.042         381.136          47.750  
> 2018  4 22 11 21 37.6688020  0  5                     
G 1  23315750.632       85944.118        2020.274          48.750  
G11  23977683.189       86313.367        2028.949          43.750  
G17  21623939.332      -98430.280       -2305.137          50.750  
G22  23484186.509       34322.249         828.249          47.500  
G28  21206071.908       15317.111         380.885          47.500  
> 2018  4 22 11 21 37.7688020  0  5                     
G 1  23317620.561       86146.167        2020.571          48.750  
G11  23979552.825       86516.229        2027.661          43.750  
G17  21625726.625      -98660.770       -2305.179          50.750  
G22  23486035.073       34405.088         828.226          47.750  
G28  21207911.195       15355.275         381.035          47.500  
> 2018  4 22 11 21 37.8688020  0  5                     
G 1  23319491.266       86348.281        2021.756          48.750  
G11  23981423.175       86719.168        2030.444          43.750  
G17  21627514.765      -98891.212       -2303.768          50.750  
G22  23487881.436       34487.993         829.214          47.500  
G28  21209750.816       15393.499         383.126          47.750  
> 2018  4 22 11 21 37.9688020  0  5                     
G 1  23321360.311       86550.450        2021.588          48.750  
G11  23983293.778       86922.154        2030.300          43.750  
G17  21629302.048      -99121.601       -2303.812          50.750  
G22  23489728.393       34570.958         830.337          47.500  
G28  21211588.027       15431.777         382.604          47.500  
> 2018  4 22 11 21 38.0688020  0  5                     
G 1  23323230.069       86752.643        2021.595          48.250  
G11  23985164.548       87125.164        2029.962          43.500  
G17  21631090.549      -99351.947       -2303.479          50.500  
G22  23491575.655       34653.941         829.317          47.750  
G28  21213428.046       15470.086         383.166          47.500  
> 2018  4 22 11 21 38.1688020  0  5                     
G 1  23325100.382       86954.829        2022.336          48.500  
G11  23987035.243       87328.181        2030.799          44.000  
G17  21632878.517      -99582.309       -2303.766          50.750  
G22  23493422.506       34736.926         830.068          47.750  
G28  21215265.681       15508.398         383.428          47.750  
> 2018  4 22 11 21 38.2688020  0  5                     
G 1  23326970.588       87157.029        2021.881          48.500  
G11  23988904.945       87531.193        2030.371          43.750  
G17  21634666.163      -99812.648       -2303.768          50.500  
G22  23495270.008       34819.944         830.108          47.500  
G28  21217104.341       15546.723         382.669          47.500  
> 2018  4 22 11 21 38.3688020  0  5                     
G 1  23328841.026       87359.177        2020.925          48.750  
G11  23990774.510       87734.188        2029.924          44.000  
G17  21636453.849     -100043.040       -2304.241          50.750  
G22  23497117.982       34902.906         829.558          47.500  
G28  21218945.107       15585.014         383.316          47.750  
> 2018  4 22 11 21 38.4688020  0  5                     
G 1  23330710.757       87561.331        2021.435          48.750  
G11  23992644.636       87937.160        2029.761          43.750  
G17  21638241.068     -100273.432       -2304.487          50.750  
G22  23498966.383       34985.880         829.706          47.500  
G28  21220782.633       15623.300         382.604          47.750  
> 2018  4 22 11 21 38.5688020  0  5                     
G 1  23332581.587       87763.443        2021.113          48.750  
G11  23994513.955       88140.076        2028.941          44.000  
G17  21640028.497     -100503.867       -2304.452          50.750  
G22  23500812.974       35068.804         829.381          47.750  
G28  21222623.901       15661.544         381.989          47.750  
> 2018  4 22 11 21 38.6688020  0  5                     
G 1  23334451.804       87965.561        2021.030          48.750  
G11  23996385.391       88343.027        2029.736          43.750  
G17  21641815.799     -100734.289       -2304.518          50.750  
G22  23502660.747       35151.742         830.023          47.750  
G28  21224461.779       15699.813         383.204          47.500  
> 2018  4 22 11 21 38.7688020  0  5                     
G 1  23336322.250       88167.637        2020.616          48.500  
G11  23998255.339       88545.932        2029.784          43.750  
G17  21643603.557     -100964.742       -2304.356          50.750  
G22  23504508.064       35234.646         829.421          47.750  
G28  21226300.509       15738.042         382.307          47.500  
> 2018  4 22 11 21 38.8688020  0  5                     
G 1  23338191.740       88369.739        2021.647          48.500  
G11  24000126.567       88748.844        2029.195          43.750  
G17  21645391.775     -101195.193       -2304.521          50.750  
G22  23506354.998       35317.573         829.283          47.750  
G28  21228139.956       15776.280         382.785          47.750  
> 2018  4 22 11 21 38.9688020  0  5                     
G 1  23340061.325       88571.820        2021.584          48.500  
G11  24001996.029       88951.749        2029.830          44.000  
G17  21647178.971     -101425.646       -2303.959          50.750  
G22  23508202.477       35400.480         829.197          47.750  
G28  21229977.836       15814.529         383.134          47.750  
> 2018  4 22 11 21 39.0688020  0  5                     
G 1  23341931.416       88773.963        2021.500          48.250  
G11  24003866.224       89154.717        2030.008          44.000  
G17  21648967.474     -101656.039       -2303.745          50.750  
G22  23510051.053       35483.462         829.642          47.750  
G28  21231817.651       15852.828         383.108          47.500  
> 2018  4 22 11 21 39.1688020  0  5                     
G 1  23343801.276       88976.142        2022.290          48.500  
G11  24005736.553       89357.697        2029.597          44.000  
G17  21650755.164     -101886.395       -2302.987          50.750  
G22  23511898.863       35566.485         830.245          47.750  
G28  21233655.013       15891.167         383.839          47.500  
> 2018  4 22 11 21 39.2688020  0  5                     
G 1  23345671.096       89178.392        2022.369          48.500  
G11  24007606.103       89560.796        2030.006          43.750  
G17  21652543.143     -102116.674       -2302.700          50.750  
G22  23513746.098       35649.588         831.309          47.750  
G28  21235494.161       15929.596         384.050          47.750  
> 2018  4 22 11 21 39.3688020  0  5                     
G 1  23347540.997       89380.738        2024.600          48.500  
G11  24009476.161       89763.950        2033.183          44.000  
G17  21654331.232     -102346.874       -2300.796          50.750  
G22  23515593.062       35732.776         832.900          47.750  
G28  21237333.856       15968.108         385.913          47.750  
> 2018  4 22 11 21 39.4688020  0  5                     
G 1  23349411.589       89583.094        2023.635          48.500  
G11  24011346.803       89967.131        2031.294          44.000  
G17  21656119.103     -102577.052       -2302.306          50.750  
G22  23517439.609       35815.984         832.213          48.000  
G28  21239170.967       16006.653         385.268          47.500  
> 2018  4 22 11 21 39.5688020  0  5                     
G 1  23351281.610       89785.418        2023.008          48.500  
G11  24013216.611       90170.269        2031.644          44.000  
G17  21657906.735     -102807.269       -2302.891          50.750  
G22  23519287.166       35899.160         831.720          47.500  
G28  21241011.146       16045.150         384.657          47.750  
> 2018  4 22 11 21 39.6688020  0  5                     
G 1  23353152.157       89987.720        2024.101          48.750  
G11  24015087.477       90373.390        2032.025          44.000  
G17  21659693.990     -103037.510       -2302.474          50.750  
G22  23521134.324       35982.307         830.939          47.750  
G28  21242849.660       16083.623         384.614          47.750  
> 2018  4 22 11 21 39.7688020  0  5                     
G 1  23355021.221       90189.987        2022.993          48.500  
G11  24016957.875       90576.482        2030.790          44.250  
G17  21661481.577     -103267.770       -2302.787          50.750  
G22  23522982.025       36065.441         830.965          47.500  
G28  21244688.478       16122.086         384.063          47.750  
> 2018  4 22 11 21 39.8688020  0  5                     
G 1  23356891.202       90392.272        2023.149          48.750  
G11  24018828.474       90779.579        2030.866          44.000  
G17  21663269.247     -103498.010       -2302.506          50.750  
G22  23524830.086       36148.596         831.296          47.500  
G28  21246528.952       16160.567         384.801          47.750  
> 2018  4 22 11 21 39.9688020  0  5                     
G 1  23358761.292       90594.514        2022.271          48.500  
G11  24020698.423       90982.642        2031.147          43.750  
G17  21665056.838     -103728.297       -2303.118          50.500  
G22  23526678.681       36231.721         831.224          47.750  
G28  21248366.021       16199.019         384.262          47.750  
> 2018  4 22 11 21 40.0688020  0  5                     
G 1  23360631.183       90796.769        2021.932          48.500  
G11  24022568.555       91185.719        2029.804          44.000  
G17  21666844.930     -103958.577       -2302.785          50.750  
G22  23528526.177       36314.839         830.980          47.500  
G28  21250206.430       16237.464         384.397          47.500  
> 2018  4 22 11 21 40.1688020  0  5                     
G 1  23362501.071       90999.024        2023.209          48.750  
G11  24024439.717       91388.787        2029.820          44.000  
G17  21668632.860     -104188.857       -2303.231          50.750  
G22  23530372.096       36397.969         830.587          47.750  
G28  21252044.658       16275.920         384.426          47.500  
> 2018  4 22 11 21 40.2688020  0  5                     
G 1  23364370.834       91201.217        2021.914          48.750  
G11  24026309.896       91591.804        2030.992          44.250  
G17  21670420.207     -104419.192       -2303.975          50.750  
G22  23532219.177       36481.051         831.955          47.750  
G28  21253883.684       16314.328         384.026          47.750  
> 2018  4 22 11 21 40.3688020  0  5                     
G 1  23366240.834       91403.379        2021.300          48.500  
G11  24028180.379       91794.789        2029.948          44.000  
G17  21672208.382     -104649.545       -2303.677          50.750  
G22  23534066.621       36564.096         830.592          47.750  
G28  21255723.860       16352.710         383.666          47.750  
> 2018  4 22 11 21 40.4688020  0  5                     
G 1  23368111.400       91605.525        2021.766          48.750  
G11  24030050.933       91997.735        2030.374          44.000  
G17  21673996.190     -104879.945       -2304.213          50.750  
G22  23535913.424       36647.126         830.700          48.000  
G28  21257560.931       16391.066         383.577          47.500  
> 2018  4 22 11 21 40.5688020  0  5                     
G 1  23369981.977       91807.671        2021.267          48.500  
G11  24031921.472       92200.706        2028.712          44.000  
G17  21675784.069     -105110.315       -2304.546          50.750  
G22  23537760.619       36730.169         829.889          47.750  
G28  21259400.926       16429.445         383.800          47.750  
> 2018  4 22 11 21 40.6688020  0  5                     
G 1  23371852.314       92009.791        2021.110          48.500  
G11  24033791.120       92403.633        2029.435          44.000  
G17  21677571.992     -105340.722       -2304.714          50.500  
G22  23539608.238       36813.192         829.963          47.750  
G28  21261239.349       16467.792         383.293          47.500  
> 2018  4 22 11 21 40.7688020  0  5                     
G 1  23373722.516       92211.914        2021.366          48.750  
G11  24035661.331       92606.595        2029.253          44.250  
G17  21679359.754     -105571.120       -2304.438          50.750  
G22  23541455.773       36896.221         829.680          47.750  
G28  21263077.807       16506.156         383.299          47.750  
> 2018  4 22 11 21 40.8688020  0  5                     
G 1  23375591.857       92413.999        2021.127          48.750  
G11  24037531.442       92809.476        2027.702          44.250  
G17  21681147.385     -105801.569       -2304.759          50.500  
G22  23543302.115       36979.207         830.623          47.750  
G28  21264917.378       16544.466         382.655          47.500  
> 2018  4 22 11 21 40.9688020  0  5                     
G 1  23377461.869       92616.082        2020.663          48.500  
G11  24039402.502       93012.380        2028.674          44.000  
G17  21682934.808     -106032.015       -2305.104          50.500  
G22  23545149.472       37062.182         829.782          47.750  
G28  21266755.218       16582.788         383.169          47.500  
> 2018  4 22 11 21 41.0688020  0  5                     
G 1  23379332.568       92818.148        2021.175          48.500  
G11  24041272.732       93215.262        2029.327          44.000  
G17  21684722.600     -106262.461       -2304.482          50.500  
G22  23546997.431       37145.161         830.129          47.750  
G28  21268595.746       16621.107         383.175          47.500  
> 2018  4 22 11 21 41.1688020  0  5                     
G 1  23381202.380       93020.218        2020.466          48.750  
G11  24043142.307       93418.155        2028.571          44.000  
G17  21686510.513     -106492.914       -2305.095          50.750  
G22  23548844.923       37228.148         829.754          48.000  
G28  21270434.010       16659.425         383.081          47.750  
> 2018  4 22 11 21 41.2688020  0  5                     
G 1  23383072.683       93222.272        2021.251          48.750  
G11  24045011.817       93621.032        2028.604          44.000  
G17  21688298.353     -106723.376       -2304.634          50.500  
G22  23550692.250       37311.132         829.612          48.000  
G28  21272272.529       16697.736         383.158          47.500  
> 2018  4 22 11 21 41.3688020  0  5                     
G 1  23384942.690       93424.307        2020.450          48.750  
G11  24046881.979       93823.875        2028.689          44.250  
G17  21690086.545     -106953.859       -2304.907          50.750  
G22  23552540.273       37394.079         829.253          47.750  
G28  21274112.692       16736.025         383.056          47.500  
> 2018  4 22 11 21 41.4688020  0  5                     
G 1  23386811.973       93626.313        2020.048          48.750  
G11  24048752.078       94026.708        2029.203          44.000  
G17  21691874.079     -107184.364       -2304.662          50.500  
G22  23554387.813       37477.025         829.724          48.000  
G28  21275950.619       16774.295         382.622          47.500  
> 2018  4 22 11 21 41.5688020  0  5                     
G 1  23388681.664       93828.360        2020.255          48.750  
G11  24050622.302       94229.552        2028.946          44.250  
G17  21693661.973     -107414.849       -2305.209          50.750  
G22  23556234.787       37559.997         829.657          47.750  
G28  21277791.353       16812.595         382.632          47.500  
> 2018  4 22 11 21 41.6688020  0  5                     
G 1  23390552.288       94030.381        2020.367          48.500  
G11  24052492.906       94432.385        2028.047          44.250  
G17  21695449.519     -107645.341       -2305.398          50.500  
G22  23558082.312       37642.956         829.744          47.750  
G28  21279628.927       16850.899         382.918          47.500  
> 2018  4 22 11 21 41.7688020  0  5                     
G 1  23392422.590       94232.408        2020.447          48.500  
G11  24054363.678       94635.234        2028.800          44.250  
G17  21697236.264     -107875.837       -2304.828          50.750  
G22  23559929.982       37725.910         830.115          48.000  
G28  21281467.088       16889.194         383.061          47.500  
> 2018  4 22 11 21 41.8688020  0  5                     
G 1  23394292.801       94434.438        2020.084          48.500  
G11  24056233.550       94838.081        2029.162          44.250  
G17  21699024.084     -108106.322       -2304.504          50.750  
G22  23561777.048       37808.883         829.809          48.000  
G28  21283307.046       16927.506         383.266          47.750  
> 2018  4 22 11 21 41.9688020  0  5                     
G 1  23396162.781       94636.521        2020.933          48.500  
G11  24058103.273       95040.969        2028.714          44.250  
G17  21700811.102     -108336.763       -2304.710          50.500  
G22  23563625.122       37891.900         830.133          47.750  
G28  21285145.283       16965.864         383.527          47.500  
> 2018  4 22 11 21 42.0688020  0  5                     
G 1  23398033.176       94838.614        2021.573          48.500  
G11  24059973.720       95244.002        2076.267          44.250  
G17  21702598.898     -108567.187       -2304.450          50.500  
G22  23565472.740       37974.951         831.049          48.000  
G28  21286985.313       17004.239         383.822          47.750  
> 2018  4 22 11 21 42.1688020  0  5                     
G 1  23399902.943       95040.638        2020.102          48.500  
G11  24061844.329       95446.722        2029.379          44.500  
G17  21704386.701     -108797.664       -2304.862          50.750  
G22  23567319.600       38057.925         829.424          47.750  
G28  21288822.660       17042.561         383.017          47.750  
> 2018  4 22 11 21 42.2688020  0  5                     
G 1  23401772.864       95242.732        2020.579          48.500  
G11  24063713.133       95649.616        2028.515          44.250  
G17  21706174.156     -109028.096       -2304.971          50.500  
G22  23569166.263       38140.977         830.994          47.750  
G28  21290660.491       17080.952         383.380          47.500  
> 2018  4 22 11 21 42.3688020  0  5                     
G 1  23403642.789       95444.803        2020.691          48.750  
G11  24065583.972       95852.509        2029.156          44.500  
G17  21707961.944     -109258.529       -2304.181          50.500  
G22  23571013.620       38224.009         830.432          48.000  
G28  21292501.140       17119.323         384.061          47.750  
> 2018  4 22 11 21 42.4688020  0  5                     
G 1  23405512.915       95646.899        2020.784          48.750  
G11  24067453.770       96055.421        2029.091          44.500  
G17  21709749.331     -109488.943       -2304.167          50.500  
G22  23572861.160       38307.069         830.644          47.750  
G28  21294338.526       17157.731         383.899          47.750  
> 2018  4 22 11 21 42.5688020  0  5                     
G 1  23407382.575       95849.004        2021.488          48.500  
G11  24069323.708       96258.331        2029.002          44.250  
G17  21711536.364     -109719.357       -2303.687          50.500  
G22  23574708.676       38390.131         830.672          47.750  
G28  21296177.911       17196.132         383.942          47.500  
> 2018  4 22 11 21 42.6688020  0  5                     
G 1  23409252.855       96051.092        2021.547          48.750  
G11  24071193.850       96461.254        2030.210          44.500  
G17  21713324.067     -109949.763       -2303.403          50.500  
G22  23576556.367       38473.206         831.361          48.000  
G28  21298016.753       17234.541         385.319          47.750  
> 2018  4 22 11 21 42.7688020  0  5                     
G 1  23411122.620       96253.214        2020.847          48.500  
G11  24073064.689       96664.165        2029.144          44.500  
G17  21715111.439     -110180.169       -2304.125          50.250  
G22  23578403.578       38556.282         830.744          47.500  
G28  21299855.133       17272.971         385.210          47.500  
> 2018  4 22 11 21 42.8688020  0  5                     
G 1  23412993.049       96455.345        2021.229          48.500  
G11  24074935.233       96867.108        2028.653          44.500  
G17  21716900.006     -110410.538       -2304.183          50.500  
G22  23580250.681       38639.406         830.898          47.750  
G28  21301695.248       17311.407         383.594          47.500  
> 2018  4 22 11 21 42.9688020  0  5                     
G 1  23414862.728       96657.489        2021.114          48.750  
G11  24076805.443       97070.045        2028.725          44.500  
G17  21718687.574     -110640.907       -2304.074          50.500  
G22  23582097.388       38722.526         831.384          47.750  
G28  21303532.949       17349.878         384.277          47.750  
> 2018  4 22 11 21 43.0688020  0  5                     
G 1  23416732.680       96859.611        2021.455          48.500  
G11  24078675.044       97272.995        2030.055          44.500  
G17  21720475.344     -110871.290       -2303.654          50.500  
G22  23583944.277       38805.636         831.598          47.750  
G28  21305372.731       17388.335         385.275          47.500  
> 2018  4 22 11 21 43.1688020  0  5                     
G 1  23418602.376       97061.756        2021.546          48.500  
G11  24080544.748       97475.950        2030.346          44.500  
G17  21722263.200     -111101.656       -2303.799          50.500  
G22  23585792.011       38888.769         831.554          48.000  
G28  21307211.634       17426.809         384.782          47.500  
> 2018  4 22 11 21 43.2688020  0  5                     
G 1  23420472.245       97263.848        2020.848          48.750  
G11  24082415.164       97678.866        2029.857          44.500  
G17  21724050.817     -111332.060       -2303.744          50.500  
G22  23587639.098       38971.866         831.734          48.000  
G28  21309050.532       17465.241         384.487          47.750  
> 2018  4 22 11 21 43.3688020  0  5                     
G 1  23422342.149       97465.921        2021.212          48.500  
G11  24084286.035       97881.734        2028.897          44.500  
G17  21725838.732     -111562.492       -2304.181          50.500  
G22  23589486.504       39054.927         830.411          48.000  
G28  21310890.587       17503.663         384.231          47.500  
> 2018  4 22 11 21 43.4688020  0  5                     
G 1  23424212.017       97667.935        2020.507          48.750  
G11  24086156.508       98084.561        2028.431          44.750  
G17  21727626.412     -111792.987       -2305.621          50.500  
G22  23591334.890       39137.940         830.274          47.750  
G28  21312727.760       17542.010         383.058          47.750  
> 2018  4 22 11 21 43.5688020  0  5                     
G 1  23426081.735       97869.871        2019.173          48.750  
G11  24088026.741       98287.300        2026.903          44.750  
G17  21729413.605     -112023.566       -2306.498          50.500  
G22  23593182.499       39220.880         829.081          48.000  
G28  21314568.384       17580.289         382.349          47.500  
> 2018  4 22 11 21 43.6688020  0  5                     
G 1  23427951.499       98071.708        2017.777          48.500  
G11  24089897.532       98489.942        2025.856          44.500  
G17  21731200.787     -112254.229       -2307.421          50.500  
G22  23595028.705       39303.713         827.355          47.750  
G28  21316405.589       17618.485         382.025          47.500  
> 2018  4 22 11 21 43.7688020  0  5                     
G 1  23429821.334       98273.434        2017.600          48.500  
G11  24091766.369       98692.480        2025.339          44.500  
G17  21732988.194     -112485.002       -2308.073          50.500  
G22  23596877.087       39386.465         827.560          47.750  
G28  21318244.574       17656.569         380.270          47.500  
> 2018  4 22 11 21 43.8688020  0  5                     
G 1  23431692.213       98475.127        2017.163          48.500  
G11  24093636.097       98894.981        2024.766          44.500  
G17  21734775.584     -112715.804       -2308.507          50.500  
G22  23598723.527       39469.169         826.533          47.750  
G28  21320084.577       17694.616         380.980          47.500  
> 2018  4 22 11 21 43.9688020  0  5                     
G 1  23433561.671       98676.794        2017.475          48.500  
G11  24095505.557       99097.464        2025.031          44.500  
G17  21736563.134     -112946.637       -2307.772          50.500  
G22  23600570.806       39551.853         827.405          47.750  
G28  21321922.113       17732.662         380.661          47.750  
> 2018  4 22 11 21 44.0688020  0  5                     
G 1  23435431.180       98878.594        2018.550          48.500  
G11  24097375.292       99300.076        2027.354          44.250  
G17  21738350.742     -113177.340       -2306.456          50.500  
G22  23602418.707       39634.678         828.935          47.750  
G28  21323761.955       17770.829         382.238          47.250  
> 2018  4 22 11 21 44.1688020  0  5                     
G 1  23437301.523       99080.506        2019.960          48.250  
G11  24099245.481       99502.782        2027.709          44.500  
G17  21740138.463     -113407.923       -2305.513          50.000  
G22  23604266.106       39717.616         829.972          47.750  
G28  21325600.126       17809.113         383.810          47.500  
> 2018  4 22 11 21 44.2688020  0  5                     
G 1  23439171.295       99282.493        2020.242          48.250  
G11  24101114.834       99705.597        2029.009          44.500  
G17  21741926.177     -113638.429       -2305.120          50.500  
G22  23606113.335       39800.638         830.087          48.000  
G28  21327438.990       17847.479         383.728          47.500  
> 2018  4 22 11 21 44.3688020  0  5                     
G 1  23441040.802       99484.552        2020.295          48.500  
G11  24102984.952       99908.461        2029.085          44.500  
G17  21743714.147     -113868.869       -2304.305          50.250  
G22  23607959.965       39883.735         831.336          47.750  
G28  21329279.002       17885.919         384.488          47.500  
> 2018  4 22 11 21 44.4688020  0  5                     
G 1  23442911.310       99686.591        2020.960          48.250  
G11  24104855.771      100111.301        2028.503          44.750  
G17  21745502.356     -114099.331       -2304.514          50.500  
G22  23609806.444       39966.808         831.123          48.000  
G28  21331116.369       17924.351         384.951          47.750  
> 2018  4 22 11 21 44.5688020  0  5                     
G 1  23444781.187       99888.607        2020.547          48.750  
G11  24106726.093      100314.136        2028.874          44.750  
G17  21747289.995     -114329.810       -2304.855          50.500  
G22  23611653.340       40049.882         831.262          47.750  
G28  21332957.301       17962.757         384.482          47.500  
> 2018  4 22 11 21 44.6688020  0  5                     
G 1  23446651.575      100090.590        2020.271          48.500  
G11  24108596.311      100516.916        2027.873          44.750  
G17  21749077.563     -114560.321       -2305.427          50.250  
G22  23613500.966       40132.904         830.466          48.000  
G28  21334795.350       18001.142         383.719          47.500  
> 2018  4 22 11 21 44.7688020  0  5                     
G 1  23448522.144      100292.545        2019.129          48.500  
G11  24110466.494      100719.668        2027.206          44.500  
G17  21750865.052     -114790.867       -2306.154          50.250  
G22  23615349.266       40215.895         830.018          48.000  
G28  21336634.639       18039.476         383.037          47.500  
> 2018  4 22 11 21 44.8688020  0  5                     
G 1  23450391.942      100494.426        2018.799          48.500  
G11  24112335.789      100922.364        2026.549          44.500  
G17  21752653.302     -115021.470       -2306.239          50.500  
G22  23617197.188       40298.833         829.143          48.000  
G28  21338474.257       18077.764         382.114          47.500  
> 2018  4 22 11 21 44.9688020  0  5                     
G 1  23452262.027      100696.298        2018.034          48.500  
G11  24114205.941      101125.053        2027.266          44.750  
G17  21754440.459     -115252.093       -2306.808          50.500  
G22  23619045.589       40381.774         828.727          47.750  
G28  21340311.343       18116.054         382.724          47.500  
> 2018  4 22 11 21 45.0688020  0  5                     
G 1  23454132.282      100898.134        2018.598          48.500  
G11  24116076.811      101327.688        2026.494          44.750  
G17  21756228.230     -115482.749       -2306.913          50.500  
G22  23620893.124       40464.657         828.239          48.000  
G28  21342151.457       18154.298         382.464          47.500  
> 2018  4 22 11 21 45.1688020  0  5                     
G 1  23456001.821      101099.915        2017.835          48.250  
G11  24117945.984      101530.276        2026.427          44.500  
G17  21758016.250     -115713.458       -2307.537          50.250  
G22  23622739.713       40547.509         828.379          48.000  
G28  21343989.814       18192.499         383.200          47.500  
> 2018  4 22 11 21 45.2688020  0  5                     
G 1  23457871.349      101301.663        2016.988          48.500  
G11  24119816.887      101732.832        2025.039          44.750  
G17  21759803.895     -115944.205       -2307.937          50.250  
G22  23624586.503       40630.328         828.219          47.750  
G28  21345827.636       18230.664         381.182          47.500  
> 2018  4 22 11 21 45.3688020  0  5                     
G 1  23459741.286      101503.419        2018.016          48.250  
G11  24121687.081      101935.387        2025.618          44.750  
G17  21761591.277     -116174.921       -2307.397          50.250  
G22  23626434.191       40713.146         827.831          48.000  
G28  21347667.740       18268.853         382.492          47.500  
> 2018  4 22 11 21 45.4688020  0  5                     
G 1  23461610.509      101705.146        2017.694          48.250  
G11  24123557.218      102137.929        2026.088          44.750  
G17  21763378.827     -116405.688       -2307.957          50.250  
G22  23628282.233       40795.962         828.463          47.500  
G28  21349505.279       18307.006         382.253          47.250  
> 2018  4 22 11 21 45.5688020  0  5                     
G 1  23463480.611      101906.896        2017.122          48.000  
G11  24125427.689      102340.475        2025.223          44.500  
G17  21765166.261     -116636.427       -2307.494          50.250  
G22  23630129.275       40878.786         827.772          47.750  
G28  21351343.696       18345.192         382.031          47.500  
> 2018  4 22 11 21 45.6688020  0  5                     
G 1  23465350.665      102108.632        2017.041          48.500  
G11  24127298.370      102543.008        2025.206          44.750  
G17  21766953.989     -116867.188       -2308.109          50.500  
G22  23631976.614       40961.593         827.920          48.000  
G28  21353182.199       18383.348         381.217          47.750  
> 2018  4 22 11 21 45.7688020  0  5                     
G 1  23467220.477      102310.300        2016.857          48.500  
G11  24129168.891      102745.483        2024.548          44.750  
G17  21768741.364     -117098.003       -2308.059          50.500  
G22  23633823.994       41044.357         827.190          48.000  
G28  21355019.564       18421.465         380.878          47.250  
> 2018  4 22 11 21 45.8688020  0  5                     
G 1  23469090.332      102511.957        2017.318          48.000  
G11  24131039.147      102947.954        2025.565          45.000  
G17  21770529.668     -117328.828       -2308.402          50.250  
G22  23635671.377       41127.108         827.777          48.000  
G28  21356860.501       18459.571         381.357          47.750  
> 2018  4 22 11 21 45.9688020  0  5                     
G 1  23470960.403      102713.673        2017.474          48.250  
G11  24132908.608      103150.466        2025.211          45.000  
G17  21772317.714     -117559.607       -2307.676          50.500  
G22  23637518.280       41209.906         828.449          48.000  
G28  21358698.312       18497.732         381.853          47.500  
> 2018  4 22 11 21 46.0688020  0  5                     
G 1  23472830.911      102915.397        2017.633          48.250  
G11  24134778.831      103352.995        2025.971          45.000  
G17  21774104.889     -117790.356       -2307.351          50.250  
G22  23639366.118       41292.735         828.706          48.000  
G28  21360538.032       18535.905         382.396          47.750  
> 2018  4 22 11 21 46.1688020  0  5                     
G 1  23474700.743      103117.184        2018.067          48.250  
G11  24136649.547      103555.586        2025.646          45.000  
G17  21775892.659     -118021.057       -2306.466          50.500  
G22  23641213.984       41375.616         829.288          48.000  
G28  21362377.595       18574.151         382.947          47.500  
> 2018  4 22 11 21 46.2688020  0  5                     
G 1  23476570.762      103319.045        2019.085          48.250  
G11  24138519.196      103758.263        2028.034          45.000  
G17  21777679.916     -118251.673       -2305.799          50.500  
G22  23643061.128       41458.593         830.967          48.000  
G28  21364216.116       18612.480         384.577          47.500  
> 2018  4 22 11 21 46.3688020  0  5                     
G 1  23478441.060      103520.934        2019.421          47.750  
G11  24140390.484      103960.945        2027.360          44.750  
G17  21779467.800     -118482.260       -2305.520          50.000  
G22  23644908.119       41541.590         829.852          47.750  
G28  21366056.954       18650.829         384.030          47.250  
> 2018  4 22 11 21 46.4688020  0  5                     
G 1  23480310.278      103722.858        2019.396          48.250  
G11  24142260.918      104163.675        2027.254          44.750  
G17  21781255.614     -118712.810       -2305.282          50.250  
G22  23646755.973       41624.645         830.336          48.000  
G28  21367894.205       18689.236         383.946          47.500  
> 2018  4 22 11 21 46.5688020  0  5                     
G 1  23482180.442      103924.830        2019.634          48.250  
G11  24144131.015      104366.459        2027.316          45.000  
G17  21783043.039     -118943.325       -2305.064          50.250  
G22  23648603.384       41707.727         830.884          47.750  
G28  21369732.920       18727.682         384.784          47.250  
> 2018  4 22 11 21 46.6688020  0  5                     
G 1  23484049.317      104126.786        2019.759          48.000  
G11  24146001.184      104569.216        2028.286          44.750  
G17  21784830.855     -119173.848       -2305.345          50.250  
G22  23650450.830       41790.798         830.996          48.000  
G28  21371571.445       18766.108         384.704          47.500  
> 2018  4 22 11 21 46.7688020  0  5                     
G 1  23485919.529      104328.672        2017.822          48.000  
G11  24147871.193      104771.907        2026.518          44.750  
G17  21786618.488     -119404.435       -2306.385          50.250  
G22  23652297.767       41873.823         830.482          47.750  
G28  21373409.723       18804.485         383.359          47.250  
> 2018  4 22 11 21 46.8688020  0  5                     
G 1  23487789.910      104530.443        2017.951          48.000  
G11  24149741.042      104974.469        2024.639          44.750  
G17  21788406.054     -119635.153       -2307.357          50.000  
G22  23654144.713       41956.699         828.538          48.000  
G28  21375250.668       18842.728         382.242          47.500  
> 2018  4 22 11 21 46.9688020  0  5                     
G 1  23489660.660      104732.113        2016.200          48.000  
G11  24151610.693      105176.932        2023.743          45.000  
G17  21790194.014     -119865.969       -2308.859          50.250  
G22  23655992.269       42039.500         827.249          48.000  
G28  21377087.799       18880.896         381.260          47.500  
> 2018  4 22 11 21 47.0688020  0  5                     
G 1  23491530.831      104933.746        2016.764          48.250  
G11  24153480.956      105379.385        2025.411          45.000  
G17  21791981.875     -120096.810       -2307.814          50.500  
G22  23657839.712       42122.270         828.302          48.000  
G28  21378926.904       18919.023         382.020          47.500  
> 2018  4 22 11 21 47.1688020  0  5                     
G 1  23493401.225      105135.410        2017.641          48.250  
G11  24155350.681      105581.840        2024.287          45.000  
G17  21793769.657     -120327.626       -2308.447          50.250  
G22  23659686.714       42205.057         827.612          48.000  
G28  21380766.472       18957.167         381.052          47.250  
> 2018  4 22 11 21 47.2688020  0  5                     
G 1  23495271.138      105337.057        2017.104          48.250  
G11  24157221.550      105784.284        2025.337          45.250  
G17  21795557.090     -120558.451       -2308.279          50.500  
G22  23661534.216       42287.853         828.123          48.250  
G28  21382604.471       18995.326         381.667          47.500  
> 2018  4 22 11 21 47.3688020  0  5                     
G 1  23497141.106      105538.830        2017.811          48.000  
G11  24159090.888      105986.853        2025.458          45.000  
G17  21797344.960     -120789.151       -2307.026          50.250  
G22  23663381.253       42370.776         829.713          48.000  
G28  21384444.304       19033.608         382.559          47.500  
> 2018  4 22 11 21 47.4688020  0  5                     
G 1  23499010.809      105740.630        2018.262          48.000  
G11  24160961.631      106189.454        2026.674          45.250  
G17  21799132.276     -121019.825       -2307.244          50.250  
G22  23665228.323       42453.720         829.091          48.250  
G28  21386281.310       19071.923         383.139          47.500  
> 2018  4 22 11 21 47.5688020  0  5                     
G 1  23500879.997      105942.494        2018.647          48.000  
G11  24162831.310      106392.133        2027.288          45.000  
G17  21800919.455     -121250.428       -2305.909          50.250  
G22  23667076.746       42536.746         829.917          48.000  
G28  21388120.622       19110.306         383.750          47.500  
> 2018  4 22 11 21 47.6688020  0  5                     
G 1  23502749.675      106144.376        2018.768          48.000  
G11  24164701.587      106594.802        2026.302          45.250  
G17  21802707.526     -121481.014       -2305.096          50.250  
G22  23668924.297       42619.778         830.566          48.000  
G28  21389960.296       19148.701         384.338          47.250  
> 2018  4 22 11 21 47.7688020  0  5                     
G 1  23504619.726      106346.346        2020.537          48.000  
G11  24166572.512      106797.574        2028.210          45.000  
G17  21804495.071     -121711.535       -2305.262          50.250  
G22  23670771.906       42702.909         832.123          48.000  
G28  21391798.475       19187.189         385.362          47.500  
> 2018  4 22 11 21 47.8688020  0  5                     
G 1  23506489.825      106548.351        2021.591          48.250  
G11  24168442.153      107000.392        2029.602          45.000  
G17  21806282.960     -121941.991       -2303.932          50.250  
G22  23672618.919       42786.093         833.350          47.750  
G28  21393638.813       19225.732         387.122          47.500  
> 2018  4 22 11 21 47.9688020  0  5                     
G 1  23508360.395      106750.533        2022.277          48.000  
G11  24170313.367      107203.357        2030.318          45.250  
G17  21808070.975     -122172.282       -2302.938          50.250  
G22  23674466.263       42869.431         833.504          48.000  
G28  21395477.610       19264.442         387.236          47.500  
> 2018  4 22 11 21 48.0688020  0  5                     
G 1  23510231.282      106952.722        2046.801          48.000  
G11  24172184.286      107406.377        2030.772          45.000  
G17  21809858.478     -122402.534       -2302.959          50.500  
G22  23676313.240       42952.821         834.144          48.000  
G28  21397317.547       19303.183         386.899          47.500  
> 2018  4 22 11 21 48.1688020  0  5                     
G 1  23512100.581      107154.882        2021.284          48.000  
G11  24174054.347      107609.299        2028.870          45.000  
G17  21811646.384     -122632.858       -2303.819          50.250  
G22  23678160.535       43036.132         832.392          48.000  
G28  21399156.009       19341.870         387.033          47.500  
> 2018  4 22 11 21 48.2688020  0  5                     
G 1  23513970.768      107356.925        2020.518          48.250  
G11  24175923.847      107812.164        2029.281          45.250  
G17  21813434.799     -122863.294       -2304.950          50.250  
G22  23680007.744       43119.360         832.374          48.000  
G28  21400994.334       19380.460         384.999          47.500  
> 2018  4 22 11 21 48.3688020  0  5                     
G 1  23515841.082      107558.884        2020.069          48.500  
G11  24177794.637      108014.909        2027.225          45.500  
G17  21815222.500     -123093.805       -2305.643          50.250  
G22  23681855.306       43202.490         830.545          48.000  
G28  21402835.076       19418.965         384.926          47.500  
> 2018  4 22 11 21 48.4688020  0  5                     
G 1  23517711.778      107760.764        2019.097          48.250  
G11  24179664.627      108217.584        2027.706          45.250  
G17  21817010.112     -123324.392       -2306.110          50.500  
G22  23683703.239       43285.568         831.043          48.000  
G28  21404672.463       19457.402         384.466          47.500  
> 2018  4 22 11 21 48.5688020  0  5                     
G 1  23519581.200      107962.645        2018.720          48.000  
G11  24181534.860      108420.263        2026.236          45.500  
G17  21818797.467     -123554.972       -2306.212          50.250  
G22  23685550.512       43368.641         830.799          48.000  
G28  21406511.018       19495.848         384.669          47.500  
> 2018  4 22 11 21 48.6688020  0  5                     
G 1  23521451.072      108164.456        2018.002          48.250  
G11  24183404.869      108622.872        2025.903          45.500  
G17  21820585.320     -123785.614       -2306.134          50.250  
G22  23687398.655       43451.638         830.537          48.250  
G28  21408350.215       19534.214         384.187          47.250  
> 2018  4 22 11 21 48.7688020  0  5                     
G 1  23523320.325      108366.250        2018.045          48.250  
G11  24185275.336      108825.466        2025.814          45.500  
G17  21822373.268     -124016.285       -2306.927          50.250  
G22  23689245.009       43534.642         829.712          48.000  
G28  21410188.372       19572.580         383.823          47.250  
> 2018  4 22 11 21 48.8688020  0  5                     
G 1  23525190.263      108568.015        2017.906          48.250  
G11  24187144.824      109028.029        2026.021          45.500  
G17  21824160.389     -124246.990       -2307.090          50.250  
G22  23691092.633       43617.604         829.633          48.250  
G28  21412029.047       19610.909         383.564          47.750  
> 2018  4 22 11 21 48.9688020  0  5                     
G 1  23527060.752      108769.803        2018.252          48.250  
G11  24189014.436      109230.596        2025.887          45.250  
G17  21825948.351     -124477.675       -2307.296          50.500  
G22  23692939.281       43700.588         829.469          48.250  
G28  21413866.657       19649.253         383.153          47.500  
> 2018  4 22 11 21 49.0688020  0  5                     
G 1  23528930.306      108971.534        2017.906          48.250  
G11  24190884.523      109433.138        2026.084          45.250  
G17  21827735.753     -124708.394       -2307.121          50.500  
G22  23694786.454       43783.539         829.662          48.250  
G28  21415706.311       19687.578         383.222          47.500  
> 2018  4 22 11 21 49.1688020  0  5                     
G 1  23530800.736      109173.323        2018.146          48.000  
G11  24192753.900      109635.707        2025.491          45.250  
G17  21829523.672     -124939.071       -2307.066          50.250  
G22  23696633.550       43866.539         830.115          48.000  
G28  21417544.956       19725.951         383.483          47.250  
> 2018  4 22 11 21 49.2688020  0  5                     
G 1  23532670.367      109375.094        2016.983          48.000  
G11  24194623.653      109838.278        2025.916          45.250  
G17  21831311.320     -125169.755       -2307.581          50.500  
G22  23698481.127       43949.529         829.492          48.000  
G28  21419383.087       19764.303         383.079          47.500  
> 2018  4 22 11 21 49.3688020  0  5                     
G 1  23534540.517      109576.874        2018.652          48.250  
G11  24196493.482      110040.851        2025.302          45.250  
G17  21833098.853     -125400.437       -2306.528          50.500  
G22  23700329.191       44032.528         830.245          48.250  
G28  21421223.601       19802.679         383.585          47.250  
> 2018  4 22 11 21 49.4688020  0  5                     
G 1  23536409.806      109778.734        2019.384          48.250  
G11  24198363.895      110243.508        2028.394          45.250  
G17  21834886.742     -125631.037       -2305.164          50.250  
G22  23702176.095       44115.618         831.843          48.000  
G28  21423060.723       19841.135         385.827          47.500  
> 2018  4 22 11 21 49.5688020  0  5                     
G 1  23538280.350      109980.843        2021.757          48.000  
G11  24200234.264      110446.414        2029.655          45.000  
G17  21836674.062     -125861.386       -2302.556          50.000  
G22  23704023.428       44198.955         834.948          48.000  
G28  21424899.791       19879.835         387.132          47.000  
> 2018  4 22 11 21 49.6688020  0  5                     
G 1  23540149.950      110183.096        2023.673          48.000  
G11  24202104.241      110649.457        2030.402          45.000  
G17  21838462.208     -126091.580       -2301.359          50.250  
G22  23705870.656       44282.433         835.843          48.000  
G28  21426738.229       19918.700         389.518          47.250  
> 2018  4 22 11 21 49.7688020  0  5                     
G 1  23542020.427      110385.445        2023.590          48.250  
G11  24203974.826      110852.596        2031.495          45.250  
G17  21840249.873     -126321.699       -2302.005          50.250  
G22  23707718.170       44366.014         835.655          48.000  
G28  21428577.062       19957.651         388.625          47.500  
> 2018  4 22 11 21 49.8688020  0  5                     
G 1  23543890.532      110587.599        2020.402          48.000  
G11  24205844.930      111055.545        2027.745          45.000  
G17  21842037.715     -126552.000       -2304.226          50.000  
G22  23709565.707       44449.423         832.779          48.000  
G28  21430417.606       19996.426         387.013          47.500  
> 2018  4 22 11 21 49.9688020  0  5                     
G 1  23545760.573      110789.582        2019.581          48.000  
G11  24207714.391      111258.337        2026.648          45.000  
G17  21843825.698     -126782.457       -2304.925          50.500  
G22  23711413.251       44532.648         831.976          48.250  
G28  21432254.510       20035.036         385.711          47.500  
> 2018  4 22 11 21 50.0688020  0  5                     
G 1  23547630.926      110991.471        2019.447          48.250  
G11  24209584.366      111461.017        2027.274          45.250  
G17  21845613.325     -127013.032       -2305.644          50.500  
G22  23713260.799       44615.781         831.567          48.250  
G28  21434094.210       20073.531         385.274          47.500  
> 2018  4 22 11 21 50.1688020  0  5                     
G 1  23549500.819      111193.501        2021.971          48.250  
G11  24211454.416      111663.838        2029.843          45.000  
G17  21847401.564     -127243.450       -2302.183          50.500  
G22  23715108.980       44699.057         833.953          48.250  
G28  21435933.533       20112.195         388.483          47.500  
> 2018  4 22 11 21 50.2688020  0  5                     
G 1  23551371.555      111395.821        2023.794          48.000  
G11  24213325.002      111866.949        2031.983          45.000  
G17  21849189.331     -127473.592       -2300.796          50.250  
G22  23716955.696       44782.630         836.265          48.000  
G28  21437771.613       20151.142         390.604          47.500  
> 2018  4 22 11 21 50.3688020  0  5                     
G 1  23553241.983      111598.153        2023.377          48.250  
G11  24215195.712      112070.079        2032.075          45.000  
G17  21850977.121     -127703.715       -2301.315          50.250  
G22  23718802.858       44866.222         835.879          48.000  
G28  21439612.661       20190.103         390.315          47.500  
> 2018  4 22 11 21 50.4688020  0  5                     
G 1  23555111.862      111800.468        2022.707          48.250  
G11  24217065.925      112273.184        2031.089          45.000  
G17  21852764.848     -127933.841       -2301.690          50.500  
G22  23720650.177       44949.805         835.937          48.250  
G28  21441449.289       20229.067         389.682          47.500  
> 2018  4 22 11 21 50.5688020  0  5                     
G 1  23556981.438      112002.719        2023.318          48.000  
G11  24218936.311      112476.224        2030.845          45.250  
G17  21854551.959     -128164.033       -2301.372          50.500  
G22  23722497.826       45033.314         836.004          48.250  
G28  21443288.302       20267.954         389.951          47.500  
> 2018  4 22 11 21 50.6688020  0  5                     
G 1  23558852.193      112205.038        2022.889          48.250  
G11  24220806.289      112679.337        2031.398          45.000  
G17  21856340.430     -128394.173       -2301.586          50.250  
G22  23724345.538       45116.902         836.151          48.000  
G28  21445127.460       20306.909         389.406          47.250  
> 2018  4 22 11 21 50.7688020  0  5                     
G 1  23560722.187      112407.337        2022.874          48.250  
G11  24222676.552      112882.426        2031.359          45.000  
G17  21858128.087     -128624.319       -2301.917          50.500  
G22  23726193.555       45200.482         836.020          48.250  
G28  21446965.739       20345.871         389.317          47.500  
> 2018  4 22 11 21 50.8688020  0  5                     
G 1  23562591.733      112609.587        2022.149          48.250  
G11  24224546.485      113085.478        2030.495          45.250  
G17  21859915.445     -128854.514       -2302.639          50.500  
G22  23728041.312       45284.002         834.597          48.500  
G28  21448806.929       20384.765         388.947          47.500  
> 2018  4 22 11 21 50.9688020  0  5                     
G 1  23564461.853      112811.671        2020.172          48.000  
G11  24226417.216      113288.339        2027.856          44.500  
G17  21861703.302     -129084.882       -2304.271          50.000  
G22  23729888.659       45367.359         832.622          47.750  
G28  21450644.177       20423.505         386.784          47.000  
> 2018  4 22 11 21 51.0688020  0  5                     
G 1  23566331.682      113013.572        2019.003          47.750  
G11  24228286.169      113491.032        2025.865          44.500  
G17  21863490.679     -129315.427       -2306.271          50.000  
G22  23731735.184       45450.543         830.942          48.000  
G28  21452484.183       20462.064         384.793          47.250  
> 2018  4 22 11 21 51.1688020  0  5                     
G 1  23568201.763      113215.395        2018.350          48.000  
G11  24230156.462      113693.649        2026.624          44.750  
G17  21865278.109     -129546.050       -2305.767          50.000  
G22  23733582.347       45533.664         831.760          48.250  
G28  21454323.352       20500.554         385.784          47.250  
> 2018  4 22 11 21 51.2688020  0  5                     
G 1  23570071.239      113417.231        2018.706          48.250  
G11  24232026.394      113896.266        2026.267          45.000  
G17  21867066.364     -129776.662       -2306.046          50.250  
G22  23735430.477       45616.779         831.644          48.500  
G28  21456161.920       20539.058         384.483          47.500  
> 2018  4 22 11 21 51.3688020  0  5                     
G 1  23571942.187      113619.071        2017.990          48.000  
G11  24233896.888      114098.915        2026.480          44.750  
G17  21868854.123     -130007.255       -2305.581          50.000  
G22  23737277.852       45699.929         832.085          48.250  
G28  21458002.861       20577.591         385.095          47.250  
> 2018  4 22 11 21 51.4688020  0  5                     
G 1  23573811.392      113820.903        2018.669          48.250  
G11  24235767.043      114301.531        2026.193          45.000  
G17  21870641.980     -130237.879       -2305.867          50.500  
G22  23739125.421       45783.061         832.064          48.250  
G28  21459839.970       20616.091         385.195          47.500  
> 2018  4 22 11 21 51.5688020  0  5                     
G 1  23575681.850      114022.762        2018.750          48.250  
G11  24237637.337      114504.170        2027.776          45.250  
G17  21872429.590     -130468.454       -2305.534          50.500  
G22  23740973.733       45866.217         831.487          48.500  
G28  21461679.924       20654.639         386.323          47.500  
> 2018  4 22 11 21 51.6688020  0  5                     
G 1  23577551.847      114224.555        2018.152          48.250  
G11  24239507.112      114706.761        2025.634          45.000  
G17  21874217.345     -130699.103       -2306.458          50.500  
G22  23742821.517       45949.327         831.214          48.500  
G28  21463518.077       20693.120         384.541          47.500  
> 2018  4 22 11 21 51.7688020  0  5                     
G 1  23579422.025      114426.307        2016.841          48.250  
G11  24241377.871      114909.295        2024.298          45.000  
G17  21876004.659     -130929.799       -2306.915          50.500  
G22  23744668.621       46032.377         830.207          48.250  
G28  21465355.956       20731.563         384.986          47.500  
> 2018  4 22 11 21 51.8688020  0  5                     
G 1  23581291.261      114628.004        2017.121          48.250  
G11  24243247.072      115111.791        2024.720          45.000  
G17  21877792.103     -131160.534       -2307.738          50.750  
G22  23746515.019       46115.391         830.281          48.250  
G28  21467196.730       20769.965         384.278          47.500  
> 2018  4 22 11 21 51.9688020  0  5                     
G 1  23583162.092      114829.736        2018.000          48.000  
G11  24245116.386      115314.319        2025.674          44.500  
G17  21879580.125     -131391.245       -2307.233          50.250  
G22  23748362.224       46198.441         830.542          48.000  
G28  21469034.615       20808.385         384.186          47.250  
> 2018  4 22 11 21 52.0688020  0  5                     
G 1  23585031.958      115031.489        2018.094          48.000  
G11  24246987.111      115516.844        2025.533          45.000  
G17  21881367.468     -131621.940       -2306.759          50.500  
G22  23750209.966       46281.497         831.214          48.250  
G28  21470874.866       20846.828         384.544          47.250  
> 2018  4 22 11 21 52.1688020  0  5                     
G 1  23586902.084      115233.325        2018.334          48.250  
G11  24248857.120      115719.478        2026.550          45.000  
G17  21883155.386     -131852.535       -2305.957          50.500  
G22  23752057.589       46364.668         831.701          48.250  
G28  21472712.321       20885.380         385.604          47.250  
> 2018  4 22 11 21 52.2688020  0  5                     
G 1  23588771.341      115435.168        2018.844          48.250  
G11  24250727.744      115922.103        2027.135          45.000  
G17  21884943.307     -132083.133       -2306.425          50.250  
G22  23753904.785       46447.843         832.068          48.250  
G28  21474550.717       20923.948         385.949          47.500  
> 2018  4 22 11 21 52.3688020  0  5                     
G 1  23590641.280      115637.175        2022.380          48.000  
G11  24252597.984      116124.902        2029.948          44.750  
G17  21886731.878     -132313.566       -2302.240          50.250  
G22  23755752.382       46531.187         835.739          48.250  
G28  21476391.321       20962.667         389.746          47.250  
> 2018  4 22 11 21 52.4688020  0  5                     
G 1  23592510.610      115839.597        2024.941          47.750  
G11  24254468.546      116328.106        2032.842          44.250  
G17  21888519.655     -132543.582       -2299.653          50.000  
G22  23757599.242       46614.937         838.638          48.000  
G28  21478228.043       21001.800         391.523          47.250  
> 2018  4 22 11 21 52.5688020  0  5                     
G 1  23594381.012      116041.965        2022.548          48.250  
G11  24256338.490      116531.265        2031.324          45.000  
G17  21890306.741     -132773.649       -2302.266          50.500  
G22  23759446.309       46698.651         836.740          48.500  
G28  21480068.385       21040.902         390.091          47.500  
> 2018  4 22 11 21 52.6688020  0  5                     
G 1  23596251.202      116244.026        2019.713          48.000  
G11  24258208.891      116734.111        2027.158          44.750  
G17  21892094.524     -133004.010       -2304.904          50.250  
G22  23761294.663       46782.048         832.799          48.250  
G28  21481907.365       21079.695         387.493          47.250  
> 2018  4 22 11 21 52.7688020  0  5                     
G 1  23598121.565      116445.909        2018.462          48.000  
G11  24260078.987      116936.774        2026.041          44.750  
G17  21893882.376     -133234.558       -2306.314          50.250  
G22  23763142.039       46865.287         831.477          48.250  
G28  21483745.785       21118.308         385.747          47.250  
> 2018  4 22 11 21 52.8688020  0  5                     
G 1  23599992.092      116647.649        2017.520          48.000  
G11  24261948.610      117139.303        2024.825          44.750  
G17  21895669.594     -133465.262       -2307.506          50.500  
G22  23764989.843       46948.366         830.403          48.250  
G28  21485586.093       21156.771         384.066          47.500  
> 2018  4 22 11 21 52.9688020  0  5                     
G 1  23601862.377      116849.306        2015.769          48.000  
G11  24263819.365      117341.748        2023.646          45.000  
G17  21897457.675     -133696.037       -2308.309          50.500  
G22  23766837.810       47031.387         829.856          48.250  
G28  21487423.590       21195.179         383.797          47.500  
> 2018  4 22 11 21 53.0688020  0  5                     
G 1  23603731.721      117050.939        2017.090          48.250  
G11  24265689.033      117544.181        2025.279          44.750  
G17  21899245.009     -133926.829       -2307.362          50.500  
G22  23768684.893       47114.382         830.658          48.500  
G28  21489263.691       21233.566         384.399          47.500  
> 2018  4 22 11 21 53.1688020  0  5                     
G 1  23605601.867      117252.634        2016.202          48.250  
G11  24267559.431      117746.645        2023.812          44.750  
G17  21901032.610     -134157.568       -2307.844          50.500  
G22  23770532.265       47197.435         830.493          48.250  
G28  21491101.732       21272.000         384.753          47.500  
> 2018  4 22 11 21 53.2688020  0  5                     
G 1  23607472.709      117454.356        2017.190          48.250  
G11  24269430.314      117949.162        2025.097          44.750  
G17  21902820.695     -134388.266       -2306.612          50.500  
G22  23772379.379       47280.534         830.700          48.500  
G28  21492940.094       21310.484         385.027          47.500  
> 2018  4 22 11 21 53.3688020  0  5                     
G 1  23609342.371      117656.114        2017.157          48.250  
G11  24271300.738      118151.702        2025.862          45.000  
G17  21904608.387     -134618.940       -2306.982          50.500  
G22  23774226.774       47363.652         831.280          48.500  
G28  21494781.077       21349.000         385.043          47.500  
> 2018  4 22 11 21 53.4688020  0  5                     
G 1  23611212.183      117857.891        2018.401          48.500  
G11  24273170.119      118354.272        2026.452          45.000  
G17  21906396.546     -134849.587       -2306.333          50.500  
G22  23776073.703       47446.808         831.833          48.500  
G28  21496619.039       21387.547         386.491          47.750  
> 2018  4 22 11 21 53.5688020  0  5                     
G 1  23613081.859      118059.652        2017.798          48.250  
G11  24275040.657      118556.818        2025.456          45.000  
G17  21908184.144     -135080.256       -2307.159          50.500  
G22  23777920.459       47529.943         830.991          48.500  
G28  21498458.139       21426.056         385.064          47.500  
> 2018  4 22 11 21 53.6688020  0  5                     
G 1  23614951.989      118261.340        2016.637          48.250  
G11  24276910.703      118759.299        2024.714          45.000  
G17  21909971.497     -135310.994       -2307.740          50.500  
G22  23779767.800       47613.009         830.646          48.500  
G28  21500296.595       21464.528         384.497          47.750  
> 2018  4 22 11 21 53.7688020  0  5                     
G 1  23616822.179      118462.974        2015.935          48.250  
G11  24278780.460      118961.728        2023.923          44.750  
G17  21911758.866     -135541.778       -2308.714          50.500  
G22  23781616.100       47696.032         829.697          48.500  
G28  21502135.562       21502.938         383.580          47.500  
> 2018  4 22 11 21 53.8688020  0  5                     
G 1  23618691.590      118664.525        2014.739          48.250  
G11  24280651.766      119164.045        2021.900          45.000  
G17  21913546.480     -135772.662       -2310.039          50.500  
G22  23783463.504       47778.972         828.581          48.500  
G28  21503975.230       21541.260         382.990          47.500  
> 2018  4 22 11 21 53.9688020  0  5                     
G 1  23620560.588      118865.969        2013.593          48.250  
G11  24282520.370      119366.285        2022.433          44.750  
G17  21915333.813     -136003.638       -2309.957          50.500  
G22  23785309.799       47861.800         827.871          48.250  
G28  21505812.643       21579.484         381.516          47.500  
> 2018  4 22 11 21 54.0688020  0  5                     
G 1  23622430.845      119067.352        2015.030          48.000  
G11  24284390.596      119568.482        2034.576          44.750  
G17  21917121.093     -136234.683       -2310.345          50.500  
G22  23787157.209       47944.580         828.085          48.250  
G28  21507653.254       21617.662         382.429          47.500  
> 2018  4 22 11 21 54.1688020  0  5                     
G 1  23624301.036      119268.720        2014.160          48.000  
G11  24286260.267      119770.094        1965.309          44.750  
G17  21918908.490     -136465.732       -2310.253          50.500  
G22  23789004.951       48027.348         828.416          48.250  
G28  21509490.996       21655.817         382.614          47.500  
> 2018  4 22 11 21 54.2688020  0  5                     
G 1  23626170.793      119470.143        2014.618          48.000  
G11  24288129.738      119972.811        2022.365          44.750  
G17  21920696.115     -136696.727       -2309.736          50.500  
G22  23790852.582       48110.180         828.278          48.250  
G28  21511329.247       21694.040         381.890          47.500  
> 2018  4 22 11 21 54.3688020  0  5                     
G 1  23628040.646      119671.656        2016.360          48.250  
G11  24289999.617      120175.091        2024.561          45.000  
G17  21922483.655     -136927.635       -2308.161          50.500  
G22  23792700.218       48193.104         830.473          48.500  
G28  21513169.475       21732.360         384.631          47.500  
> 2018  4 22 11 21 54.4688020  0  5                     
G 1  23629910.290      119873.305        2016.749          48.250  
G11  24291870.395      120377.532        2024.712          44.750  
G17  21924271.465     -137158.398       -2307.179          50.500  
G22  23794547.719       48276.160         831.422          48.500  
G28  21515006.949       21770.815         384.986          47.500  
> 2018  4 22 11 21 54.5688020  0  5                     
G 1  23631780.762      120075.002        2017.669          48.250  
G11  24293741.889      120580.021        2025.902          44.750  
G17  21926059.186     -137389.128       -2307.276          50.750  
G22  23796395.523       48359.277         831.770          48.500  
G28  21516846.781       21809.325         385.336          47.750  
> 2018  4 22 11 21 54.6688020  0  5                     
G 1  23633650.295      120276.748        2017.985          48.250  
G11  24295612.719      120782.542        2026.487          45.000  
G17  21927847.786     -137619.798       -2306.021          50.500  
G22  23798242.877       48442.439         832.416          48.500  
G28  21518684.949       21847.874         386.464          47.500  
> 2018  4 22 11 21 54.7688020  0  5                     
G 1  23635520.110      120478.530        2018.558          48.250  
G11  24297482.926      120985.096        2025.041          45.000  
G17  21929635.893     -137850.435       -2306.503          50.500  
G22  23800090.305       48525.635         832.220          48.250  
G28  21520523.652       21886.476         386.100          47.500  
> 2018  4 22 11 21 54.8688020  0  5                     
G 1  23637390.224      120680.273        2018.395          48.250  
G11  24299353.134      121187.622        2025.586          44.500  
G17  21931423.744     -138081.118       -2307.254          50.500  
G22  23801936.807       48608.806         832.444          48.500  
G28  21522363.966       21925.035         385.640          47.500  
> 2018  4 22 11 21 54.9688020  0  5                     
G 1  23639261.420      120881.987        2016.824          48.500  
G11  24301223.170      121390.114        2023.773          45.000  
G17  21933211.411     -138311.813       -2307.785          50.500  
G22  23803784.150       48691.946         830.626          48.250  
G28  21524201.968       21963.569         384.711          47.250  
> 2018  4 22 11 21 55.0688020  0  5                     
G 1  23641130.988      121083.611        2016.230          48.250  
G11  24303093.143      121592.522        2023.555          45.000  
G17  21934998.702     -138542.607       -2308.709          50.250  
G22  23805631.692       48775.011         830.295          48.500  
G28  21526041.662       22002.022         384.670          47.500  
> 2018  4 22 11 21 55.1688020  0  5                     
G 1  23643001.183      121285.114        2014.645          48.250  
G11  24304963.039      121794.808        2022.716          45.000  
G17  21936785.773     -138773.507       -2309.591          50.500  
G22  23807478.994       48857.953         828.752          48.500  
G28  21527879.574       22040.365         383.174          47.750  
> 2018  4 22 11 21 55.2688020  0  5                     
G 1  23644871.568      121486.544        2014.206          48.250  
G11  24306832.872      121997.030        2021.437          45.000  
G17  21938573.583     -139004.492       -2310.254          50.500  
G22  23809326.266       48940.828         828.521          48.250  
G28  21529718.614       22078.638         382.299          47.250  
> 2018  4 22 11 21 55.3688020  0  5                     
G 1  23646741.632      121687.987        2014.530          47.750  
G11  24308702.141      122199.243        2022.268          44.750  
G17  21940361.064     -139235.463       -2309.646          50.500  
G22  23811174.111       49023.712         829.239          48.500  
G28  21531558.397       22116.921         382.793          47.500  
> 2018  4 22 11 21 55.4688020  0  5                     
G 1  23648610.917      121889.497        2015.745          48.250  
G11  24310572.016      122401.530        2022.278          44.750  
G17  21942148.736     -139466.370       -2308.959          50.750  
G22  23813020.903       49106.668         829.002          48.500  
G28  21533395.259       22155.272         383.405          47.750  
> 2018  4 22 11 21 55.5688020  0  5                     
G 1  23650480.344      122091.005        2015.670          48.000  
G11  24312441.416      122603.813        2022.675          44.750  
G17  21943936.441     -139697.273       -2309.222          50.500  
G22  23814867.394       49189.625         829.787          48.500  
G28  21535235.858       22193.635         383.856          47.500  
> 2018  4 22 11 21 55.6688020  0  5                     
G 1  23652350.172      122292.604        2016.679          48.250  
G11  24314311.651      122806.195        2023.500          45.000  
G17  21945723.740     -139928.075       -2307.879          50.500  
G22  23816714.855       49272.686         831.327          48.750  
G28  21537074.217       22232.092         385.820          47.500  
> 2018  4 22 11 21 55.7688020  0  5                     
G 1  23654220.225      122494.268        2016.584          48.250  
G11  24316182.566      123008.649        2023.934          44.750  
G17  21947511.423     -140158.828       -2308.302          50.750  
G22  23818562.693       49355.802         830.631          48.500  
G28  21538912.721       22270.613         384.697          47.500  
> 2018  4 22 11 21 55.8688020  0  5                     
G 1  23656090.564      122695.894        2016.901          48.250  
G11  24318052.986      123211.061        2024.253          45.000  
G17  21949298.814     -140389.609       -2308.110          50.500  
G22  23820410.229       49438.899         831.312          48.250  
G28  21540752.830       22309.095         384.845          47.250  
> 2018  4 22 11 21 55.9688020  0  5                     
G 1  23657960.577      122897.553        2017.068          48.000  
G11  24319923.735      123413.497        2024.999          44.500  
G17  21951087.048     -140620.359       -2307.457          50.250  
G22  23822258.150       49522.026         831.281          48.500  
G28  21542590.034       22347.627         385.240          47.500  
> 2018  4 22 11 21 56.0688020  0  5                     
G 1  23659830.273      123099.160        2016.100          48.250  
G11  24321793.012      123615.885        2024.253          44.750  
G17  21952874.567     -140851.149       -2308.290          50.750  
G22  23824105.665       49605.108         830.989          48.500  
G28  21544430.513       22386.116         385.200          47.500  
> 2018  4 22 11 21 56.1688020  0  5                     
G 1  23661699.843      123300.722        2016.334          48.250  
G11  24323662.574      123818.221        2023.213          45.000  
G17  21954662.090     -141081.995       -2308.565          50.500  
G22  23825952.291       49688.149         830.327          48.500  
G28  21546269.714       22424.545         384.192          47.500  
> 2018  4 22 11 21 56.2688020  0  5                     
G 1  23663569.452      123502.270        2015.771          48.250  
G11  24325533.083      124020.543        2022.879          45.000  
G17  21956450.128     -141312.862       -2309.086          50.750  
G22  23827799.610       49771.157         830.614          48.500  
G28  21548108.520       22462.966         383.626          47.500  
> 2018  4 22 11 21 56.3688020  0  5                     
G 1  23665439.155      123703.743        2015.590          48.000  
G11  24327402.682      124222.797        2023.234          44.750  
G17  21958237.337     -141543.797       -2309.365          50.500  
G22  23829646.536       49854.112         829.290          48.500  
G28  21549948.289       22501.321         383.217          47.500  
> 2018  4 22 11 21 56.4688020  0  5                     
G 1  23667308.555      123905.200        2013.359          48.250  
G11  24329272.947      124425.046        2021.772          44.750  
G17  21960025.567     -141774.726       -2309.957          50.750  
G22  23831494.735       49937.070         829.662          48.500  
G28  21551785.581       22539.692         382.885          47.750  
> 2018  4 22 11 21 56.5688020  0  5                     
G 1  23669178.543      124106.567        2014.277          48.000  
G11  24331143.439      124627.187        2021.356          44.750  
G17  21961813.468     -142005.763       -2310.254          50.750  
G22  23833342.019       50019.920         829.379          48.750  
G28  21553624.942       22577.945         383.253          47.250  
> 2018  4 22 11 21 56.6688020  0  5                     
G 1  23671048.753      124307.887        2013.566          48.000  
G11  24333012.593      124829.270        2020.033          44.750  
G17  21963601.386     -142236.853       -2310.904          50.750  
G22  23835190.154       50102.732         827.869          48.250  
G28  21555462.635       22616.153         382.607          47.500  
> 2018  4 22 11 21 56.7688020  0  5                     
G 1  23672918.875      124509.147        2012.438          48.250  
G11  24334881.971      125031.316        2019.762          44.750  
G17  21965389.177     -142467.990       -2311.415          50.750  
G22  23837037.814       50185.487         826.838          48.500  
G28  21557301.407       22654.314         381.420          47.750  
> 2018  4 22 11 21 56.8688020  0  5                     
G 1  23674789.150      124710.334        2010.872          48.250  
G11  24336751.759      125233.265        2018.641          44.750  
G17  21967176.849     -142699.209       -2313.152          51.000  
G22  23838884.992       50268.178         826.008          48.500  
G28  21559141.456       22692.402         380.443          47.500  
> 2018  4 22 11 21 56.9688020  0  5                     
G 1  23676659.289      124911.466        2011.237          48.250  
G11  24338622.640      125435.194        2019.249          44.500  
G17  21968963.915     -142930.467       -2311.848          50.750  
G22  23840731.425       50350.813         827.207          48.750  
G28  21560978.995       22730.448         379.867          47.750  
> 2018  4 22 11 21 57.0688020  0  5                     
G 1  23678529.817      125112.587        2012.170          48.250  
G11  24340492.499      125637.075        2019.177          44.750  
G17  21970751.582     -143161.765       -2313.211          50.750  
G22  23842579.188       50433.430         826.430          48.750  
G28  21562819.163       22768.466         380.438          47.750  
> 2018  4 22 11 21 57.1688020  0  5                     
G 1  23680399.931      125313.605        2009.165          48.000  
G11  24342362.734      125838.897        2017.802          44.750  
G17  21972538.914     -143393.132       -2314.131          50.750  
G22  23844426.402       50515.969         825.061          48.500  
G28  21564657.558       22806.411         379.499          47.500  
> 2018  4 22 11 21 57.2688020  0  5                     
G 1  23682270.065      125514.618        2009.880          48.250  
G11  24344232.568      126040.659        2016.504          44.500  
G17  21974327.105     -143624.522       -2314.528          50.500  
G22  23846274.234       50598.496         824.339          48.500  
G28  21566495.921       22844.340         378.547          47.500  
> 2018  4 22 11 21 57.3688020  0  5                     
G 1  23684139.576      125715.595        2009.261          48.000  
G11  24346102.366      126242.425        2018.102          44.500  
G17  21976114.437     -143855.935       -2314.227          51.000  
G22  23848121.294       50680.994         824.857          48.750  
G28  21568335.930       22882.257         378.497          47.750  
> 2018  4 22 11 21 57.4688020  0  5                     
G 1  23686009.051      125916.521        2009.226          48.250  
G11  24347971.947      126444.123        2017.683          44.500  
G17  21977902.537     -144087.409       -2314.927          50.750  
G22  23849969.003       50763.438         823.953          48.500  
G28  21570172.834       22920.113         378.315          47.750  
> 2018  4 22 11 21 57.5688020  0  5                     
G 1  23687879.114      126117.448        2009.314          48.500  
G11  24349841.914      126645.815        2017.203          44.500  
G17  21979690.137     -144318.887       -2315.432          50.750  
G22  23851815.929       50845.895         824.692          48.750  
G28  21572012.558       22957.954         378.449          47.500  
> 2018  4 22 11 21 57.6688020  0  5                     
G 1  23689748.433      126318.353        2008.938          48.250  
G11  24351712.456      126847.501        2016.514          44.500  
G17  21981477.640     -144550.368       -2315.217          50.750  
G22  23853663.516       50928.329         824.326          48.500  
G28  21573851.290       22995.802         378.766          47.250  
> 2018  4 22 11 21 57.7688020  0  5                     
G 1  23691618.383      126519.280        2009.375          47.750  
G11  24353583.762      127049.214        2016.666          44.000  
G17  21983265.682     -144781.820       -2314.786          50.250  
G22  23855510.544       51010.804         824.824          48.250  
G28  21575690.428       23033.684         378.495          47.250  
> 2018  4 22 11 21 57.8688020  0  5                     
G 1  23693488.105      126720.225        2010.293          48.000  
G11  24355452.639      127250.928        2017.269          44.500  
G17  21985053.480     -145013.274       -2313.907          50.750  
G22  23857357.820       51093.269         825.656          48.500  
G28  21577530.558       23071.571         379.956          47.500  
> 2018  4 22 11 21 57.9688020  0  5                     
G 1  23695358.086      126921.180        2010.427          48.250  
G11  24357323.458      127452.647        2017.415          44.750  
G17  21986841.614     -145244.713       -2314.062          51.000  
G22  23859205.189       51175.764         825.064          48.500  
G28  21579366.994       23109.484         379.599          47.750  
> 2018  4 22 11 21 58.0688020  0  5                     
G 1  23697227.861      127122.168        2010.118          48.250  
G11  24359193.028      127654.425        2017.452          44.750  
G17  21988628.871     -145476.114       -2314.150          51.000  
G22  23861052.668       51258.302         824.646          48.750  
G28  21581206.208       23147.428         379.123          47.750  
> 2018  4 22 11 21 58.1688020  0  5                     
G 1  23699097.363      127323.209        2011.333          48.250  
G11  24361063.146      127856.241        2018.224          44.750  
G17  21990415.825     -145707.466       -2313.272          51.000  
G22  23862900.417       51340.900         826.608          48.750  
G28  21583046.295       23185.419         380.444          47.750  
> 2018  4 22 11 21 58.2688020  0  5                     
G 1  23700966.933      127524.265        2011.430          48.250  
G11  24362933.812      128058.071        2019.122          44.500  
G17  21992203.362     -145938.797       -2313.417          51.000  
G22  23864746.908       51423.498         826.780          49.000  
G28  21584884.527       23223.443         380.697          47.750  
> 2018  4 22 11 21 58.3688020  0  5                     
G 1  23702837.349      127725.381        2012.047          48.250  
G11  24364804.312      128259.953        2018.926          44.500  
G17  21993990.688     -146170.076       -2312.714          51.000  
G22  23866594.164       51506.174         827.037          48.500  
G28  21586724.374       23261.521         381.119          47.750  
> 2018  4 22 11 21 58.4688020  0  5                     
G 1  23704707.216      127926.588        2012.518          48.000  
G11  24366673.607      128461.936        2019.888          44.500  
G17  21995778.908     -146401.248       -2311.616          50.750  
G22  23868441.315       51588.940         828.316          48.250  
G28  21588561.105       23299.706         383.036          47.250  
> 2018  4 22 11 21 58.5688020  0  5                     
G 1  23706576.835      128127.882        2013.386          47.750  
G11  24368543.207      128664.020        2021.859          44.500  
G17  21997566.497     -146632.339       -2310.680          50.750  
G22  23870288.306       51671.802         829.368          48.250  
G28  21590400.701       23337.977         383.337          47.500  
> 2018  4 22 11 21 58.6688020  0  5                     
G 1  23708446.622      128329.242        2013.448          48.000  
G11  24370412.470      128866.145        2021.987          44.250  
G17  21999353.816     -146863.371       -2310.414          50.750  
G22  23872135.865       51754.723         829.181          48.750  
G28  21592240.365       23376.299         383.263          47.500  
> 2018  4 22 11 21 58.7688020  0  5                     
G 1  23710316.365      128530.632        2014.478          48.250  
G11  24372282.489      129068.312        2022.355          44.500  
G17  22001141.900     -147094.363       -2309.244          51.000  
G22  23873983.557       51837.698         830.785          48.750  
G28  21594078.249       23414.692         383.991          47.750  
> 2018  4 22 11 21 58.8688020  0  5                     
G 1  23712185.898      128732.089        2014.555          48.250  
G11  24374152.546      129270.539        2022.530          44.750  
G17  22002929.320     -147325.292       -2309.754          51.000  
G22  23875831.483       51920.714         830.139          48.750  
G28  21595919.250       23453.136         384.206          47.750  
> 2018  4 22 11 21 58.9688020  0  5                     
G 1  23714055.745      128933.597        2015.356          48.000  
G11  24376021.552      129472.825        2022.480          44.750  
G17  22004716.766     -147556.164       -2308.575          50.750  
G22  23877680.072       52003.805         831.020          48.250  
G28  21597756.539       23491.639         385.818          47.250  
> 2018  4 22 11 21 59.0688020  0  5                     
G 1  23715925.701      129135.150        2015.358          47.750  
G11  24377891.550      129675.122        2022.119          44.250  
G17  22006504.300     -147787.008       -2308.864          50.750  
G22  23879525.897       52086.935         831.249          48.500  
G28  21599596.413       23530.173         384.611          47.500  
> 2018  4 22 11 21 59.1688020  0  5                     
G 1  23717795.160      129336.640        2014.971          48.000  
G11  24379761.826      129877.397        2022.503          44.500  
G17  22008291.228     -148017.890       -2309.098          51.000  
G22  23881373.507       52170.010         830.647          48.750  
G28  21601434.783       23568.669         384.371          47.750  
> 2018  4 22 11 21 59.2688020  0  5                     
G 1  23719665.147      129538.040        2013.835          48.000  
G11  24381631.791      130079.573        2021.325          44.500  
G17  22010078.960     -148248.867       -2310.116          50.750  
G22  23883219.804       52253.006         830.045          48.750  
G28  21603272.609       23607.088         384.151          47.750  
> 2018  4 22 11 21 59.3688020  0  5                     
G 1  23721535.283      129739.394        2013.218          48.000  
G11  24383501.823      130281.678        2021.021          44.500  
G17  22011866.635     -148479.908       -2310.498          51.000  
G22  23885067.375       52335.943         829.579          48.750  
G28  21605113.887       23645.430         383.432          47.750  
> 2018  4 22 11 21 59.4688020  0  5                     
G 1  23723405.158      129940.723        2014.121          47.750  
G11  24385372.494      130483.795        2021.899          44.500  
G17  22013654.796     -148710.958       -2310.333          50.750  
G22  23886915.159       52418.868         829.502          48.500  
G28  21606949.991       23683.782         384.010          47.250  
> 2018  4 22 11 21 59.5688020  0  5                     
G 1  23725274.765      130142.071        2014.463          47.750  
G11  24387243.322      130685.912        2022.296          44.750  
G17  22015442.732     -148941.978       -2310.066          51.000  
G22  23888762.839       52501.824         830.321          48.750  
G28  21608788.811       23722.148         384.622          47.750  
> 2018  4 22 11 21 59.6688020  0  5                     
G 1  23727145.181      130343.492        2014.087          48.000  
G11  24389113.156      130888.101        2021.250          44.500  
G17  22017230.634     -149172.947       -2310.316          51.000  
G22  23890610.248       52584.845         829.889          48.750  
G28  21610628.564       23760.581         383.644          47.500  
> 2018  4 22 11 21 59.7688020  0  5                     
G 1  23729014.595      130544.871        2014.016          47.750  
G11  24390982.561      131090.277        2022.526          44.500  
G17  22019018.913     -149403.930       -2310.518          50.750  
G22  23892457.350       52667.842         830.348          48.500  
G28  21612466.489       23799.000         384.166          47.500  
> 2018  4 22 11 21 59.8688020  0  5                     
G 1  23730883.959      130746.254        2013.742          48.250  
G11  24392853.770      131292.405        2021.394          44.500  
G17  22020806.826     -149634.942       -2309.735          51.000  
G22  23894304.312       52750.823         830.334          48.500  
G28  21614307.706       23837.392         384.070          47.500  
> 2018  4 22 11 21 59.9688020  0  5                     
G 1  23732753.886      130947.625        2013.635          48.000  
G11  24394724.515      131494.543        2020.370          44.750  
G17  22022594.484     -149865.942       -2310.423          51.000  
G22  23896151.121       52833.802         830.037          48.750  
G28  21616144.797       23875.811         384.053          47.500  
> 2018  4 22 11 22  0.0688020  0  5                     
G 1  23734623.815      131148.988        2012.914          48.000  
G11  24396594.661      131696.682        2021.380          44.750  
G17  22024381.824     -150096.952       -2310.014          51.250  
G22  23897998.583       52916.792         829.714          48.750  
G28  21617983.783       23914.205         383.768          47.500  
> 2018  4 22 11 22  0.1688020  0  5                     
G 1  23736493.924      131350.361        2012.537          48.000  
G11  24398465.185      131898.829        2022.014          44.750  
G17  22026168.813     -150327.957       -2310.495          51.000  
G22  23899846.327       52999.776         829.017          48.750  
G28  21619823.216       23952.622         383.864          47.500  
> 2018  4 22 11 22  0.2688020  0  5                     
G 1  23738363.494      131551.711        2013.266          48.000  
G11  24400334.344      132100.952        2021.610          44.500  
G17  22027956.488     -150558.975       -2310.912          51.000  
G22  23901694.552       53082.768         829.106          48.750  
G28  21621661.661       23991.032         383.335          47.750  
> 2018  4 22 11 22  0.3688020  0  5                     
G 1  23740233.439      131753.063        2013.922          47.750  
G11  24402204.344      132303.059        2021.473          44.250  
G17  22029743.922     -150789.998       -2309.779          51.000  
G22  23903542.387       53165.749         830.616          48.750  
G28  21623502.804       24029.417         383.610          47.500  
> 2018  4 22 11 22  0.4688020  0  5                     
G 1  23742102.828      131954.433        2012.507          47.750  
G11  24404073.350      132505.205        2021.268          44.750  
G17  22031531.347     -151021.000       -2311.004          51.000  
G22  23905389.614       53248.752         829.174          48.750  
G28  21625339.920       24067.854         383.472          47.750  
> 2018  4 22 11 22  0.5688020  0  5                     
G 1  23743972.363      132155.789        2014.767          47.750  
G11  24405943.191      132707.321        2021.007          44.250  
G17  22033319.128     -151252.022       -2310.167          51.250  
G22  23907235.721       53331.747         830.162          48.750  
G28  21627178.786       24106.259         384.886          47.500  
> 2018  4 22 11 22  0.6688020  0  5                     
G 1  23745842.443      132357.151        2014.052          48.000  
G11  24407812.309      132909.459        2021.949          44.500  
G17  22035106.680     -151483.036       -2309.359          51.250  
G22  23909082.568       53414.727         830.255          48.750  
G28  21629018.117       24144.684         384.865          47.500  
> 2018  4 22 11 22  0.7688020  0  5                     
G 1  23747713.247      132558.549        2014.126          47.750  
G11  24409683.142      133111.634        2022.251          44.000  
G17  22036894.686     -151713.999       -2310.018          50.750  
G22  23910930.089       53497.777         829.465          48.250  
G28  21630856.825       24183.163         384.707          47.250  
> 2018  4 22 11 22  0.8688020  0  5                     
G 1  23749582.817      132759.914        2014.097          47.750  
G11  24411552.928      133313.764        2021.982          44.000  
G17  22038682.454     -151945.007       -2310.002          51.000  
G22  23912777.937       53580.795         830.331          49.000  
G28  21632697.406       24221.598         384.933          47.750  
> 2018  4 22 11 22  0.9688020  0  5                     
G 1  23751452.945      132961.274        2013.423          47.750  
G11  24413422.303      133515.886        2021.283          44.500  
G17  22040470.209     -152176.015       -2310.468          51.250  
G22  23914625.475       53663.809         830.135          48.750  
G28  21634534.421       24260.031         383.940          47.750  
> 2018  4 22 11 22  1.0688020  0  5                     
G 1  23753322.896      133162.629        2014.026          48.000  
G11  24415292.867      133717.993        2020.776          44.500  
G17  22042258.072     -152407.027       -2310.115          51.250  
G22  23916473.874       53746.819         830.362          48.750  
G28  21636373.332       24298.455         384.324          47.500  
> 2018  4 22 11 22  1.1688020  0  5                     
G 1  23755193.747      133364.019        2013.640          47.750  
G11  24417162.673      133920.156        2021.424          44.500  
G17  22044045.507     -152638.002       -2310.098          51.250  
G22  23918320.689       53829.877         830.352          48.750  
G28  21638213.398       24336.929         384.230          47.750  
> 2018  4 22 11 22  1.2688020  0  5                     
G 1  23757063.613      133565.393        2013.983          48.000  
G11  24419033.070      134122.302        2021.531          44.750  
G17  22045833.663     -152868.990       -2309.923          51.000  
G22  23920167.924       53912.914         831.011          49.000  
G28  21640050.856       24375.399         384.975          47.750  
> 2018  4 22 11 22  1.3688020  0  5                     
G 1  23758932.498      133766.768        2013.197          48.000  
G11  24420902.906      134324.451        2021.089          44.500  
G17  22047621.130     -153099.982       -2310.612          51.250  
G22  23922015.102       53995.951         830.362          49.000  
G28  21641890.863       24413.860         383.999          47.750  
> 2018  4 22 11 22  1.4688020  0  5                     
G 1  23760801.949      133968.150        2014.337          48.000  
G11  24422772.671      134526.595        2020.678          44.500  
G17  22049408.587     -153330.966       -2310.139          51.250  
G22  23923862.892       54079.001         830.775          48.750  
G28  21643728.444       24452.343         384.288          47.750  
> 2018  4 22 11 22  1.5688020  0  5                     
G 1  23762671.440      134169.500        2013.645          47.750  
G11  24424643.168      134728.706        2020.134          44.250  
G17  22051196.136     -153561.978       -2310.307          51.000  
G22  23925709.949       54162.027         830.347          48.750  
G28  21645567.763       24490.794         384.595          47.750  
> 2018  4 22 11 22  1.6688020  0  5                     
G 1  23764541.445      134370.867        2013.703          48.000  
G11  24426513.298      134930.844        2021.803          44.500  
G17  22052983.116     -153792.978       -2309.901          51.000  
G22  23927557.624       54245.062         830.651          48.750  
G28  21647406.797       24529.258         385.374          47.500  
> 2018  4 22 11 22  1.7688020  0  5                     
G 1  23766412.606      134572.248        2013.644          48.000  
G11  24428383.299      135132.992        2020.997          44.250  
G17  22054770.956     -154023.951       -2309.767          51.000  
G22  23929405.297       54328.136         830.120          48.750  
G28  21649245.470       24567.766         384.588          47.500  
> 2018  4 22 11 22  1.8688020  0  5                     
G 1  23768282.309      134773.652        2014.094          47.500  
G11  24430253.362      135335.172        2022.665          44.000  
G17  22056558.251     -154254.906       -2309.401          51.000  
G22  23931252.575       54411.233         831.253          48.500  
G28  21651086.314       24606.285         385.635          47.500  
> 2018  4 22 11 22  1.9688020  0  5                     
G 1  23770151.868      134975.094        2014.810          47.750  
G11  24432124.629      135537.377        2022.837          44.250  
G17  22058345.624     -154485.826       -2309.014          51.000  
G22  23933099.161       54494.357         831.199          48.500  
G28  21652923.727       24644.840         385.572          47.500  
> 2018  4 22 11 22  2.0688020  0  5                     
G 1  23772021.673      135176.610        2015.112          47.750  
G11  24433994.207      135739.645        2022.632          44.250  
G17  22060134.131     -154716.682       -2308.886          51.250  
G22  23934945.803       54577.570         832.213          48.750  
G28  21654763.482       24683.471         386.048          47.750  
> 2018  4 22 11 22  2.1688020  0  5                     
G 1  23773891.736      135378.065        2015.423          48.000  
G11  24435863.521      135941.862        2023.474          44.250  
G17  22061921.829     -154947.592       -2308.840          51.250  
G22  23936793.650       54660.710         832.019          49.000  
G28  21656601.981       24722.039         386.129          47.750  
> 2018  4 22 11 22  2.2688020  0  5                     
G 1  23775761.498      135579.527        2014.885          48.000  
G11  24437734.010      136144.102        2022.677          44.250  
G17  22063710.200     -155178.477       -2308.784          51.000  
G22  23938641.025       54743.879         832.365          48.750  
G28  21658440.389       24760.652         386.312          47.500  
> 2018  4 22 11 22  2.3688020  0  5                     
G 1  23777631.882      135781.031        2014.638          47.750  
G11  24439603.968      136346.367        2023.559          44.000  
G17  22065497.372     -155409.324       -2308.732          51.000  
G22  23940488.540       54827.089         832.294          48.500  
G28  21660280.831       24799.281         386.372          47.250  
> 2018  4 22 11 22  2.4688020  0  5                     
G 1  23779501.846      135982.516        2015.115          48.000  
G11  24441474.048      136548.617        2023.426          44.000  
G17  22067284.701     -155640.196       -2309.368          51.250  
G22  23942336.415       54910.282         831.818          48.750  
G28  21662117.553       24837.915         385.849          47.750  
> 2018  4 22 11 22  2.5688020  0  5                     
G 1  23781372.182      136184.058        2015.521          48.000  
G11  24443343.995      136750.925        2024.091          44.250  
G17  22069072.883     -155871.011       -2308.150          51.250  
G22  23944184.244       54993.534         832.217          48.750  
G28  21663956.478       24876.582         386.712          47.250  
> 2018  4 22 11 22  2.6688020  0  5                     
G 1  23783242.158      136385.588        2015.427          47.500  
G11  24445213.782      136953.216        2023.114          43.750  
G17  22070860.523     -156101.828       -2308.065          51.000  
G22  23946030.562       55076.789         832.850          48.500  
G28  21665795.591       24915.275         387.042          47.250  
> 2018  4 22 11 22  2.7688020  0  5                     
G 1  23785111.705      136587.182        2016.554          48.000  
G11  24447083.730      137155.572        2024.183          44.000  
G17  22072648.690     -156332.594       -2306.883          51.250  
G22  23947878.036       55160.086         833.655          48.750  
G28  21667633.614       24954.020         388.376          47.750  
> 2018  4 22 11 22  2.8688020  0  5                     
G 1  23786982.162      136788.787        2016.237          48.000  
G11  24448953.753      137357.943        2024.618          44.000  
G17  22074436.420     -156563.338       -2307.564          51.500  
G22  23949725.122       55243.422         833.353          48.750  
G28  21669473.777       24992.778         387.587          47.750  
> 2018  4 22 11 22  2.9688020  0  5                     
G 1  23788852.214      136990.372        2016.341          48.000  
G11  24450824.383      137560.289        2023.263          44.250  
G17  22076224.317     -156794.109       -2307.563          51.250  
G22  23951572.856       55326.730         833.488          48.500  
G28  21671311.512       25031.526         388.110          47.750  
> 2018  4 22 11 22  3.0688020  0  5                     
G 1  23790721.639      137191.989        2015.405          47.750  
G11  24452695.466      137762.661        2023.447          43.750  
G17  22078012.059     -157024.844       -2307.808          51.000  
G22  23953420.411       55410.081         833.299          48.500  
G28  21673150.569       25070.295         387.454          47.500  
> 2018  4 22 11 22  3.1688020  0  5                     
G 1  23792591.090      137393.583        2015.832          48.000  
G11  24454565.008      137965.014        2023.067          44.000  
G17  22079799.501     -157255.607       -2307.750          51.250  
G22  23955268.816       55493.394         832.804          49.000  
G28  21674990.442       25109.051         387.889          47.750  
> 2018  4 22 11 22  3.2688020  0  5                     
G 1  23794460.959      137595.123        2015.909          48.000  
G11  24456435.989      138167.324        2023.389          44.250  
G17  22081587.224     -157486.409       -2307.817          51.250  
G22  23957116.884       55576.691         832.733          48.750  
G28  21676828.837       25147.783         387.980          47.750  
> 2018  4 22 11 22  3.3688020  0  5                     
G 1  23796330.907      137796.596        2014.785          48.000  
G11  24458306.243      138369.569        2022.528          44.000  
G17  22083374.586     -157717.289       -2309.124          51.250  
G22  23958965.403       55659.905         832.097          48.750  
G28  21678668.776       25186.423         386.365          47.750  
> 2018  4 22 11 22  3.4688020  0  5                     
G 1  23798200.745      137998.054        2014.778          48.000  
G11  24460176.811      138571.769        2021.682          44.000  
G17  22085162.065     -157948.176       -2309.121          51.250  
G22  23960812.110       55743.112         832.107          49.000  
G28  21680506.624       25225.070         386.320          47.750  
> 2018  4 22 11 22  3.5688020  0  5                     
G 1  23800070.509      138199.536        2015.208          48.000  
G11  24462046.263      138774.015        2022.885          44.250  
G17  22086949.916     -158179.046       -2308.228          51.250  
G22  23962657.538       55826.335         832.685          48.750  
G28  21682346.546       25263.724         386.894          47.500  
> 2018  4 22 11 22  3.6688020  0  5                     
G 1  23801940.988      138400.973        2014.821          48.000  
G11  24463917.138      138976.215        2022.422          44.250  
G17  22088737.438     -158409.961       -2309.011          51.500  
G22  23964504.792       55909.526         832.642          49.000  
G28  21684185.537       25302.346         386.992          47.750  
> 2018  4 22 11 22  3.7688020  0  5                     
G 1  23803810.662      138602.451        2015.472          48.000  
G11  24465786.405      139178.466        2023.308          44.000  
G17  22090525.908     -158640.817       -2308.437          51.250  
G22  23966352.185       55992.764         832.832          49.000  
G28  21686023.957       25341.031         386.838          47.750  
> 2018  4 22 11 22  3.8688020  0  5                     
G 1  23805680.273      138803.992        2016.217          48.000  
G11  24467655.965      139380.752        2023.465          44.000  
G17  22092313.470     -158871.631       -2307.597          51.500  
G22  23968200.046       56076.053         833.681          48.750  
G28  21687864.915       25379.754         387.618          47.750  
> 2018  4 22 11 22  3.9688020  0  5                     
G 1  23807550.001      139005.621        2016.957          48.000  
G11  24469525.596      139583.147        2024.651          43.750  
G17  22094100.915     -159102.348       -2306.953          51.250  
G22  23970048.150       56159.460         834.398          48.750  
G28  21689702.327       25418.590         388.277          47.500  
> 2018  4 22 11 22  4.0688020  0  5                     
G 1  23809420.682      139207.313        2016.810          47.750  
G11  24471394.342      139785.601        2025.156          43.750  
G17  22095888.508     -159333.000       -2306.242          51.000  
G22  23971896.184       56242.915         834.652          48.750  
G28  21691542.303       25457.486         389.029          47.250  
> 2018  4 22 11 22  4.1688020  0  5                     
G 1  23811290.241      139409.070        2018.830          47.750  
G11  24473264.707      139988.122        2025.323          43.750  
G17  22097675.939     -159563.579       -2305.409          51.000  
G22  23973743.220       56326.451         836.629          48.750  
G28  21693381.150       25496.451         390.394          47.500  
> 2018  4 22 11 22  4.2688020  0  5                     
G 1  23813160.705      139610.938        2019.253          47.750  
G11  24475134.751      140190.747        2026.042          43.750  
G17  22099463.656     -159794.046       -2304.537          51.250  
G22  23975589.893       56410.092         836.322          48.750  
G28  21695220.059       25535.547         390.898          47.500  
> 2018  4 22 11 22  4.3688020  0  5                     
G 1  23815030.251      139812.845        2018.692          48.000  
G11  24477004.347      140393.418        2026.972          43.750  
G17  22101251.646     -160024.486       -2304.728          51.500  
G22  23977437.341       56493.784         837.204          49.000  
G28  21697059.880       25574.676         391.797          47.500  
> 2018  4 22 11 22  4.4688020  0  5                     
G 1  23816901.459      140014.826        2020.645          47.500  
G11  24478873.229      140596.158        2027.624          43.250  
G17  22103039.379     -160254.841       -2302.813          51.000  
G22  23979284.705       56577.541         838.594          48.250  
G28  21698896.827       25613.878         392.900          47.250  
> 2018  4 22 11 22  4.5688020  0  5                     
G 1  23818771.478      140216.876        2021.104          47.750  
G11  24480743.810      140798.956        2027.911          43.500  
G17  22104827.383     -160485.134       -2302.865          51.250  
G22  23981132.331       56661.379         838.279          48.500  
G28  21700736.750       25653.150         392.737          47.250  
> 2018  4 22 11 22  4.6688020  0  5                     
G 1  23820642.128      140418.945        2020.519          47.750  
G11  24482614.070      141001.781        2028.592          43.750  
G17  22106615.030     -160715.416       -2303.364          51.250  
G22  23982980.424       56745.229         838.565          48.750  
G28  21702575.122       25692.435         392.757          47.500  
> 2018  4 22 11 22  4.7688020  0  5                     
G 1  23822512.530      140621.032        2021.388          47.500  
G11  24484485.596      141204.624        2027.527          43.500  
G17  22108402.934     -160945.668       -2302.865          51.000  
G22  23984828.130       56829.111         838.822          48.500  
G28  21704414.263       25731.750         392.589          47.000  
> 2018  4 22 11 22  4.8688020  0  5                     
G 1  23824382.179      140823.109        2020.708          47.750  
G11  24486355.451      141407.473        2028.211          43.500  
G17  22110190.664     -161175.919       -2302.986          51.250  
G22  23986676.236       56912.991         838.849          48.750  
G28  21706254.489       25771.084         392.795          47.750  
> 2018  4 22 11 22  4.9688020  0  5                     
G 1  23826252.156      141025.208        2021.244          48.000  
G11  24488225.320      141610.335        2028.903          43.500  
G17  22111977.904     -161406.155       -2302.610          51.500  
G22  23988523.118       56996.896         839.301          49.000  
G28  21708092.645       25810.427         392.955          47.750  
> 2018  4 22 11 22  5.0688020  0  5                     
G 1  23828122.352      141227.244        2020.037          47.750  
G11  24490095.213      141813.121        2027.805          43.750  
G17  22113765.616     -161636.453       -2303.184          51.500  
G22  23990370.614       57080.726         838.255          48.750  
G28  21709933.561       25849.703         392.416          47.750  
> 2018  4 22 11 22  5.1688020  0  5                     
G 1  23829991.532      141429.236        2019.389          48.000  
G11  24491965.310      142015.867        2026.888          43.750  
G17  22115553.149     -161866.801       -2304.293          51.250  
G22  23992217.376       57164.528         837.433          48.500  
G28  21711771.186       25888.959         392.178          47.500  
> 2018  4 22 11 22  5.2688020  0  5                     
G 1  23831861.307      141631.167        2019.903          47.500  
G11  24493835.982      142218.548        2026.729          43.500  
G17  22117341.001     -162097.213       -2303.958          51.000  
G22  23994065.207       57248.268         837.988          48.750  
G28  21713610.692       25928.128         392.630          47.500  
> 2018  4 22 11 22  5.3688020  0  5                     
G 1  23833731.237      141833.119        2020.018          48.000  
G11  24495706.698      142421.280        2027.977          43.500  
G17  22119128.845     -162327.573       -2303.405          51.250  
G22  23995913.063       57332.052         838.608          49.000  
G28  21715449.952       25967.362         392.736          47.750  
> 2018  4 22 11 22  5.4688020  0  5                     
G 1  23835601.327      142035.122        2020.396          47.750  
G11  24497576.622      142624.023        2027.611          43.500  
G17  22120916.119     -162557.917       -2303.370          51.500  
G22  23997761.016       57415.863         838.458          49.000  
G28  21717288.189       26006.614         392.728          47.750  
> 2018  4 22 11 22  5.5688020  0  5                     
G 1  23837471.307      142237.102        2019.540          47.750  
G11  24499446.616      142826.787        2027.707          43.500  
G17  22122704.262     -162788.256       -2303.239          51.500  
G22  23999608.372       57499.676         837.591          48.750  
G28  21719128.319       26045.871         392.367          47.500  
> 2018  4 22 11 22  5.6688020  0  5                     
G 1  23839341.206      142439.012        2019.047          48.000  
G11  24501316.618      143029.433        2027.020          43.750  
G17  22124491.756     -163018.687       -2304.598          51.500  
G22  24001455.575       57583.406         837.181          49.000  
G28  21720966.242       26085.048         391.556          47.750  
> 2018  4 22 11 22  5.7688020  0  5                     
G 1  23841211.255      142640.861        2018.763          47.750  
G11  24503186.177      143232.031        2026.248          43.750  
G17  22126279.958     -163249.172       -2305.089          51.500  
G22  24003303.213       57667.084         836.905          49.000  
G28  21722806.137       26124.176         391.492          47.750  
> 2018  4 22 11 22  5.8688020  0  5                     
G 1  23843081.431      142842.657        2018.346          48.000  
G11  24505056.473      143434.590        2025.853          43.750  
G17  22128068.070     -163479.705       -2305.222          51.500  
G22  24005150.932       57750.717         836.805          49.000  
G28  21724645.035       26163.248         390.707          47.750  
> 2018  4 22 11 22  5.9688020  0  5                     
G 1  23844951.587      143044.504        2018.861          47.750  
G11  24506926.934      143637.197        2027.229          43.250  
G17  22129855.628     -163710.182       -2304.519          51.500  
G22  24006998.274       57834.413         837.633          48.500  
G28  21726483.465       26202.395         392.476          47.500  
> 2018  4 22 11 22  6.0688020  0  5                     
G 1  23846821.693      143246.463        2019.755          47.750  
G11  24508796.946      143839.902        2026.429          43.500  
G17  22131644.159     -163940.556       -2303.816          51.500  
G22  24008844.998       57918.203         837.834          48.750  
G28  21728323.745       26241.628         392.236          47.500  
> 2018  4 22 11 22  6.1688020  0  5                     
G 1  23848691.650      143448.459        2020.248          48.000  
G11  24510667.143      144042.644        2027.262          43.750  
G17  22133432.066     -164170.890       -2303.174          51.750  
G22  24010692.480       58002.046         839.183          49.000  
G28  21730160.949       26280.917         393.931          47.750  
> 2018  4 22 11 22  6.2688020  0  5                     
G 1  23850561.797      143650.515        2020.602          48.000  
G11  24512538.574      144245.476        2029.200          43.500  
G17  22135219.913     -164401.159       -2302.879          51.500  
G22  24012541.011       58085.954         839.459          48.750  
G28  21732000.467       26320.276         393.497          47.500  
> 2018  4 22 11 22  6.3688020  0  5                     
G 1  23852431.988      143852.601        2020.064          47.500  
G11  24514408.120      144448.311        2027.923          43.000  
G17  22137007.569     -164631.398       -2303.081          51.250  
G22  24014388.713       58169.902         838.669          48.500  
G28  21733839.276       26359.659         392.803          47.500  
> 2018  4 22 11 22  6.4688020  0  5                     
G 1  23854302.030      144054.656        2020.083          48.000  
G11  24516278.759      144651.108        2027.069          43.500  
G17  22138795.343     -164861.676       -2303.124          51.500  
G22  24016235.560       58253.797         839.132          49.000  
G28  21735677.918       26399.017         393.124          47.750  
> 2018  4 22 11 22  6.5688020  0  5                     
G 1  23856171.802      144256.805        2024.373          47.750  
G11  24518149.626      144854.022        2032.228          43.000  
G17  22140583.433     -165091.841       -2298.929          51.500  
G22  24018083.441       58337.820         843.251          48.500  
G28  21737518.942       26438.487         397.362          47.000  
> 2018  4 22 11 22  6.6688020  0  5                     
G 1  23858042.090      144459.586        2029.657          46.750  
G11  24520019.735      145057.556        2037.195          42.250  
G17  22142371.682     -165321.388       -2293.807          50.500  
G22  24019931.140       58422.459         848.451          48.000  
G28  21739356.441       26478.587         402.560          47.000  
> 2018  4 22 11 22  6.7688020  0  5                     
G 1  23859912.123      144662.531        2029.044          47.750  
G11  24521890.371      145261.248        2036.049          43.250  
G17  22144159.084     -165550.767       -2294.823          51.500  
G22  24021778.394       58507.270         847.085          49.000  
G28  21741196.701       26518.843         401.976          47.750  
> 2018  4 22 11 22  6.8688020  0  5                     
G 1  23861781.842      144865.104        2024.070          47.500  
G11  24523760.751      145464.570        2031.667          43.000  
G17  22145947.609     -165780.511       -2299.112          51.250  
G22  24023626.665       58591.717         842.987          48.250  
G28  21743035.485       26558.733         396.748          46.750  
> 2018  4 22 11 22  6.9688020  0  5                     
G 1  23863652.226      145067.520        2025.730          47.250  
G11  24525631.296      145667.736        2033.082          43.000  
G17  22147734.953     -166010.425       -2297.872          51.250  
G22  24025474.375       58676.003         844.071          49.000  
G28  21744873.942       26598.472         398.704          47.750  
> 2018  4 22 11 22  7.0688020  0  5                     
G 1  23865521.714      145270.041        2024.112          48.000  
G11  24527501.592      145871.003        2031.595          43.500  
G17  22149523.163     -166240.225       -2299.000          51.500  
G22  24027322.130       58760.405         843.120          49.000  
G28  21746714.249       26638.324         397.341          47.750  
> 2018  4 22 11 22  7.1688020  0  5                     
G 1  23867391.351      145472.289        2020.734          47.750  
G11  24529371.391      146074.007        2027.987          43.000  
G17  22151310.698     -166470.291       -2302.229          51.500  
G22  24029170.280       58844.546         840.415          48.750  
G28  21748551.759       26677.905         394.311          47.750  
> 2018  4 22 11 22  7.2688020  0  5                     
G 1  23869260.732      145674.298        2018.685          47.750  
G11  24531240.532      146276.783        2026.876          43.250  
G17  22153098.470     -166700.607       -2305.104          51.500  
G22  24031018.083       58928.443         837.729          48.500  
G28  21750391.925       26717.259         392.739          47.250  
> 2018  4 22 11 22  7.3688020  0  5                     
G 1  23871131.256      145876.067        2017.602          47.250  
G11  24533110.299      146479.282        2024.208          42.500  
G17  22154886.198     -166931.161       -2305.930          51.000  
G22  24032864.912       59012.094         836.288          48.750  
G28  21752230.129       26756.370         391.329          47.250  
> 2018  4 22 11 22  7.4688020  0  5                     
G 1  23873001.068      146077.855        2019.262          47.250  
G11  24534980.194      146681.848        2026.784          42.750  
G17  22156673.169     -167161.680       -2304.428          51.250  
G22  24034712.054       59095.785         837.864          48.500  
G28  21754068.369       26795.512         392.865          47.250  
> 2018  4 22 11 22  7.5688020  0  5                     
G 1  23874870.665      146279.803        2019.642          47.750  
G11  24536850.770      146884.547        2027.775          43.250  
G17  22158461.068     -167392.054       -2303.669          51.750  
G22  24036559.709       59179.622         838.558          49.250  
G28  21755908.039       26834.805         393.531          47.750  
> 2018  4 22 11 22  7.6688020  0  5                     
G 1  23876740.582      146481.809        2021.509          48.000  
G11  24538719.784      147087.289        2029.241          43.250  
G17  22160249.393     -167622.360       -2301.856          51.750  
G22  24038408.202       59263.537         840.392          49.250  
G28  21757746.054       26874.161         394.954          47.750  
> 2018  4 22 11 22  7.7688020  0  5                     
G 1  23878610.373      146684.152        2024.820          47.750  
G11  24540590.165      147290.387        2032.585          42.750  
G17  22162037.252     -167852.336       -2298.425          51.250  
G22  24040256.022       59347.788         844.300          48.750  
G28  21759586.356       26913.863         397.950          47.500  
> 2018  4 22 11 22  7.8688020  0  5                     
G 1  23880480.932      146886.608        2024.132          48.000  
G11  24542460.975      147493.591        2030.920          43.500  
G17  22163825.547     -168082.202       -2299.916          51.750  
G22  24042103.941       59432.153         842.570          49.000  
G28  21761424.621       26953.693         397.344          47.500  
> 2018  4 22 11 22  7.9688020  0  5                     
G 1  23882351.167      147088.812        2020.561          47.250  
G11  24544331.144      147696.535        2027.178          42.750  
G17  22165613.057     -168312.313       -2302.927          51.250  
G22  24043951.478       59516.259         839.518          48.500  
G28  21763264.395       26993.258         393.457          47.250  
> 2018  4 22 11 22  8.0688020  0  5                     
G 1  23884221.155      147290.638        2017.800          47.250  
G11  24546200.647      147899.115        2025.166          42.500  
G17  22167400.627     -168542.794       -2306.061          51.250  
G22  24045799.501       59600.012         837.262          49.000  
G28  21765104.066       27032.459         391.581          47.500  
> 2018  4 22 11 22  8.1688020  0  5                     
G 1  23886091.508      147492.355        2016.652          47.750  
G11  24548071.458      148101.572        2023.953          43.000  
G17  22169188.700     -168773.397       -2306.689          51.750  
G22  24047646.672       59683.639         835.750          49.000  
G28  21766942.697       27071.545         389.993          47.750  
