     3.02           OBSERVATION DATA    M: Mixed            RINEX VERSION / TYPE
GNSS-SDRLIB v1.1                        20180429 101041 UTC PGM / RUN BY / DATE 
                                                            MARKER NAME         
                                                            MARKER NUMBER       
                                                            MARKER TYPE         
                                                            OBSERVER / AGENCY   
GNSS-SDRLIB         GNSS-SDRLIB         1.1                 REC # / TYPE / VERS 
                                                            ANT # / TYPE        
        0.0000        0.0000        0.0000                  APPROX POSITION XYZ 
        0.0000        0.0000        0.0000                  ANTENNA: DELTA H/E/N
G    4 C1C L1C D1C S1C                                      SYS / # / OBS TYPES 
R    4 C1C L1C D1C S1C                                      SYS / # / OBS TYPES 
E    4 C1C L1C D1C S1C                                      SYS / # / OBS TYPES 
J    4 C1C L1C D1C S1C                                      SYS / # / OBS TYPES 
S    4 C1C L1C D1C S1C                                      SYS / # / OBS TYPES 
C    4 C1C L1C D1C S1C                                      SYS / # / OBS TYPES 
  1970     1     1     0     0    0.0000000     GPS         TIME OF FIRST OBS   
  1970     1     1     0     0    0.0000000     GPS         TIME OF LAST OBS    
G                                                           SYS / PHASE SHIFT   
R                                                           SYS / PHASE SHIFT   
E                                                           SYS / PHASE SHIFT   
J                                                           SYS / PHASE SHIFT   
S                                                           SYS / PHASE SHIFT   
C                                                           SYS / PHASE SHIFT   
  0                                                         GLONASS SLOT / FRQ #
 C1C    0.000 C1P    0.000 C2C    0.000 C2P    0.000        GLONASS COD/PHS/BIS 
                                                            END OF HEADER       
> 2018  4 22 11 21  6.0688020  0  1                     
G28  20625059.311        3375.699         352.534          48.250  
> 2018  4 22 11 21  6.1688020  0  1                     
G28  20626915.747        3410.926         353.090          48.250  
> 2018  4 22 11 21  6.0688020  0  2                     
G17  21059048.120      -23695.320       -2314.745          51.750  
G28  20625059.311        3375.699         352.534          48.250  
> 2018  4 22 11 21  6.1688020  0  2                     
G17  21060853.676      -23927.931       -2336.388          51.750  
G28  20626915.747        3410.926         353.090          48.250  
> 2018  4 22 11 21  6.0688020  0  3                     
G 1  22724837.773       22077.251        1994.441          48.750  
G17  21059048.120      -23695.471       -2324.050          51.750  
G28  20625059.311        3375.699         352.534          48.250  
> 2018  4 22 11 21  6.1688020  0  3                     
G 1  22726725.820       22277.898        2008.836          49.000  
G17  21060853.676      -23927.805       -2323.825          51.750  
G28  20626915.747        3410.926         353.090          48.250  
> 2018  4 22 11 21  6.0688020  0  4                     
G 1  22724837.773       22077.339        2004.249          49.000  
G17  21059048.120      -23695.471       -2324.050          51.750  
G22  22900473.471        7905.649         785.708          46.500  
G28  20625059.311        3375.699         352.534          48.250  
> 2018  4 22 11 21  6.1688020  0  4                     
G 1  22726725.820       22277.794        2004.206          49.000  
G17  21060853.676      -23927.805       -2323.825          51.750  
G22  22902337.546        7976.980         799.029          46.250  
G28  20626915.747        3410.926         353.090          48.250  
> 2018  4 22 11 21  6.0688020  0  5                     
G 1  22724837.773       22077.339        2004.249          49.000  
G11  23386715.875       21060.384        2029.339          44.500  
G17  21059048.120      -23695.471       -2324.050          51.750  
G22  22900473.471        7896.472         800.926          46.500  
G28  20625059.311        3375.699         352.534          48.250  
> 2018  4 22 11 21  6.1688020  0  5                     
G 1  22726725.820       22277.794        2004.206          49.000  
G11  23388604.461       21252.062        2012.407          44.250  
G17  21060853.676      -23927.805       -2323.825          51.750  
G22  22902337.546        7977.036         801.389          46.500  
G28  20626915.747        3410.926         353.090          48.250  
> 2018  4 22 11 21  6.2688020  0  5                     
G 1  22728595.415       22478.291        2005.248          49.000  
G11  23390475.373       21453.604        2014.183          44.500  
G17  21062641.668      -24160.093       -2322.585          51.750  
G22  22904184.878        8057.143         801.433          46.500  
G28  20628755.302        3446.228         353.019          48.250  
> 2018  4 22 11 21  6.3688020  0  5                     
G 1  22730465.366       22678.892        2006.156          48.750  
G11  23392345.366       21655.106        2015.182          44.250  
G17  21064429.058      -24392.268       -2322.530          51.750  
G22  22906032.122        8137.374         802.138          46.500  
G28  20630591.225        3481.632         354.288          48.250  
> 2018  4 22 11 21  6.4688020  0  5                     
G 1  22732335.793       22879.546        2007.390          49.000  
G11  23394215.052       21856.654        2016.016          44.250  
G17  21066216.667      -24624.411       -2320.948          51.500  
G22  22907879.151        8217.635         803.287          46.250  
G28  20632430.272        3517.086         354.424          48.250  
> 2018  4 22 11 21  6.5688020  0  5                     
G 1  22734205.562       23080.240        2006.998          49.000  
G11  23396084.301       22058.246        2015.718          44.250  
G17  21068004.721      -24856.497       -2320.749          51.750  
G22  22909725.189        8297.959         803.120          46.250  
G28  20634269.733        3552.591         355.528          48.500  
> 2018  4 22 11 21  6.6688020  0  5                     
G 1  22736075.329       23280.958        2008.090          49.000  
G11  23397955.290       22259.887        2017.179          44.250  
G17  21069792.210      -25088.554       -2320.367          51.750  
G22  22911571.964        8378.312         804.245          46.500  
G28  20636106.858        3588.129         356.043          48.250  
> 2018  4 22 11 21  6.7688020  0  5                     
G 1  22737945.591       23481.792        2008.770          49.000  
G11  23399825.583       22461.608        2017.698          44.250  
G17  21071579.734      -25320.500       -2319.374          51.500  
G22  22913419.693        8458.777         805.764          46.500  
G28  20637946.676        3623.775         356.692          48.500  
> 2018  4 22 11 21  6.8688020  0  5                     
G 1  22739815.343       23682.664        2008.243          49.000  
G11  23401695.444       22663.383        2017.242          44.500  
G17  21073366.763      -25552.410       -2319.283          51.750  
G22  22915266.685        8539.290         805.831          46.750  
G28  20639784.164        3659.458         356.826          48.250  
> 2018  4 22 11 21  6.9688020  0  5                     
G 1  22741684.523       23883.589        2009.628          49.000  
G11  23403565.721       22865.206        2018.472          44.000  
G17  21075154.433      -25784.263       -2318.367          51.750  
G22  22917113.396        8619.859         805.645          46.500  
G28  20641621.619        3695.201         357.887          48.250  
> 2018  4 22 11 21  7.0688020  0  5                     
G 1  22743554.211       24084.524        2009.247          48.750  
G11  23405436.428       23067.038        2018.427          44.000  
G17  21076941.935      -26016.109       -2318.377          51.750  
G22  22918960.927        8700.443         806.588          46.500  
G28  20643461.087        3730.966         358.108          48.250  
> 2018  4 22 11 21  7.1688020  0  5                     
G 1  22745423.836       24285.482        2009.030          49.000  
G11  23407306.054       23268.900        2019.134          44.000  
G17  21078729.665      -26247.938       -2319.002          51.750  
G22  22920808.344        8781.034         806.118          46.250  
G28  20645298.537        3766.757         357.854          48.250  
> 2018  4 22 11 21  7.2688020  0  5                     
G 1  22747293.972       24486.404        2008.838          49.000  
G11  23409176.071       23470.712        2017.668          44.000  
G17  21080517.335      -26479.785       -2318.176          51.750  
G22  22922655.658        8861.619         804.978          46.250  
G28  20647137.038        3802.517         357.235          48.250  
> 2018  4 22 11 21  7.3688020  0  5                     
G 1  22749163.486       24687.303        2008.437          49.250  
G11  23411046.488       23672.512        2017.077          44.000  
G17  21082304.219      -26711.663       -2319.300          51.750  
G22  22924502.273        8942.178         806.444          46.500  
G28  20648976.518        3838.258         357.428          48.250  
> 2018  4 22 11 21  7.4688020  0  5                     
G 1  22751033.613       24888.211        2009.954          49.000  
G11  23412916.605       23874.333        2019.299          44.000  
G17  21084091.559      -26943.517       -2318.090          51.750  
G22  22926347.249        9022.737         806.156          46.250  
G28  20650812.459        3874.024         358.457          47.750  
> 2018  4 22 11 21  7.5688020  0  5                     
G 1  22752903.724       25089.173        2009.506          49.000  
G11  23414785.579       24076.185        2018.259          44.250  
G17  21085879.128      -27175.345       -2318.117          51.750  
G22  22928194.545        9103.358         806.343          46.250  
G28  20652651.519        3909.818         357.742          48.250  
> 2018  4 22 11 21  7.6688020  0  5                     
G 1  22754773.851       25290.116        2009.257          49.000  
G11  23416655.682       24278.009        2019.010          44.250  
G17  21087666.307      -27407.185       -2318.766          51.750  
G22  22930041.970        9183.962         805.676          46.500  
G28  20654490.559        3945.605         358.289          48.000  
> 2018  4 22 11 21  7.7688020  0  5                     
G 1  22756644.503       25491.016        2009.767          48.750  
G11  23418525.416       24479.812        2018.074          44.000  
G17  21089453.674      -27639.053       -2318.947          51.750  
G22  22931889.767        9264.542         806.103          46.750  
G28  20656327.530        3981.374         357.648          48.250  
> 2018  4 22 11 21  7.8688020  0  5                     
G 1  22758514.304       25691.899        2008.583          49.000  
G11  23420395.244       24681.593        2017.138          44.000  
G17  21091240.601      -27870.935       -2319.125          51.750  
G22  22933736.530        9345.100         805.482          46.250  
G28  20658166.704        4017.112         357.229          48.250  
> 2018  4 22 11 21  7.9688020  0  5                     
G 1  22760384.743       25892.778        2009.064          48.750  
G11  23422266.752       24883.361        2017.360          44.000  
G17  21093028.451      -28102.830       -2318.993          52.000  
G22  22935583.745        9425.651         805.729          46.500  
G28  20660005.055        4052.868         357.873          48.250  
> 2018  4 22 11 21  8.0688020  0  5                     
G 1  22762254.342       26093.639        2008.270          49.000  
G11  23424136.639       25085.150        2017.626          44.250  
G17  21094815.872      -28334.730       -2319.703          52.000  
G22  22937430.307        9506.206         805.146          46.500  
G28  20661843.750        4088.603         357.526          48.250  
> 2018  4 22 11 21  8.1688020  0  5                     
G 1  22764123.774       26294.495        2009.110          49.000  
G11  23426006.312       25286.891        2017.202          44.000  
G17  21096603.081      -28566.643       -2318.799          52.000  
G22  22939277.589        9586.742         806.147          46.250  
G28  20663684.119        4124.331         358.254          48.000  
> 2018  4 22 11 21  8.2688020  0  5                     
G 1  22765993.031       26495.370        2009.191          49.000  
G11  23427876.849       25488.652        2018.021          44.000  
G17  21098390.671      -28798.546       -2318.542          51.750  
G22  22941125.253        9667.305         806.484          46.500  
G28  20665520.103        4160.079         358.235          48.000  
> 2018  4 22 11 21  8.3688020  0  5                     
G 1  22767862.636       26696.288        2009.419          49.000  
G11  23429745.789       25690.482        2018.596          44.500  
G17  21100178.227      -29030.394       -2318.631          51.750  
G22  22942972.910        9747.928         806.581          46.500  
G28  20667358.082        4195.882         358.941          48.250  
> 2018  4 22 11 21  8.4688020  0  5                     
G 1  22769732.040       26897.166        2009.039          49.000  
G11  23431615.345       25892.256        2017.955          44.250  
G17  21101965.978      -29262.295       -2318.689          51.750  
G22  22944819.310        9828.502         806.130          46.500  
G28  20669197.305        4231.646         358.400          48.250  
> 2018  4 22 11 21  8.5688020  0  5                     
G 1  22771602.130       27098.079        2009.935          49.250  
G11  23433485.532       26094.063        2018.375          44.000  
G17  21103753.323      -29494.144       -2318.480          51.750  
G22  22946666.340        9909.106         806.454          46.000  
G28  20671034.295        4267.447         358.430          48.250  
> 2018  4 22 11 21  8.6688020  0  5                     
G 1  22773471.221       27298.987        2009.155          49.000  
G11  23435356.279       26295.882        2018.627          44.500  
G17  21105541.343      -29725.984       -2318.703          51.750  
G22  22948511.815        9989.748         806.722          46.250  
G28  20672874.550        4303.263         357.466          48.000  
> 2018  4 22 11 21  8.7688020  0  5                     
G 1  22775340.567       27499.861        2008.618          49.000  
G11  23437227.507       26497.624        2017.118          44.500  
G17  21107328.484      -29957.893       -2319.669          51.750  
G22  22950358.639       10070.308         805.308          46.250  
G28  20674712.394        4339.019         357.372          48.250  
> 2018  4 22 11 21  8.8688020  0  5                     
G 1  22777210.728       27700.672        2008.613          49.000  
G11  23439096.967       26699.345        2017.669          44.250  
G17  21109115.947      -30189.831       -2319.731          52.000  
G22  22952206.153       10150.842         805.297          46.500  
G28  20676550.131        4374.744         356.609          48.500  
> 2018  4 22 11 21  8.9688020  0  5                     
G 1  22779080.593       27901.505        2008.170          49.000  
G11  23440967.166       26901.076        2017.243          44.250  
G17  21110903.300      -30421.778       -2319.373          51.750  
G22  22954053.446       10231.377         805.314          46.250  
G28  20678389.770        4410.471         357.130          48.000  
> 2018  4 22 11 21  9.0688020  0  5                     
G 1  22780950.758       28102.352        2008.322          49.000  
G11  23442836.600       27102.820        2016.637          44.000  
G17  21112690.536      -30653.685       -2319.268          51.750  
G22  22955900.451       10311.965         805.441          46.250  
G28  20680227.124        4446.249         357.960          47.750  
> 2018  4 22 11 21  9.1688020  0  5                     
G 1  22782820.947       28303.205        2008.490          48.750  
G11  23444705.758       27304.568        2016.769          44.000  
G17  21114478.462      -30885.591       -2319.125          51.750  
G22  22957746.529       10392.528         805.990          46.000  
G28  20682064.866        4482.013         357.764          48.000  
> 2018  4 22 11 21  9.2688020  0  5                     
G 1  22784690.466       28504.044        2008.213          48.750  
G11  23446576.079       27506.320        2017.182          44.250  
G17  21116265.761      -31117.510       -2319.427          51.750  
G22  22959592.688       10473.098         805.147          46.250  
G28  20683904.954        4517.773         357.077          48.000  
> 2018  4 22 11 21  9.3688020  0  5                     
G 1  22786559.903       28704.861        2008.816          49.000  
G11  23448445.851       27708.019        2016.828          44.750  
G17  21118053.165      -31349.465       -2319.608          51.750  
G22  22961440.073       10553.639         805.952          46.250  
G28  20685741.520        4553.513         357.330          48.250  
> 2018  4 22 11 21  9.4688020  0  5                     
G 1  22788429.480       28905.688        2008.113          49.250  
G11  23450316.181       27909.729        2017.609          44.250  
G17  21119841.178      -31581.383       -2318.882          51.750  
G22  22963288.373       10634.200         805.609          46.500  
G28  20687580.634        4589.271         358.320          48.000  
> 2018  4 22 11 21  9.5688020  0  5                     
G 1  22790299.251       29106.469        2008.369          49.000  
G11  23452186.055       28111.399        2017.116          44.000  
G17  21121628.446      -31813.376       -2319.830          52.000  
G22  22965135.849       10714.722         805.243          46.750  
G28  20689418.521        4624.978         357.521          48.000  
> 2018  4 22 11 21  9.6688020  0  5                     
G 1  22792169.095       29307.149        2006.518          49.000  
G11  23454056.365       28312.988        2015.425          44.250  
G17  21123416.361      -32045.442       -2321.203          51.750  
G22  22966982.582       10795.153         803.067          46.250  
G28  20691255.834        4660.604         355.638          47.750  
> 2018  4 22 11 21  9.7688020  0  5                     
G 1  22794038.249       29507.800        2006.228          49.000  
G11  23455926.127       28514.522        2014.831          44.500  
G17  21125203.515      -32277.562       -2321.570          52.000  
G22  22968829.564       10875.546         803.584          46.250  
G28  20693095.178        4696.193         355.467          48.000  
> 2018  4 22 11 21  9.8688020  0  5                     
G 1  22795908.039       29708.423        2006.498          49.250  
G11  23457795.849       28716.052        2015.345          44.500  
G17  21126990.982      -32509.695       -2321.938          51.750  
G22  22970677.129       10955.908         803.895          46.500  
G28  20694933.155        4731.765         355.306          48.000  
> 2018  4 22 11 21  9.9688020  0  5                     
G 1  22797778.068       29908.996        2005.856          48.750  
G11  23459666.749       28917.510        2014.774          44.000  
G17  21128778.447      -32741.883       -2322.123          51.750  
G22  22972523.696       11036.250         803.474          45.750  
G28  20696770.783        4767.286         354.954          47.750  
> 2018  4 22 11 21 10.0688020  0  5                     
G 1  22799648.088       30109.517        2004.798          49.000  
G11  23461536.982       29118.917        2014.040          44.250  
G17  21130565.327      -32974.099       -2322.708          51.750  
G22  22974370.110       11116.525         803.147          46.500  
G28  20698610.733        4802.767         354.366          48.000  
> 2018  4 22 11 21 10.1688020  0  5                     
G 1  22801518.213       30310.002        2004.756          49.000  
G11  23463406.236       29320.300        2013.867          44.250  
G17  21132353.217      -33206.382       -2323.035          52.000  
G22  22976217.297       11196.768         802.816          46.250  
G28  20700447.874        4838.205         354.382          48.000  
> 2018  4 22 11 21 10.2688020  0  5                     
G 1  22803387.851       30510.416        2003.554          49.000  
G11  23465276.192       29521.597        2012.776          44.250  
G17  21134140.486      -33438.720       -2324.402          51.750  
G22  22978064.208       11276.942         801.288          46.500  
G28  20702287.020        4873.583         353.019          48.000  
> 2018  4 22 11 21 10.3688020  0  5                     
G 1  22805257.864       30710.815        2004.076          49.000  
G11  23467146.019       29722.900        2013.739          44.250  
G17  21135927.702      -33671.072       -2323.154          52.000  
G22  22979911.362       11357.125         802.228          46.750  
G28  20704125.563        4908.948         354.375          48.250  
> 2018  4 22 11 21 10.4688020  0  5                     
G 1  22807127.392       30911.262        2004.366          49.000  
G11  23469015.509       29924.238        2014.218          44.500  
G17  21137715.291      -33903.378       -2323.391          52.000  
G22  22981757.189       11437.330         802.078          46.250  
G28  20705962.604        4944.373         354.089          48.250  
> 2018  4 22 11 21 10.5688020  0  5                     
G 1  22808996.945       31111.693        2004.339          49.250  
G11  23470884.335       30125.563        2013.248          44.000  
G17  21139502.538      -34135.704       -2323.055          51.750  
G22  22983603.143       11517.540         801.923          46.500  
G28  20707801.624        4979.776         354.041          48.000  
> 2018  4 22 11 21 10.6688020  0  5                     
G 1  22810866.747       31312.161        2005.031          49.000  
G11  23472754.956       30326.907        2014.647          44.250  
G17  21141290.873      -34367.995       -2322.976          52.000  
G22  22985449.994       11597.788         803.030          46.500  
G28  20709639.674        5015.207         355.159          48.000  
> 2018  4 22 11 21 10.7688020  0  5                     
G 1  22812736.361       31512.629        2004.543          49.250  
G11  23474624.820       30528.267        2013.229          44.250  
G17  21143077.843      -34600.286       -2323.100          51.750  
G22  22987296.808       11678.026         802.238          46.250  
G28  20711476.979        5050.660         354.331          48.250  
> 2018  4 22 11 21 10.8688020  0  5                     
G 1  22814606.261       31713.113        2005.430          49.250  
G11  23476494.767       30729.626        2013.222          44.250  
G17  21144865.205      -34832.546       -2322.810          52.000  
G22  22989144.320       11758.305         802.756          46.250  
G28  20713317.022        5086.118         354.437          48.000  
> 2018  4 22 11 21 10.9688020  0  5                     
G 1  22816476.140       31913.608        2004.454          49.250  
G11  23478365.490       30931.034        2013.911          44.250  
G17  21146652.739      -35064.782       -2322.672          51.750  
G22  22990991.515       11838.599         802.592          46.500  
G28  20715154.048        5121.623         355.305          48.000  
> 2018  4 22 11 21 11.0688020  0  5                     
G 1  22818346.149       32114.095        2004.908          49.250  
G11  23480234.044       31132.390        2013.194          43.750  
G17  21148439.448      -35297.054       -2322.855          52.000  
G22  22992836.494       11918.874         803.000          46.250  
G28  20716991.953        5157.091         354.446          48.000  
> 2018  4 22 11 21 11.1688020  0  5                     
G 1  22820215.787       32314.593        2005.202          49.250  
G11  23482102.687       31333.784        2013.714          43.750  
G17  21150226.827      -35529.298       -2322.492          52.000  
G22  22994683.525       11999.157         802.861          46.500  
G28  20718832.259        5192.588         354.520          47.750  
> 2018  4 22 11 21 11.2688020  0  5                     
G 1  22822084.932       32515.112        2005.408          49.000  
G11  23483972.885       31535.188        2014.806          44.000  
G17  21152013.809      -35761.527       -2322.548          51.750  
G22  22996530.909       12079.485         803.886          46.250  
G28  20720668.083        5228.111         355.371          47.750  
> 2018  4 22 11 21 11.3688020  0  5                     
G 1  22823954.472       32715.616        2005.414          49.000  
G11  23485841.642       31736.587        2014.016          44.250  
G17  21153801.533      -35993.773       -2322.371          51.750  
G22  22998378.402       12159.786         802.861          46.250  
G28  20722506.594        5263.622         354.680          48.000  
> 2018  4 22 11 21 11.4688020  0  5                     
G 1  22825824.453       32916.092        2004.853          49.000  
G11  23487711.369       31937.955        2013.362          43.500  
G17  21155588.909      -36226.040       -2322.703          51.750  
G22  23000226.036       12240.074         803.102          46.500  
G28  20724346.227        5299.106         354.881          47.750  
> 2018  4 22 11 21 11.5688020  0  5                     
G 1  22827694.904       33116.578        2005.069          48.750  
G11  23489581.786       32139.319        2014.027          44.000  
G17  21157376.181      -36458.295       -2322.192          51.750  
G22  23002072.183       12320.360         803.979          46.500  
G28  20726183.667        5334.619         355.646          48.000  
> 2018  4 22 11 21 11.6688020  0  5                     
G 1  22829564.020       33317.072        2005.537          49.000  
G11  23491451.094       32340.694        2014.383          43.750  
G17  21159163.854      -36690.539       -2322.032          52.000  
G22  23003919.104       12400.676         803.052          46.250  
G28  20728023.201        5370.116         355.355          47.750  
> 2018  4 22 11 21 11.7688020  0  5                     
G 1  22831433.209       33517.572        2005.247          49.000  
G11  23493321.387       32542.101        2014.563          44.000  
G17  21160951.142      -36922.784       -2322.265          52.000  
G22  23005766.082       12480.998         803.822          46.250  
G28  20729860.629        5405.647         355.488          48.000  
> 2018  4 22 11 21 11.8688020  0  5                     
G 1  22833302.907       33718.078        2005.509          49.250  
G11  23495191.261       32743.492        2014.885          44.250  
G17  21162738.841      -37155.010       -2321.953          52.000  
G22  23007613.274       12561.329         803.883          46.500  
G28  20731698.656        5441.200         356.278          48.000  
> 2018  4 22 11 21 11.9688020  0  5                     
G 1  22835172.663       33918.642        2005.855          49.000  
G11  23497061.012       32944.954        2015.271          44.250  
G17  21164526.267      -37387.180       -2321.271          52.000  
G22  23009459.894       12641.731         804.690          46.250  
G28  20733538.854        5476.793         356.347          48.000  
> 2018  4 22 11 21 12.0688020  0  5                     
G 1  22837042.709       34119.249        2007.153          49.000  
G11  23498931.705       33146.649        2027.601          44.000  
G17  21166313.624      -37619.321       -2320.870          52.250  
G22  23011306.906       12722.166         805.690          46.500  
G28  20735375.974        5512.438         357.904          48.000  
> 2018  4 22 11 21 12.1688020  0  5                     
G 1  22838912.638       34320.008        2007.891          49.250  
G11  23500801.917       33348.076        2016.829          44.250  
G17  21168101.630      -37851.290       -2319.608          52.250  
G22  23013152.888       12802.753         805.551          46.500  
G28  20737215.305        5548.230         358.790          48.000  
> 2018  4 22 11 21 12.2688020  0  5                     
G 1  22840782.895       34520.743        2007.538          49.250  
G11  23502672.444       33549.709        2015.773          44.000  
G17  21169888.833      -38083.295       -2320.542          52.000  
G22  23015000.386       12883.332         806.095          46.000  
G28  20739053.620        5584.021         357.603          48.000  
> 2018  4 22 11 21 12.3688020  0  5                     
G 1  22842653.495       34721.599        2009.570          49.000  
G11  23504542.709       33751.435        2017.085          44.000  
G17  21171676.433      -38315.187       -2318.570          52.000  
G22  23016846.610       12964.023         807.390          46.250  
G28  20740890.219        5619.900         360.159          48.000  
> 2018  4 22 11 21 12.4688020  0  5                     
G 1  22844522.595       34922.499        2008.688          49.000  
G11  23506412.406       33953.240        2018.933          43.750  
G17  21173463.572      -38547.009       -2318.211          52.000  
G22  23018694.742       13044.775         808.351          46.250  
G28  20742729.566        5655.878         360.087          47.750  
> 2018  4 22 11 21 12.5688020  0  5                     
G 1  22846391.891       35123.468        2009.403          49.000  
G11  23508281.862       34155.086        2018.889          44.250  
G17  21175251.057      -38778.787       -2318.006          52.000  
G22  23020541.905       13125.583         807.972          46.500  
G28  20744568.346        5691.891         360.451          48.000  
> 2018  4 22 11 21 12.6688020  0  5                     
G 1  22848261.575       35324.470        2010.838          49.000  
G11  23510151.230       34356.986        2019.610          43.750  
G17  21177038.865      -39010.511       -2316.981          52.000  
G22  23022389.524       13206.453         808.724          46.250  
G28  20746406.430        5727.952         360.410          48.250  
> 2018  4 22 11 21 12.7688020  0  5                     
G 1  22850131.152       35525.578        2011.358          49.250  
G11  23512021.351       34558.948        2019.530          43.750  
G17  21178826.776      -39242.140       -2315.875          51.750  
G22  23024236.044       13287.412         809.939          46.250  
G28  20748246.547        5764.121         362.128          47.750  
> 2018  4 22 11 21 12.8688020  0  5                     
G 1  22852001.650       35726.849        2013.524          48.500  
G11  23513890.273       34761.121        2022.937          43.750  
G17  21180614.368      -39473.602       -2313.756          51.750  
G22  23026082.887       13368.542         812.713          46.250  
G28  20750084.164        5800.472         364.524          47.750  
> 2018  4 22 11 21 12.9688020  0  5                     
G 1  22853872.009       35928.328        2015.407          49.000  
G11  23515761.239       34963.467        2024.289          43.750  
G17  21182401.209      -39704.867       -2312.442          51.750  
G22  23027929.585       13449.882         814.509          46.500  
G28  20751923.372        5836.993         365.687          47.750  
> 2018  4 22 11 21 13.0688020  0  5                     
G 1  22855742.032       36129.968        2016.838          49.250  
G11  23517631.707       35165.983        2025.703          44.000  
G17  21184188.660      -39935.966       -2310.059          52.000  
G22  23029776.515       13531.377         815.705          46.750  
G28  20753762.403        5873.718         367.837          48.000  
> 2018  4 22 11 21 13.1688020  0  5                     
G 1  22857611.767       36331.712        2017.913          49.250  
G11  23519501.744       35368.627        2026.453          44.000  
G17  21185975.970      -40166.950       -2309.783          52.000  
G22  23031623.888       13612.998         816.790          46.500  
G28  20755600.389        5910.549         369.070          48.000  
> 2018  4 22 11 21 13.2688020  0  5                     
G 1  22859481.939       36533.502        2018.248          49.250  
G11  23521372.119       35571.296        2026.578          44.000  
G17  21187763.498      -40397.892       -2309.578          52.000  
G22  23033471.644       13694.661         816.282          46.000  
G28  20757440.285        5947.419         368.732          48.000  
> 2018  4 22 11 21 13.3688020  0  5                     
G 1  22861351.495       36735.316        2017.520          49.250  
G11  23523242.328       35773.996        2025.632          44.000  
G17  21189551.308      -40628.798       -2309.609          52.000  
G22  23035318.383       13776.374         816.436          46.500  
G28  20759276.935        5984.330         368.105          47.750  
> 2018  4 22 11 21 13.4688020  0  5                     
G 1  22863221.053       36937.079        2016.650          49.000  
G11  23525111.289       35976.637        2024.894          44.000  
G17  21191338.357      -40859.775       -2310.713          51.750  
G22  23037164.834       13858.001         815.862          45.750  
G28  20761114.955        6021.183         367.142          47.750  
> 2018  4 22 11 21 13.5688020  0  5                     
G 1  22865091.626       37138.693        2015.671          49.000  
G11  23526981.877       36179.147        2025.473          44.000  
G17  21193126.070      -41090.878       -2311.206          52.000  
G22  23039010.869       13939.509         814.544          46.250  
G28  20762955.240        6057.909         366.889          48.000  
> 2018  4 22 11 21 13.6688020  0  5                     
G 1  22866961.630       37340.279        2015.942          49.000  
G11  23528852.328       36381.600        2024.187          44.000  
G17  21194913.999      -41322.028       -2311.828          52.000  
G22  23040858.024       14020.964         813.871          46.250  
G28  20764791.239        6094.592         367.064          47.750  
> 2018  4 22 11 21 13.7688020  0  5                     
G 1  22868831.193       37541.787        2015.071          48.750  
G11  23530721.963       36584.024        2024.641          43.750  
G17  21196701.977      -41553.233       -2312.116          52.000  
G22  23042704.492       14102.398         813.934          46.250  
G28  20766629.441        6131.211         365.560          48.000  
> 2018  4 22 11 21 13.8688020  0  5                     
G 1  22870701.246       37743.276        2014.857          49.000  
G11  23532592.319       36786.367        2023.931          44.000  
G17  21198489.832      -41784.483       -2312.500          52.000  
G22  23044552.115       14183.773         813.845          46.250  
G28  20768469.069        6167.806         366.121          48.000  
> 2018  4 22 11 21 13.9688020  0  5                     
G 1  22872571.281       37944.738        2014.724          49.000  
G11  23534462.798       36988.727        2024.184          44.250  
G17  21200277.022      -42015.734       -2312.588          52.000  
G22  23046399.746       14265.143         813.015          46.500  
G28  20770306.589        6204.390         365.831          48.000  
> 2018  4 22 11 21 14.0688020  0  5                     
G 1  22874440.736       38146.148        2013.533          49.250  
G11  23536333.153       37191.014        2022.779          43.750  
G17  21202065.076      -42247.057       -2313.472          52.000  
G22  23048246.734       14346.461         813.592          46.250  
G28  20772146.516        6240.919         365.418          48.000  
> 2018  4 22 11 21 14.1688020  0  5                     
G 1  22876310.575       38347.552        2014.093          49.000  
G11  23538202.280       37393.304        2023.514          43.750  
G17  21203852.620      -42478.365       -2313.121          52.000  
G22  23050092.827       14427.776         813.182          46.250  
G28  20773984.033        6277.443         365.949          48.000  
> 2018  4 22 11 21 14.2688020  0  5                     
G 1  22878180.404       38548.982        2014.225          49.250  
G11  23540071.840       37595.607        2022.670          43.750  
G17  21205640.151      -42709.670       -2313.459          52.000  
G22  23051940.745       14509.105         812.673          46.500  
G28  20775821.782        6313.998         364.978          48.000  
> 2018  4 22 11 21 14.3688020  0  5                     
G 1  22880050.118       38750.343        2013.612          49.000  
G11  23541942.135       37797.863        2022.640          43.750  
G17  21207427.842      -42941.019       -2313.932          52.250  
G22  23053787.493       14590.392         812.453          46.250  
G28  20777662.640        6350.492         364.672          48.000  
> 2018  4 22 11 21 14.4688020  0  5                     
G 1  22881920.010       38951.739        2013.949          49.250  
G11  23543811.504       38000.128        2022.428          44.000  
G17  21209215.440      -43172.355       -2313.818          52.000  
G22  23055635.595       14671.700         812.868          46.250  
G28  20779500.093        6387.018         364.898          48.000  
> 2018  4 22 11 21 14.5688020  0  5                     
G 1  22883789.553       39153.091        2013.673          49.250  
G11  23545681.371       38202.366        2022.281          44.000  
G17  21211003.196      -43403.727       -2314.120          52.000  
G22  23057483.208       14752.976         812.603          46.500  
G28  20781339.136        6423.505         364.678          48.000  
> 2018  4 22 11 21 14.6688020  0  5                     
G 1  22885659.959       39354.369        2013.589          49.250  
G11  23547551.672       38404.515        2022.840          43.750  
G17  21212790.286      -43635.181       -2314.690          52.000  
G22  23059329.511       14834.167         811.966          46.250  
G28  20783177.714        6459.921         364.333          48.000  
> 2018  4 22 11 21 14.7688020  0  5                     
G 1  22887529.414       39555.635        2012.658          49.000  
G11  23549423.624       38606.662        2020.996          44.000  
G17  21214577.701      -43866.621       -2314.753          52.000  
G22  23061175.901       14915.389         811.863          46.500  
G28  20785015.151        6496.347         363.742          47.750  
> 2018  4 22 11 21 14.8688020  0  5                     
G 1  22889399.906       39756.862        2012.042          49.000  
G11  23551293.634       38808.769        2020.309          43.750  
G17  21216365.393      -44098.107       -2315.156          52.000  
G22  23063023.698       14996.539         811.691          46.250  
G28  20786854.487        6532.724         364.293          47.750  
> 2018  4 22 11 21 14.9688020  0  5                     
G 1  22891270.275       39958.073        2012.900          49.250  
G11  23553164.140       39010.875        2022.812          44.000  
G17  21218153.042      -44329.607       -2314.459          52.250  
G22  23064870.110       15077.692         812.452          46.500  
G28  20788692.047        6569.103         365.084          47.750  
> 2018  4 22 11 21 15.0688020  0  5                     
G 1  22893139.956       40159.384        2012.998          49.000  
G11  23555033.923       39213.049        2021.700          44.000  
G17  21219940.536      -44561.020       -2314.247          52.000  
G22  23066717.449       15158.954         812.808          46.500  
G28  20790529.979        6605.565         364.889          48.000  
> 2018  4 22 11 21 15.1688020  0  5                     
G 1  22895009.696       40360.715        2013.452          49.250  
G11  23556904.018       39415.264        2022.111          44.000  
G17  21221727.701      -44792.405       -2314.055          52.000  
G22  23068565.128       15240.221         812.745          46.500  
G28  20792370.141        6642.055         365.317          47.750  
> 2018  4 22 11 21 15.2688020  0  5                     
G 1  22896880.322       40562.112        2014.535          49.250  
G11  23558774.583       39617.553        2022.451          44.000  
G17  21223514.998      -45023.715       -2312.604          52.000  
G22  23070412.475       15321.586         813.955          46.500  
G28  20794207.097        6678.636         365.509          47.750  
> 2018  4 22 11 21 15.3688020  0  5                     
G 1  22898750.237       40763.580        2015.697          49.250  
G11  23560643.957       39819.875        2023.526          43.750  
G17  21225302.944      -45254.978       -2312.717          52.000  
G22  23072259.008       15402.987         814.112          46.500  
G28  20796045.992        6715.266         366.479          47.500  
> 2018  4 22 11 21 15.4688020  0  5                     
G 1  22900620.061       40965.079        2015.574          49.250  
G11  23562514.550       40022.259        2023.297          43.750  
G17  21227090.108      -45486.193       -2312.312          52.000  
G22  23074106.503       15484.456         815.235          46.000  
G28  20797884.904        6751.943         366.456          47.750  
> 2018  4 22 11 21 15.5688020  0  5                     
G 1  22902490.312       41166.572        2015.434          49.000  
G11  23564385.151       40224.629        2022.830          44.250  
G17  21228877.944      -45717.415       -2312.557          52.000  
G22  23075953.263       15565.899         813.807          46.250  
G28  20799722.227        6788.616         366.759          47.500  
> 2018  4 22 11 21 15.6688020  0  5                     
G 1  22904360.440       41368.084        2015.391          49.000  
G11  23566255.880       40427.017        2023.134          44.250  
G17  21230665.936      -45948.620       -2312.224          52.000  
G22  23077799.190       15647.380         814.797          46.500  
G28  20801562.038        6825.315         367.005          47.750  
> 2018  4 22 11 21 15.7688020  0  5                     
G 1  22906230.465       41569.606        2016.379          49.250  
G11  23568126.253       40629.407        2024.489          43.750  
G17  21232453.430      -46179.821       -2311.884          52.250  
G22  23079647.109       15728.859         814.597          46.250  
G28  20803400.077        6862.013         367.585          47.750  
> 2018  4 22 11 21 15.8688020  0  5                     
G 1  22908100.334       41771.095        2015.843          49.000  
G11  23569995.834       40831.789        2024.111          44.000  
G17  21234241.051      -46411.026       -2312.130          52.000  
G22  23081494.990       15810.345         814.911          46.250  
G28  20805238.573        6898.712         366.236          47.750  
> 2018  4 22 11 21 15.9688020  0  5                     
G 1  22909970.014       41972.546        2014.402          49.000  
G11  23571865.695       41034.125        2023.340          44.000  
G17  21236028.866      -46642.284       -2312.872          52.000  
G22  23083341.533       15891.764         814.111          46.500  
G28  20807077.794        6935.364         366.340          47.750  
> 2018  4 22 11 21 16.0688020  0  5                     
G 1  22911840.383       42173.978        2014.443          49.000  
G11  23573735.213       41236.434        2023.611          44.000  
G17  21237816.334      -46873.568       -2312.244          52.000  
G22  23085188.310       15973.176         813.978          46.500  
G28  20808914.383        6971.997         366.744          47.750  
> 2018  4 22 11 21 16.1688020  0  5                     
G 1  22913710.193       42375.429        2014.632          49.000  
G11  23575605.168       41438.767        2023.598          44.250  
G17  21239604.226      -47104.813       -2312.149          52.000  
G22  23087035.283       16054.627         815.680          46.500  
G28  20810754.623        7008.656         367.068          47.750  
> 2018  4 22 11 21 16.2688020  0  5                     
G 1  22915579.477       42576.917        2014.489          49.000  
G11  23577475.158       41641.128        2023.225          44.250  
G17  21241391.698      -47336.037       -2312.890          52.000  
G22  23088882.698       16136.098         814.268          46.500  
G28  20812593.220        7045.352         366.234          47.750  
> 2018  4 22 11 21 16.3688020  0  5                     
G 1  22917448.965       42778.365        2014.948          49.000  
G11  23579345.129       41843.450        2023.719          44.250  
G17  21243179.467      -47567.308       -2312.557          52.000  
G22  23090729.397       16217.515         814.148          46.500  
G28  20814430.720        7082.010         366.932          47.750  
> 2018  4 22 11 21 16.4688020  0  5                     
G 1  22919318.693       42979.751        2013.479          49.000  
G11  23581215.296       42045.706        2021.064          44.250  
G17  21244966.511      -47798.619       -2313.830          52.000  
G22  23092576.702       16298.913         812.614          46.750  
G28  20816271.631        7118.620         365.264          47.500  
> 2018  4 22 11 21 16.5688020  0  5                     
G 1  22921189.033       43181.091        2013.560          49.000  
G11  23583085.993       42247.930        2021.560          44.250  
G17  21246754.184      -48029.996       -2314.202          52.000  
G22  23094424.662       16380.243         813.161          46.500  
G28  20818108.555        7155.181         365.166          47.750  
> 2018  4 22 11 21 16.6688020  0  5                     
G 1  22923057.885       43382.401        2013.100          49.000  
G11  23584956.645       42450.108        2022.410          44.000  
G17  21248541.772      -48261.394       -2314.234          52.000  
G22  23096271.920       16461.555         812.878          46.500  
G28  20819947.265        7191.714         365.360          47.500  
> 2018  4 22 11 21 16.7688020  0  5                     
G 1  22924927.959       43583.692        2013.714          48.750  
G11  23586826.391       42652.294        2022.718          44.000  
G17  21250329.275      -48492.794       -2313.181          52.000  
G22  23098117.980       16542.850         813.146          46.500  
G28  20821786.828        7228.244         365.491          47.750  
> 2018  4 22 11 21 16.8688020  0  5                     
G 1  22926797.828       43785.017        2012.643          49.000  
G11  23588696.412       42854.479        2021.940          44.000  
G17  21252117.094      -48724.174       -2314.406          52.000  
G22  23099964.843       16624.195         812.784          46.250  
G28  20823624.234        7264.813         365.148          47.500  
> 2018  4 22 11 21 16.9688020  0  5                     
G 1  22928667.919       43986.322        2013.114          49.250  
G11  23590565.634       43056.648        2021.458          44.250  
G17  21253904.049      -48955.584       -2314.214          52.000  
G22  23101811.028       16705.506         813.287          46.500  
G28  20825464.316        7301.343         365.028          47.750  
> 2018  4 22 11 21 17.0688020  0  5                     
G 1  22930538.081       44187.588        2013.461          49.250  
G11  23592435.956       43258.796        2021.496          44.000  
G17  21255691.939      -49187.021       -2314.401          52.000  
G22  23103658.044       16786.781         812.407          46.250  
G28  20827302.076        7337.854         365.744          47.750  
> 2018  4 22 11 21 17.1688020  0  5                     
G 1  22932408.071       44388.871        2013.598          49.250  
G11  23594306.285       43460.961        2022.534          44.000  
G17  21257479.093      -49418.436       -2313.333          52.000  
G22  23105505.715       16868.088         812.966          46.250  
G28  20829140.163        7374.393         366.309          47.750  
> 2018  4 22 11 21 17.2688020  0  5                     
G 1  22934278.034       44590.246        2014.527          49.250  
G11  23596176.117       43663.200        2021.837          44.000  
G17  21259266.447      -49649.765       -2313.311          52.000  
G22  23107353.107       16949.490         814.140          46.750  
G28  20830980.359        7411.014         366.589          47.750  
> 2018  4 22 11 21 17.3688020  0  5                     
G 1  22936147.533       44791.693        2015.005          48.750  
G11  23598046.066       43865.517        2024.001          44.250  
G17  21261054.484      -49881.023       -2312.307          52.000  
G22  23109201.202       17030.958         814.906          46.500  
G28  20832817.524        7447.716         367.268          47.750  
> 2018  4 22 11 21 17.4688020  0  5                     
G 1  22938017.490       44993.207        2015.922          49.250  
G11  23599917.098       44067.890        2024.338          44.250  
G17  21262841.870      -50112.213       -2311.829          52.000  
G22  23111047.314       17112.518         817.026          46.500  
G28  20834656.820        7484.490         368.854          47.750  
> 2018  4 22 11 21 17.5688020  0  5                     
G 1  22939887.196       45194.778        2016.393          49.250  
G11  23601786.963       44270.353        2024.878          44.000  
G17  21264629.621      -50343.336       -2310.789          52.000  
G22  23112893.773       17194.115         817.117          46.250  
G28  20836495.605        7521.325         369.278          47.750  
> 2018  4 22 11 21 17.6688020  0  5                     
G 1  22941756.708       45396.433        2017.139          49.250  
G11  23603656.920       44472.878        2025.693          44.000  
G17  21266417.561      -50574.381       -2310.219          51.750  
G22  23114740.087       17275.812         817.274          46.000  
G28  20838333.357        7558.254         369.339          47.500  
> 2018  4 22 11 21 17.7688020  0  5                     
G 1  22943626.281       45598.104        2017.441          49.000  
G11  23605527.872       44675.418        2026.513          44.000  
G17  21268205.012      -50805.415       -2310.156          51.750  
G22  23116588.188       17357.512         817.125          46.500  
G28  20840174.112        7595.182         369.220          47.750  
> 2018  4 22 11 21 17.8688020  0  5                     
G 1  22945496.675       45799.789        2017.225          49.000  
G11  23607398.172       44877.984        2026.403          44.000  
G17  21269992.747      -51036.414       -2310.300          51.750  
G22  23118435.844       17439.254         817.031          46.500  
G28  20842010.850        7632.158         369.579          47.500  
> 2018  4 22 11 21 17.9688020  0  5                     
G 1  22947366.723       46001.506        2017.540          49.000  
G11  23609268.251       45080.558        2025.914          44.250  
G17  21271780.156      -51267.398       -2309.716          52.000  
G22  23120282.148       17521.020         817.878          46.000  
G28  20843849.634        7669.149         369.839          47.750  
> 2018  4 22 11 21 18.0688020  0  5                     
G 1  22949237.298       46203.197        2016.715          49.000  
G11  23611136.605       45283.057        1972.461          43.750  
G17  21273568.085      -51498.405       -2310.621          52.000  
G22  23122129.270       17602.773         817.743          46.500  
G28  20845688.464        7706.126         369.022          48.000  
> 2018  4 22 11 21 18.3688020  0  5                     
G 1  22954846.184       46808.201        2015.484          49.000  
G11  23616745.239       45890.756        2024.636          44.000  
G17  21278931.015      -52191.475       -2311.147          52.000  
G22  23127670.971       17847.964         816.827          46.500  
G28  20851204.574        7817.023         368.783          47.750  
> 2018  4 22 11 21 18.4688020  0  5                     
G 1  22956715.901       47009.780        2015.241          49.000  
G11  23618615.572       46093.205        2024.088          44.000  
G17  21280718.272      -52422.588       -2311.585          52.000  
G22  23129517.729       17929.622         816.575          46.250  
G28  20853042.695        7853.916         368.714          47.750  
> 2018  4 22 11 21 18.5688020  0  5                     
G 1  22958585.393       47211.318        2014.826          49.000  
G11  23620487.274       46295.613        2023.694          43.750  
G17  21282506.085      -52653.741       -2312.240          52.000  
G22  23131364.005       18011.212         814.814          46.250  
G28  20854882.486        7890.759         367.829          48.000  
> 2018  4 22 11 21 18.6688020  0  5                     
G 1  22960455.996       47412.752        2013.770          49.000  
G11  23622357.842       46497.905        2022.617          43.750  
G17  21284293.375      -52885.003       -2313.082          52.000  
G22  23133211.245       18092.722         813.833          46.500  
G28  20856719.280        7927.494         366.566          48.000  
> 2018  4 22 11 21 18.7688020  0  5                     
G 1  22962325.483       47614.104        2013.944          49.000  
G11  23624227.731       46700.130        2021.802          43.750  
G17  21286080.670      -53116.330       -2313.114          51.750  
G22  23135058.687       18174.165         814.647          46.500  
G28  20858558.700        7964.163         366.566          48.000  
> 2018  4 22 11 21 18.8688020  0  5                     
G 1  22964195.587       47815.439        2012.896          48.750  
G11  23626097.331       46902.344        2022.188          43.500  
G17  21287868.538      -53347.682       -2313.581          52.000  
G22  23136905.894       18255.584         814.463          46.250  
G28  20860396.931        8000.817         366.095          48.000  
> 2018  4 22 11 21 18.9688020  0  5                     
G 1  22966065.364       48016.744        2012.721          49.000  
G11  23627967.242       47104.500        2021.895          43.500  
G17  21289655.892      -53579.076       -2314.020          51.750  
G22  23138753.393       18336.959         813.603          46.500  
G28  20862235.040        8037.437         366.215          47.750  
> 2018  4 22 11 21 19.0688020  0  5                     
G 1  22967935.377       48217.985        2012.151          48.750  
G11  23629836.967       47306.620        2020.038          43.750  
G17  21291443.674      -53810.522       -2314.897          51.750  
G22  23140600.744       18418.296         812.681          46.250  
G28  20864075.014        8074.013         365.926          47.750  
> 2018  4 22 11 21 19.1688020  0  5                     
G 1  22969805.433       48419.169        2011.626          49.000  
G11  23631705.836       47508.667        2021.089          43.750  
G17  21293231.280      -54042.039       -2315.887          52.000  
G22  23142448.375       18499.570         811.866          46.750  
G28  20865911.846        8110.514         364.858          48.000  
> 2018  4 22 11 21 19.2688020  0  5                     
G 1  22971675.213       48620.313        2011.329          49.000  
G11  23633576.168       47710.682        2020.562          43.750  
G17  21295018.780      -54273.584       -2316.161          52.250  
G22  23144294.595       18580.821         812.300          46.500  
G28  20867750.421        8147.000         364.822          47.750  
> 2018  4 22 11 21 19.3688020  0  5                     
G 1  22973544.842       48821.463        2011.889          48.750  
G11  23635446.051       47912.700        2020.347          43.750  
G17  21296806.059      -54505.100       -2314.876          52.000  
G22  23146142.293       18662.072         813.212          46.750  
G28  20869590.145        8183.498         365.349          47.750  
> 2018  4 22 11 21 19.4688020  0  5                     
G 1  22975414.599       49022.720        2012.833          49.000  
G11  23637316.637       48114.835        2022.021          44.000  
G17  21298593.046      -54736.530       -2314.177          51.750  
G22  23147988.459       18743.429         813.580          46.250  
G28  20871427.168        8220.098         366.436          48.000  
> 2018  4 22 11 21 19.5688020  0  5                     
G 1  22977284.405       49224.032        2013.267          49.000  
G11  23639186.017       48317.015        2021.947          44.000  
G17  21300380.827      -54967.899       -2313.678          51.750  
G22  23149835.157       18824.857         814.234          46.500  
G28  20873266.759        8256.753         366.117          48.000  
> 2018  4 22 11 21 19.6688020  0  5                     
G 1  22979154.112       49425.491        2014.714          48.750  
G11  23641056.455       48519.337        2024.326          43.750  
G17  21302168.464      -55199.130       -2312.066          52.000  
G22  23151683.122       18906.419         815.937          46.500  
G28  20875104.342        8293.562         368.281          47.750  
> 2018  4 22 11 21 19.7688020  0  5                     
G 1  22981023.441       49626.948        2014.799          48.750  
G11  23642925.898       48721.673        2023.143          44.000  
G17  21303956.299      -55430.352       -2312.180          52.250  
G22  23153529.926       18988.004         815.147          46.500  
G28  20876941.928        8330.383         367.958          47.750  
> 2018  4 22 11 21 19.8688020  0  5                     
G 1  22982893.887       49828.486        2015.348          48.750  
G11  23644797.384       48924.057        2023.967          44.250  
G17  21305743.970      -55661.498       -2311.513          52.000  
G22  23155377.590       19069.667         816.458          46.250  
G28  20878782.880        8367.272         368.730          47.750  
> 2018  4 22 11 21 19.9688020  0  5                     
G 1  22984763.950       50030.039        2015.615          48.750  
G11  23646667.019       49126.483        2025.127          43.750  
G17  21307531.487      -55892.630       -2311.235          52.000  
G22  23157224.631       19151.340         816.904          46.500  
G28  20880620.355        8404.201         369.499          48.000  
> 2018  4 22 11 21 20.0688020  0  5                     
G 1  22986633.910       50231.561        2015.355          49.000  
G11  23648537.877       49328.877        2023.574          44.000  
G17  21309319.409      -56123.788       -2311.653          52.000  
G22  23159071.066       19232.986         816.839          46.500  
G28  20882459.995        8441.093         368.921          48.250  
> 2018  4 22 11 21 20.1688020  0  5                     
G 1  22988503.545       50433.086        2015.220          49.000  
G11  23650408.006       49531.259        2024.447          43.500  
G17  21311106.733      -56354.951       -2312.324          51.750  
G22  23160918.866       19314.631         816.075          46.500  
G28  20884298.908        8477.977         369.380          47.750  
> 2018  4 22 11 21 20.2688020  0  5                     
G 1  22990374.145       50634.568        2014.992          48.250  
G11  23652278.505       49733.610        2024.096          43.750  
G17  21312894.239      -56586.134       -2311.988          51.500  
G22  23162765.910       19396.254         816.041          46.250  
G28  20886136.756        8514.841         368.944          47.750  
> 2018  4 22 11 21 20.3688020  0  5                     
G 1  22992243.720       50836.024        2014.627          48.750  
G11  23654147.851       49935.941        2023.018          44.000  
G17  21314682.282      -56817.364       -2311.815          51.750  
G22  23164614.085       19477.848         816.243          46.750  
G28  20887977.293        8551.676         368.231          47.750  
> 2018  4 22 11 21 20.4688020  0  5                     
G 1  22994112.601       51037.461        2014.260          48.750  
G11  23656017.968       50138.238        2023.251          44.250  
G17  21316469.469      -57048.599       -2312.814          52.000  
G22  23166462.084       19559.441         815.371          46.750  
G28  20889815.115        8588.515         367.846          48.000  
> 2018  4 22 11 21 20.5688020  0  5                     
G 1  22995983.028       51238.862        2013.826          48.750  
G11  23657888.193       50340.508        2022.418          44.000  
G17  21318257.218      -57279.871       -2313.357          52.000  
G22  23168308.131       19640.993         815.533          46.500  
G28  20891653.563        8625.298         367.017          47.750  
> 2018  4 22 11 21 20.6688020  0  5                     
G 1  22997852.775       51440.220        2013.322          48.750  
G11  23659758.459       50542.733        2022.325          43.750  
G17  21320044.687      -57511.198       -2313.309          51.750  
G22  23170154.633       19722.499         814.145          46.250  
G28  20893492.470        8662.054         367.209          48.000  
> 2018  4 22 11 21 20.7688020  0  5                     
G 1  22999722.510       51641.473        2012.114          48.750  
G11  23661627.866       50744.856        2022.703          44.000  
G17  21321831.853      -57742.613       -2314.120          52.000  
G22  23172001.386       19803.909         814.490          46.750  
G28  20895328.719        8698.707         366.478          48.000  
> 2018  4 22 11 21 20.8688020  0  5                     
G 1  23001592.813       51842.799        2013.470          49.000  
G11  23663497.607       50947.034        2022.370          43.500  
G17  21323620.051      -57973.965       -2313.612          52.000  
G22  23173848.605       19885.388         814.961          46.750  
G28  20897168.104        8735.436         367.815          48.000  
> 2018  4 22 11 21 20.9688020  0  5                     
G 1  23003463.136       52044.154        2013.932          48.750  
G11  23665367.696       51149.265        2022.590          43.500  
G17  21325407.810      -58205.284       -2313.026          52.000  
G22  23175695.729       19966.902         815.687          46.500  
G28  20899007.394        8772.189         367.595          47.750  
> 2018  4 22 11 21 21.0688020  0  5                     
G 1  23005332.925       52245.592        2015.133          48.750  
G11  23667237.983       51351.560        2023.799          43.750  
G17  21327195.433      -58436.510       -2311.542          52.000  
G22  23177542.208       20048.512         816.628          46.750  
G28  20900846.068        8809.042         369.197          48.000  
> 2018  4 22 11 21 21.1688020  0  5                     
G 1  23007202.353       52447.073        2015.380          48.750  
G11  23669109.052       51553.908        2024.138          43.750  
G17  21328982.597      -58667.713       -2311.498          52.000  
G22  23179390.007       20130.162         816.515          46.750  
G28  20902686.286        8845.942         370.144          48.000  
> 2018  4 22 11 21 21.2688020  0  5                     
G 1  23009073.001       52648.631        2016.451          48.750  
G11  23670978.275       51756.339        2024.883          43.750  
G17  21330770.143      -58898.823       -2310.971          52.000  
G22  23181236.851       20211.894         817.815          46.750  
G28  20904522.953        8882.925         370.402          47.750  
> 2018  4 22 11 21 21.3688020  0  5                     
G 1  23010943.027       52850.228        2016.061          48.500  
G11  23672848.946       51958.801        2025.039          43.750  
G17  21332557.756      -59129.892       -2310.795          51.750  
G22  23183083.487       20293.671         817.617          46.500  
G28  20906362.147        8919.950         371.145          48.000  
> 2018  4 22 11 21 21.4688020  0  5                     
G 1  23012812.807       53051.857        2016.211          48.750  
G11  23674717.994       52161.293        2025.627          43.750  
G17  21334345.199      -59360.930       -2310.064          51.750  
G22  23184930.135       20375.490         818.426          46.750  
G28  20908200.195        8957.007         371.605          47.750  
> 2018  4 22 11 21 21.5688020  0  5                     
G 1  23014682.831       53253.533        2017.078          48.750  
G11  23676588.088       52363.830        2026.103          43.750  
G17  21336133.138      -59591.926       -2309.686          51.750  
G22  23186777.762       20457.343         818.131          46.750  
G28  20910037.532        8994.115         371.907          47.500  
> 2018  4 22 11 21 21.6688020  0  5                     
G 1  23016552.458       53455.274        2017.534          48.500  
G11  23678459.602       52566.430        2026.458          43.500  
G17  21337920.553      -59822.860       -2309.332          51.750  
G22  23188625.124       20539.270         819.803          46.750  
G28  20911877.388        9031.272         371.264          47.500  
> 2018  4 22 11 21 21.7688020  0  5                     
G 1  23018422.558       53656.989        2017.232          48.500  
G11  23680329.232       52769.016        2025.606          43.750  
G17  21339708.324      -60053.810       -2309.339          51.750  
G22  23190472.795       20621.185         819.321          46.750  
G28  20913714.886        9068.442         372.299          47.750  
> 2018  4 22 11 21 21.8688020  0  5                     
G 1  23020293.130       53858.733        2017.608          48.750  
G11  23682199.293       52971.625        2026.455          43.500  
G17  21341495.471      -60284.741       -2309.079          51.750  
G22  23192319.938       20703.117         819.742          46.750  
G28  20915553.073        9105.622         372.186          48.000  
> 2018  4 22 11 21 21.9688020  0  5                     
G 1  23022162.653       54060.450        2017.037          48.750  
G11  23684068.961       53174.193        2026.338          43.750  
G17  21343282.788      -60515.691       -2309.545          51.750  
G22  23194167.542       20785.035         819.066          46.500  
G28  20917393.719        9142.794         371.764          48.000  
> 2018  4 22 11 21 22.0688020  0  5                     
G 1  23024032.788       54262.192        2018.086          48.750  
G11  23685939.512       53376.810        2026.875          43.750  
G17  21345070.773      -60746.616       -2309.452          51.750  
G22  23196015.296       20866.975         819.127          46.500  
G28  20919230.217        9179.993         372.353          48.000  
> 2018  4 22 11 21 22.1688020  0  5                     
G 1  23025903.241       54463.923        2017.431          49.000  
G11  23687809.682       53579.393        2026.149          43.250  
G17  21346858.980      -60977.544       -2309.811          51.750  
G22  23197862.558       20948.921         819.867          46.750  
G28  20921069.538        9217.195         371.806          47.500  
> 2018  4 22 11 21 22.2688020  0  5                     
G 1  23027773.344       54665.661        2017.939          48.750  
G11  23689679.981       53781.992        2026.738          43.500  
G17  21348646.642      -61208.481       -2309.347          51.750  
G22  23199708.548       21030.868         819.617          46.750  
G28  20922908.731        9254.374         371.860          47.500  
> 2018  4 22 11 21 22.3688020  0  5                     
G 1  23029643.603       54867.375        2017.538          48.750  
G11  23691549.946       53984.558        2026.495          43.250  
G17  21350433.965      -61439.425       -2309.658          51.750  
G22  23201555.662       21112.788         819.414          46.500  
G28  20924746.639        9291.558         371.453          47.750  
> 2018  4 22 11 21 22.4688020  0  5                     
G 1  23031512.969       55069.036        2016.142          48.500  
G11  23693419.257       54187.093        2025.200          43.500  
G17  21352221.360      -61670.420       -2310.063          51.750  
G22  23203402.028       21194.681         819.931          46.500  
G28  20926587.737        9328.679         370.751          47.750  
> 2018  4 22 11 21 22.5688020  0  5                     
G 1  23033383.069       55270.636        2016.018          48.750  
G11  23695290.477       54389.548        2025.076          43.250  
G17  21354009.185      -61901.495       -2310.979          51.750  
G22  23205248.740       21276.498         818.499          46.500  
G28  20928424.298        9365.762         370.935          48.000  
> 2018  4 22 11 21 22.6688020  0  5                     
G 1  23035252.552       55472.216        2016.212          48.750  
G11  23697159.671       54591.991        2025.881          44.000  
G17  21355796.632      -62132.574       -2310.777          51.500  
G22  23207095.803       21358.307         819.422          46.250  
G28  20930263.330        9402.812         371.205          48.000  
> 2018  4 22 11 21 22.7688020  0  5                     
G 1  23037122.908       55673.758        2015.101          48.750  
G11  23699030.257       54794.410        2024.541          43.500  
G17  21357584.203      -62363.683       -2311.552          51.750  
G22  23208943.260       21440.092         817.525          46.250  
G28  20932101.888        9439.855         369.436          47.750  
> 2018  4 22 11 21 22.8688020  0  5                     
G 1  23038992.821       55875.323        2015.927          48.750  
G11  23700899.937       54996.824        2024.926          43.250  
G17  21359371.648      -62594.782       -2311.464          51.500  
G22  23210790.820       21521.875         818.048          46.750  
G28  20933939.938        9476.904         370.822          47.750  
> 2018  4 22 11 21 22.9688020  0  5                     
G 1  23040863.133       56076.870        2016.207          48.750  
G11  23702770.254       55199.222        2025.677          43.500  
G17  21361158.910      -62825.892       -2310.573          51.750  
G22  23212637.960       21603.650         817.946          46.750  
G28  20935779.787        9513.936         371.264          47.750  
> 2018  4 22 11 21 23.0688020  0  5                     
G 1  23042732.855       56278.476        2016.964          48.750  
G11  23704640.165       55401.704        2026.366          43.250  
G17  21362946.654      -63056.943       -2310.432          51.750  
G22  23214486.432       21685.501         819.369          46.750  
G28  20937616.834        9551.043         372.135          47.750  
> 2018  4 22 11 21 23.1688020  0  5                     
G 1  23044603.087       56480.148        2016.826          48.500  
G11  23706512.270       55604.199        2024.851          43.750  
G17  21364733.729      -63287.943       -2310.778          51.750  
G22  23216334.452       21767.405         818.412          46.500  
G28  20939455.133        9588.196         371.495          47.750  
> 2018  4 22 11 21 23.2688020  0  5                     
G 1  23046472.506       56681.822        2017.058          48.500  
G11  23708382.942       55806.749        2026.079          43.750  
G17  21366521.232      -63518.919       -2310.055          51.500  
G22  23218181.740       21849.338         819.239          46.750  
G28  20941295.967        9625.381         372.345          47.750  
> 2018  4 22 11 21 23.3688020  0  5                     
G 1  23048342.080       56883.581        2017.514          48.750  
G11  23710252.937       56009.363        2026.617          43.500  
G17  21368308.802      -63749.824       -2309.314          51.750  
G22  23220028.661       21931.348         820.194          46.500  
G28  20943132.703        9662.646         372.941          48.000  
> 2018  4 22 11 21 23.4688020  0  5                     
G 1  23050212.599       57085.340        2017.964          48.750  
G11  23712123.350       56211.981        2026.682          43.750  
G17  21370096.484      -63980.717       -2308.593          51.750  
G22  23221876.215       22013.357         819.445          46.750  
G28  20944972.182        9699.914         372.995          47.750  
> 2018  4 22 11 21 23.5688020  0  5                     
G 1  23052082.263       57287.110        2018.729          49.000  
G11  23713992.592       56414.618        2026.687          43.250  
G17  21371884.171      -64211.596       -2308.368          51.750  
G22  23223723.598       22095.386         820.045          47.250  
G28  20946810.945        9737.203         372.953          47.750  
> 2018  4 22 11 21 23.6688020  0  5                     
G 1  23053952.184       57488.912        2018.166          49.000  
G11  23715862.675       56617.279        2026.466          43.000  
G17  21373671.805      -64442.442       -2308.844          51.750  
G22  23225570.657       22177.447         820.575          47.000  
G28  20948649.336        9774.530         373.385          48.000  
> 2018  4 22 11 21 23.7688020  0  5                     
G 1  23055821.949       57690.721        2018.010          48.750  
G11  23717733.354       56819.947        2026.538          43.250  
G17  21375459.447      -64673.298       -2308.707          52.000  
G22  23227417.393       22259.527         821.145          46.750  
G28  20950490.382        9811.856         373.090          48.000  
> 2018  4 22 11 21 23.8688020  0  5                     
G 1  23057692.134       57892.521        2018.319          48.750  
G11  23719602.604       57022.606        2027.688          43.250  
G17  21377247.469      -64904.138       -2308.322          52.000  
G22  23229264.478       22341.610         820.742          46.500  
G28  20952326.717        9849.199         373.614          48.000  
> 2018  4 22 11 21 23.9688020  0  5                     
G 1  23059562.426       58094.365        2018.469          48.750  
G11  23721471.624       57225.288        2026.559          43.500  
G17  21379034.674      -65134.952       -2308.089          51.750  
G22  23231110.818       22423.731         821.044          46.750  
G28  20954165.870        9886.576         373.605          47.750  
> 2018  4 22 11 21 24.0688020  0  5                     
G 1  23061432.238       58296.238        2019.400          48.750  
G11  23723340.589       57427.978        2007.564          42.750  
G17  21380822.252      -65365.737       -2308.041          51.500  
G22  23232957.720       22505.865         821.735          47.000  
G28  20956004.556        9923.971         374.586          48.000  
> 2018  4 22 11 21 24.1688020  0  5                     
G 1  23063302.883       58498.140        2019.139          48.750  
G11  23725210.826       57630.800        2027.909          43.000  
G17  21382609.525      -65596.482       -2307.887          51.500  
G22  23234804.477       22588.059         821.350          47.000  
G28  20957842.358        9961.420         374.854          48.000  
> 2018  4 22 11 21 24.2688020  0  5                     
G 1  23065172.136       58700.019        2019.108          48.750  
G11  23727081.341       57833.534        2028.106          43.250  
G17  21384396.953      -65827.251       -2307.832          51.750  
G22  23236653.184       22670.222         821.861          47.000  
G28  20959682.370        9998.850         373.820          48.000  
> 2018  4 22 11 21 24.3688020  0  5                     
G 1  23067041.809       58901.909        2018.772          48.750  
G11  23728951.538       58036.278        2028.503          43.250  
G17  21386184.955      -66058.016       -2308.160          52.000  
G22  23238500.863       22752.402         822.319          47.000  
G28  20961519.773       10036.284         374.360          47.750  
> 2018  4 22 11 21 24.4688020  0  5                     
G 1  23068912.492       59103.769        2018.428          48.750  
G11  23730821.596       58239.008        2028.205          43.500  
G17  21387972.670      -66288.801       -2308.021          51.750  
G22  23240348.402       22834.553         821.707          46.750  
G28  20963358.630       10073.692         373.759          47.250  
> 2018  4 22 11 21 24.5688020  0  5                     
G 1  23070782.512       59305.593        2018.120          49.000  
G11  23732691.575       58441.673        2026.730          43.000  
G17  21389760.261      -66519.630       -2308.646          51.750  
G22  23242196.391       22916.670         821.161          46.750  
G28  20965199.045       10111.072         373.502          48.000  
> 2018  4 22 11 21 24.6688020  0  5                     
G 1  23072652.184       59507.405        2018.380          49.000  
G11  23734563.294       58644.350        2026.401          43.500  
G17  21391547.866      -66750.458       -2308.655          51.500  
G22  23244042.009       22998.790         821.479          46.750  
G28  20967035.744       10148.459         373.428          48.250  
> 2018  4 22 11 21 24.7688020  0  5                     
G 1  23074521.799       59709.194        2017.820          48.750  
G11  23736432.642       58846.989        2026.534          43.750  
G17  21393335.784      -66981.306       -2308.684          51.750  
G22  23245889.462       23080.878         820.457          46.500  
G28  20968875.134       10185.829         373.538          48.000  
> 2018  4 22 11 21 24.8688020  0  5                     
G 1  23076391.465       59910.945        2017.385          48.750  
G11  23738302.690       59049.597        2026.397          43.500  
G17  21395123.280      -67212.208       -2309.675          51.750  
G22  23247736.331       23162.937         820.218          46.750  
G28  20970713.481       10223.130         372.587          47.500  
> 2018  4 22 11 21 24.9688020  0  5                     
G 1  23078261.660       60112.679        2017.209          49.000  
G11  23740172.389       59252.178        2025.807          43.250  
G17  21396910.879      -67443.117       -2309.458          51.500  
G22  23249583.745       23244.990         820.461          46.750  
G28  20972551.595       10260.426         372.884          47.500  
> 2018  4 22 11 21 25.0688020  0  5                     
G 1  23080132.041       60314.424        2018.244          49.000  
G11  23742041.716       59454.774        2026.039          43.000  
G17  21398698.826      -67674.023       -2309.278          51.500  
G22  23251431.574       23327.048         821.304          46.500  
G28  20974392.694       10297.750         373.737          48.250  
> 2018  4 22 11 21 25.1688020  0  5                     
G 1  23082001.970       60516.155        2017.003          48.750  
G11  23743912.680       59657.371        2025.524          43.250  
G17  21400486.179      -67904.925       -2309.646          51.750  
G22  23253278.830       23409.090         819.935          46.750  
G28  20976230.143       10335.075         372.472          48.250  
> 2018  4 22 11 21 25.2688020  0  5                     
G 1  23083871.800       60717.820        2015.553          48.750  
G11  23745782.385       59859.891        2025.191          43.000  
G17  21402273.726      -68135.906       -2310.600          51.750  
G22  23255126.351       23491.084         819.017          46.750  
G28  20978070.106       10372.334         372.444          47.500  
> 2018  4 22 11 21 25.3688020  0  5                     
G 1  23085742.265       60919.456        2016.552          49.000  
G11  23747652.166       60062.376        2025.916          43.000  
G17  21404061.229      -68366.917       -2310.204          51.500  
G22  23256973.570       23573.044         819.834          47.000  
G28  20979908.231       10409.539         372.453          47.500  
> 2018  4 22 11 21 25.4688020  0  5                     
G 1  23087612.991       61121.074        2016.959          49.000  
G11  23749522.621       60264.855        2025.616          43.250  
G17  21405848.600      -68597.941       -2309.937          51.500  
G22  23258820.931       23654.985         819.951          46.750  
G28  20981746.182       10446.759         372.551          48.000  
> 2018  4 22 11 21 25.5688020  0  5                     
G 1  23089482.844       61322.662        2015.730          49.000  
G11  23751393.182       60467.304        2023.769          43.250  
G17  21407636.522      -68828.987       -2311.417          51.750  
G22  23260666.609       23736.923         818.772          46.500  
G28  20983586.685       10483.944         372.273          48.000  
> 2018  4 22 11 21 25.6688020  0  5                     
G 1  23091352.478       61524.269        2016.491          49.000  
G11  23753263.701       60669.747        2024.606          43.250  
G17  21409423.691      -69060.014       -2310.539          51.750  
G22  23262514.028       23818.854         819.548          46.750  
G28  20985423.219       10521.156         372.687          48.250  
> 2018  4 22 11 21 25.7688020  0  5                     
G 1  23093222.855       61725.783        2014.965          49.000  
G11  23755133.564       60872.130        2023.192          43.000  
G17  21411211.438      -69291.138       -2311.458          51.750  
G22  23264361.062       23900.708         817.918          46.500  
G28  20987262.816       10558.280         370.262          48.000  
> 2018  4 22 11 21 25.8688020  0  5                     
G 1  23095091.866       61927.262        2014.933          48.750  
G11  23757003.375       61074.452        2024.172          43.000  
G17  21412999.062      -69522.295       -2311.598          51.750  
G22  23266209.396       23982.541         817.544          46.750  
G28  20989102.023       10595.381         371.831          47.750  
> 2018  4 22 11 21 25.9688020  0  5                     
G 1  23096961.502       62128.746        2014.332          49.000  
G11  23758872.974       61276.795        2022.948          43.000  
G17  21414786.489      -69753.450       -2311.232          51.750  
G22  23268055.120       24064.375         818.480          46.500  
G28  20990940.282       10632.484         371.353          47.750  
> 2018  4 22 11 21 26.0688020  0  5                     
G 1  23098831.352       62330.323        2016.774          48.750  
G11  23760743.861       61479.202        2024.818          42.750  
G17  21416573.914      -69984.510       -2309.936          51.500  
G22  23269901.460       24146.297         819.882          46.500  
G28  20992779.691       10669.675         372.651          47.500  
> 2018  4 22 11 21 26.1688020  0  5                     
G 1  23100700.804       62531.965        2016.758          48.750  
G11  23762614.499       61681.729        2026.046          42.750  
G17  21418361.229      -70215.497       -2309.788          51.750  
G22  23271749.149       24228.289         819.968          46.500  
G28  20994616.413       10706.938         373.201          47.750  
> 2018  4 22 11 21 26.2688020  0  5                     
G 1  23102570.679       62733.701        2018.049          49.000  
G11  23764485.108       61884.303        2026.029          42.750  
G17  21420149.030      -70446.395       -2308.496          51.750  
G22  23273596.402       24310.404         821.817          46.750  
G28  20996454.995       10744.309         374.292          47.500  
> 2018  4 22 11 21 26.3688020  0  5                     
G 1  23104440.799       62935.511        2018.617          49.000  
G11  23766353.622       62086.979        2026.591          43.250  
G17  21421936.345      -70677.214       -2308.211          51.750  
G22  23275443.935       24392.571         822.083          46.500  
G28  20998294.754       10781.739         374.318          47.500  
> 2018  4 22 11 21 26.4688020  0  5                     
G 1  23106310.709       63137.340        2018.690          49.000  
G11  23768223.257       62289.647        2026.254          43.000  
G17  21423723.980      -70908.025       -2308.315          51.500  
G22  23277291.605       24474.759         820.951          46.750  
G28  21000131.963       10819.212         374.917          47.750  
> 2018  4 22 11 21 26.5688020  0  5                     
G 1  23108180.980       63339.112        2017.205          49.000  
G11  23770093.806       62492.283        2026.206          43.250  
G17  21425511.924      -71138.880       -2309.169          51.500  
G22  23279139.594       24556.905         820.871          46.750  
G28  21001971.587       10856.613         373.587          47.500  
> 2018  4 22 11 21 26.6688020  0  5                     
G 1  23110050.984       63540.854        2017.598          49.000  
G11  23771964.392       62694.865        2025.889          43.250  
G17  21427299.290      -71369.764       -2309.110          51.750  
G22  23280986.096       24639.030         820.867          46.750  
G28  21003809.817       10894.018         374.205          47.750  
> 2018  4 22 11 21 26.7688020  0  5                     
G 1  23111920.965       63742.554        2016.412          49.000  
G11  23773833.964       62897.427        2024.947          43.000  
G17  21429087.140      -71600.696       -2310.033          51.500  
G22  23282832.659       24721.099         820.752          46.750  
G28  21005648.131       10931.357         372.957          47.750  
> 2018  4 22 11 21 26.8688020  0  5                     
G 1  23113790.528       63944.241        2016.382          49.000  
G11  23775703.819       63099.955        2024.959          43.000  
G17  21430874.410      -71831.633       -2309.488          51.750  
G22  23284679.546       24803.172         820.301          46.500  
G28  21007489.036       10968.695         373.514          48.250  
> 2018  4 22 11 21 26.9688020  0  5                     
G 1  23115660.488       64145.918        2016.528          49.000  
G11  23777573.880       63302.487        2025.047          43.000  
G17  21432661.756      -72062.585       -2310.127          51.750  
G22  23286527.442       24885.243         820.799          46.750  
G28  21009326.424       11006.036         373.751          48.250  
> 2018  4 22 11 21 27.0688020  0  5                     
G 1  23117530.099       64347.560        2016.415          48.750  
G11  23779444.091       63504.987        2024.985          43.250  
G17  21434449.634      -72293.570       -2309.800          51.750  
G22  23288375.477       24967.274         820.916          46.750  
G28  21011166.324       11043.331         373.041          48.000  
> 2018  4 22 11 21 27.1688020  0  5                     
G 1  23119400.686       64549.260        2017.583          49.000  
G11  23781314.426       63707.521        2026.448          43.500  
G17  21436237.029      -72524.510       -2309.587          51.500  
G22  23290222.951       25049.351         820.966          46.500  
G28  21013004.260       11080.684         373.881          48.000  
> 2018  4 22 11 21 27.2688020  0  5                     
G 1  23121270.658       64750.928        2016.808          49.000  
G11  23783185.297       63910.054        2025.323          43.000  
G17  21438024.813      -72755.451       -2309.631          51.500  
G22  23292070.347       25131.433         820.470          46.750  
G28  21014843.174       11118.041         373.163          47.750  
> 2018  4 22 11 21 27.3688020  0  5                     
G 1  23123141.205       64952.609        2016.917          49.000  
G11  23785055.223       64112.581        2026.138          43.250  
G17  21439812.070      -72986.397       -2309.374          51.500  
G22  23293916.847       25213.511         821.264          47.000  
G28  21016683.506       11155.393         373.929          47.750  
> 2018  4 22 11 21 27.4688020  0  5                     
G 1  23125011.207       65154.307        2017.575          49.000  
G11  23786925.811       64315.129        2026.086          43.250  
G17  21441599.776      -73217.335       -2309.784          51.500  
G22  23295763.827       25295.602         821.023          46.750  
G28  21018520.044       11192.763         373.308          47.750  
> 2018  4 22 11 21 27.5688020  0  5                     
G 1  23126880.886       65356.006        2016.465          49.000  
G11  23788796.913       64517.665        2024.949          43.250  
G17  21443387.371      -73448.252       -2309.656          51.500  
G22  23297610.903       25377.715         820.817          46.750  
G28  21020359.816       11230.146         373.309          47.750  
> 2018  4 22 11 21 27.6688020  0  5                     
G 1  23128750.900       65557.670        2016.677          48.750  
G11  23790666.177       64720.198        2025.660          43.250  
G17  21445174.549      -73679.205       -2309.423          51.500  
G22  23299457.456       25459.786         820.882          47.000  
G28  21022198.269       11267.502         373.871          48.250  
> 2018  4 22 11 21 27.7688020  0  5                     
G 1  23130620.088       65759.257        2015.522          48.500  
G11  23792536.286       64922.625        2023.878          43.250  
G17  21446962.644      -73910.242       -2310.803          51.250  
G22  23301305.014       25541.804         820.230          46.750  
G28  21024035.266       11304.785         372.888          47.750  
> 2018  4 22 11 21 27.8688020  0  5                     
G 1  23132489.883       65960.831        2016.093          48.750  
G11  23794406.614       65125.036        2024.545          43.000  
G17  21448749.694      -74141.291       -2310.104          51.250  
G22  23303152.058       25623.796         820.549          47.000  
G28  21025875.270       11342.053         373.263          47.500  
> 2018  4 22 11 21 27.9688020  0  5                     
G 1  23134359.522       66162.453        2016.386          48.500  
G11  23796275.508       65327.504        2025.379          43.250  
G17  21450537.564      -74372.288       -2309.322          51.250  
G22  23304999.793       25705.840         821.153          46.750  
G28  21027712.668       11379.386         374.294          47.250  
> 2018  4 22 11 21 28.0688020  0  5                     
G 1  23136229.293       66364.158        2017.310          49.000  
G11  23798145.789       65530.065        2024.871          43.000  
G17  21452325.622      -74603.199       -2308.876          51.250  
G22  23306847.311       25787.963         820.965          47.000  
G28  21029552.510       11416.785         374.689          48.250  
> 2018  4 22 11 21 28.1688020  0  5                     
G 1  23138099.364       66565.881        2016.881          48.750  
G11  23800016.524       65732.635        2025.415          43.000  
G17  21454113.450      -74834.089       -2309.236          51.750  
G22  23308694.105       25870.123         820.839          47.250  
G28  21031391.945       11454.215         374.333          48.250  
> 2018  4 22 11 21 28.2688020  0  5                     
G 1  23139969.547       66767.555        2016.733          48.750  
G11  23801886.817       65935.165        2025.704          43.000  
G17  21455901.646      -75065.040       -2309.375          51.500  
G22  23310541.959       25952.232         821.300          47.000  
G28  21033229.418       11491.592         374.660          47.750  
> 2018  4 22 11 21 28.3688020  0  5                     
G 1  23141839.836       66969.292        2018.449          48.750  
G11  23803759.025       66137.750        2026.557          43.000  
G17  21457689.863      -75295.928       -2308.410          51.750  
G22  23312387.984       26034.403         822.940          47.250  
G28  21035069.525       11529.040         374.840          47.500  
> 2018  4 22 11 21 28.4688020  0  5                     
G 1  23143709.295       67171.150        2019.101          48.500  
G11  23805628.045       66340.445        2026.893          43.000  
G17  21459477.495      -75526.693       -2308.240          51.500  
G22  23314235.268       26116.703         821.872          46.750  
G28  21036907.258       11566.630         375.963          48.000  
> 2018  4 22 11 21 28.5688020  0  5                     
G 1  23145579.156       67373.015        2019.131          48.750  
G11  23807497.455       66543.169        2029.864          42.500  
G17  21461265.176      -75757.441       -2307.272          51.500  
G22  23316083.033       26198.999         823.448          46.750  
G28  21038745.694       11604.206         376.353          47.750  
> 2018  4 22 11 21 28.6688020  0  5                     
G 1  23147449.016       67574.866        2018.142          49.000  
G11  23809367.510       66745.843        2026.874          43.000  
G17  21463052.672      -75988.212       -2308.115          51.500  
G22  23317930.131       26281.297         822.721          47.000  
G28  21040585.541       11641.783         376.124          47.500  
> 2018  4 22 11 21 28.7688020  0  5                     
G 1  23149319.128       67776.676        2017.789          48.750  
G11  23811238.055       66948.501        2026.888          43.000  
G17  21464840.445      -76219.003       -2308.210          51.500  
G22  23319776.785       26363.577         823.370          47.000  
G28  21042422.431       11679.340         375.002          47.750  
> 2018  4 22 11 21 28.8688020  0  5                     
G 1  23151188.964       67978.454        2017.895          48.750  
G11  23813108.984       67151.129        2026.664          43.000  
G17  21466628.157      -76449.844       -2308.471          51.250  
G22  23321624.402       26445.804         821.780          47.000  
G28  21044262.092       11716.846         374.910          47.750  
> 2018  4 22 11 21 28.9688020  0  5                     
G 1  23153059.258       68180.234        2018.201          48.750  
G11  23814978.597       67353.767        2026.994          43.000  
G17  21468415.375      -76680.673       -2307.940          51.500  
G22  23323471.866       26528.053         822.500          47.250  
G28  21046100.629       11754.373         375.266          47.750  
> 2018  4 22 11 21 29.0688020  0  5                     
G 1  23154929.046       68382.020        2017.855          49.000  
G11  23816847.945       67556.408        2027.622          43.000  
G17  21470203.563      -76911.495       -2308.086          51.250  
G22  23325319.236       26610.304         823.196          47.250  
G28  21047939.139       11791.910         375.445          47.750  
> 2018  4 22 11 21 29.1688020  0  5                     
G 1  23156798.774       68583.801        2017.866          48.500  
G11  23818717.994       67759.036        2027.882          43.000  
G17  21471990.534      -77142.330       -2308.185          51.000  
G22  23327166.545       26692.541         822.511          46.750  
G28  21049779.920       11829.440         375.701          47.750  
> 2018  4 22 11 21 29.2688020  0  5                     
G 1  23158669.610       68785.582        2018.281          49.000  
G11  23820587.882       67961.649        2025.328          43.000  
G17  21473778.415      -77373.163       -2308.121          51.500  
G22  23329014.116       26774.797         822.599          47.250  
G28  21051617.062       11866.971         375.728          47.750  
> 2018  4 22 11 21 29.3688020  0  5                     
G 1  23160539.875       68987.376        2018.551          49.000  
G11  23822457.334       68164.294        2026.648          43.000  
G17  21475566.320      -77603.974       -2307.914          51.500  
G22  23330861.541       26857.075         823.058          47.000  
G28  21053456.344       11904.526         376.019          48.000  
> 2018  4 22 11 21 29.4688020  0  5                     
G 1  23162409.925       69189.196        2019.025          48.750  
G11  23824328.414       68366.962        2027.255          42.750  
G17  21477353.899      -77834.772       -2307.744          51.500  
G22  23332709.343       26939.379         823.684          46.750  
G28  21055295.842       11942.095         375.770          47.750  
> 2018  4 22 11 21 29.5688020  0  5                     
G 1  23164280.679       69391.039        2019.127          48.750  
G11  23826199.020       68569.638        2026.884          42.750  
G17  21479141.893      -78065.534       -2307.649          51.500  
G22  23334555.763       27021.695         823.366          46.750  
G28  21057134.317       11979.711         375.651          48.000  
> 2018  4 22 11 21 29.6688020  0  5                     
G 1  23166150.221       69592.916        2018.875          48.500  
G11  23828068.040       68772.359        2026.941          43.000  
G17  21480929.244      -78296.276       -2307.643          51.500  
G22  23336403.388       27104.050         823.355          46.750  
G28  21058974.400       12017.346         376.454          48.000  
> 2018  4 22 11 21 29.7688020  0  5                     
G 1  23168020.219       69794.854        2019.748          48.750  
G11  23829937.353       68975.143        2028.044          42.750  
G17  21482717.152      -78526.936       -2306.643          51.500  
G22  23338250.495       27186.473         824.776          47.250  
G28  21060810.621       12055.063         377.447          47.750  
> 2018  4 22 11 21 29.8688020  0  5                     
G 1  23169890.563       69996.759        2018.515          48.750  
G11  23831807.676       69177.893        2027.498          42.500  
G17  21484504.651      -78757.649       -2307.652          51.500  
G22  23340098.066       27268.881         824.213          47.250  
G28  21062650.229       12092.739         376.742          47.500  
> 2018  4 22 11 21 29.9688020  0  5                     
G 1  23171761.301       70198.632        2018.020          48.750  
G11  23833677.903       69380.619        2026.492          42.750  
G17  21486292.444      -78988.372       -2308.080          51.000  
G22  23341945.119       27351.251         824.339          47.000  
G28  21064488.606       12130.405         375.798          47.750  
> 2018  4 22 11 21 30.0688020  0  5                     
G 1  23173630.788       70400.461        2018.366          48.500  
G11  23835548.141       69583.025        1994.524          42.500  
G17  21488080.198      -79219.147       -2307.754          51.250  
G22  23343792.366       27433.586         823.213          47.000  
G28  21066325.612       12168.024         376.520          47.500  
> 2018  4 22 11 21 30.1688020  0  5                     
G 1  23175500.440       70602.304        2018.242          48.500  
G11  23837418.250       69786.229        2072.927          42.750  
G17  21489867.792      -79449.908       -2307.576          51.250  
G22  23345638.747       27515.933         824.056          47.000  
G28  21068165.156       12205.648         376.320          47.500  
> 2018  4 22 11 21 30.2688020  0  5                     
G 1  23177369.479       70804.073        2017.820          48.500  
G11  23839288.781       69988.581        2025.704          42.750  
G17  21491655.344      -79680.752       -2308.416          51.250  
G22  23347486.201       27598.205         822.851          46.750  
G28  21070003.529       12243.213         375.471          47.500  
> 2018  4 22 11 21 30.3688020  0  5                     
G 1  23179239.433       71005.814        2017.111          49.000  
G11  23841157.999       70191.160        2025.782          42.750  
G17  21493443.167      -79911.603       -2308.888          51.500  
G22  23349334.100       27680.471         822.701          47.000  
G28  21071841.801       12280.762         375.123          47.500  
> 2018  4 22 11 21 30.4688020  0  5                     
G 1  23181109.470       71207.562        2017.549          49.000  
G11  23843029.049       70393.754        2025.461          42.750  
G17  21495230.929      -80142.460       -2308.237          51.250  
G22  23351181.813       27762.732         822.907          47.500  
G28  21073682.012       12318.299         375.880          47.500  
> 2018  4 22 11 21 30.5688020  0  5                     
G 1  23182979.173       71409.285        2017.590          48.750  
G11  23844898.683       70596.316        2025.928          42.750  
G17  21497019.001      -80373.333       -2309.363          51.500  
G22  23353029.798       27844.968         822.638          47.250  
G28  21075519.025       12355.849         375.861          47.500  
> 2018  4 22 11 21 30.6688020  0  5                     
G 1  23184849.688       71611.090        2018.761          48.750  
G11  23846767.883       70798.975        2027.543          42.750  
G17  21498806.044      -80604.137       -2308.015          51.500  
G22  23354876.882       27927.287         822.834          47.000  
G28  21077358.947       12393.467         376.236          47.250  
> 2018  4 22 11 21 30.7688020  0  5                     
G 1  23186720.202       71812.912        2019.058          48.500  
G11  23848637.942       71001.645        2027.307          42.500  
G17  21500593.521      -80834.903       -2307.606          51.250  
G22  23356724.067       28009.660         824.070          46.750  
G28  21079197.777       12431.100         376.362          47.750  
> 2018  4 22 11 21 30.8688020  0  5                     
G 1  23188590.468       72014.783        2019.001          49.000  
G11  23850508.248       71204.336        2027.156          42.750  
G17  21502380.874      -81065.637       -2306.538          51.500  
G22  23358570.044       28092.047         824.460          47.000  
G28  21081036.353       12468.787         376.948          48.000  
> 2018  4 22 11 21 30.9688020  0  5                     
G 1  23190459.894       72216.644        2018.284          49.000  
G11  23852377.353       71407.043        2026.460          42.250  
G17  21504168.771      -81296.359       -2307.753          51.250  
G22  23360416.812       28174.457         823.821          47.000  
G28  21082876.689       12506.476         375.690          48.000  
> 2018  4 22 11 21 31.0688020  0  5                     
G 1  23192329.935       72418.487        2018.448          49.000  
G11  23854247.255       71609.723        2027.678          42.750  
G17  21505956.033      -81527.124       -2307.438          51.500  
G22  23362263.583       28256.826         823.971          47.000  
G28  21084713.763       12544.144         376.900          47.750  
> 2018  4 22 11 21 31.1688020  0  5                     
G 1  23194199.686       72620.314        2017.962          48.750  
G11  23856117.844       71812.394        2026.341          42.500  
G17  21507743.646      -81757.893       -2308.728          51.250  
G22  23364110.524       28339.187         822.818          47.500  
G28  21086553.268       12581.798         376.623          47.750  
> 2018  4 22 11 21 31.2688020  0  5                     
G 1  23196069.905       72822.106        2018.374          48.750  
G11  23857988.727       72015.030        2026.227          42.250  
G17  21509531.594      -81988.715       -2308.254          51.500  
G22  23365958.146       28421.526         823.437          47.250  
G28  21088392.304       12619.419         376.122          47.750  
> 2018  4 22 11 21 31.3688020  0  5                     
G 1  23197940.623       73023.892        2017.936          48.750  
G11  23859860.695       72217.650        2025.361          42.500  
G17  21511319.860      -82219.514       -2308.156          51.250  
G22  23367805.934       28503.866         823.491          47.000  
G28  21090229.814       12657.048         376.248          47.750  
> 2018  4 22 11 21 31.4688020  0  5                     
G 1  23199810.369       73225.569        2016.275          48.750  
G11  23861730.912       72420.162        2025.046          42.750  
G17  21513107.120      -82450.435       -2309.220          51.250  
G22  23369652.018       28586.100         822.220          47.250  
G28  21092070.067       12694.574         375.400          47.750  
> 2018  4 22 11 21 31.5688020  0  5                     
G 1  23201680.174       73427.244        2017.464          49.000  
G11  23863600.104       72622.689        2024.840          42.250  
G17  21514895.203      -82681.354       -2309.304          51.000  
G22  23371499.144       28668.322         822.526          47.250  
G28  21093906.941       12732.095         375.329          47.750  
> 2018  4 22 11 21 31.6688020  0  5                     
G 1  23203550.493       73628.907        2016.538          49.000  
G11  23865470.832       72825.187        2025.444          42.750  
G17  21516683.114      -82912.282       -2309.468          51.250  
G22  23373348.027       28750.545         822.015          47.250  
G28  21095745.836       12769.605         375.188          47.500  
> 2018  4 22 11 21 31.7688020  0  5                     
G 1  23205420.648       73830.531        2016.431          48.750  
G11  23867340.272       73027.654        2025.125          43.000  
G17  21518470.853      -83143.251       -2309.743          51.250  
G22  23375194.397       28832.742         821.856          47.000  
G28  21097585.068       12807.086         374.980          47.750  
> 2018  4 22 11 21 31.8688020  0  5                     
G 1  23207290.057       74032.159        2016.023          48.750  
G11  23869210.439       73230.125        2024.307          42.750  
G17  21520258.579      -83374.208       -2310.098          51.000  
G22  23377041.486       28914.951         821.751          47.000  
G28  21099422.852       12844.584         375.232          47.250  
> 2018  4 22 11 21 31.9688020  0  5                     
G 1  23209160.247       74233.744        2016.031          48.750  
G11  23871080.000       73432.533        2023.681          43.000  
G17  21522045.529      -83605.231       -2310.460          51.250  
G22  23378889.642       28997.091         821.142          47.500  
G28  21101263.021       12882.022         374.485          47.750  
> 2018  4 22 11 21 32.0688020  0  5                     
G 1  23211030.502       74435.255        2015.245          49.000  
G11  23872949.726       73634.883        2023.247          42.750  
G17  21523833.179      -83836.292       -2310.624          51.250  
G22  23380736.986       29079.184         821.037          47.250  
G28  21103100.869       12919.411         374.381          47.500  
> 2018  4 22 11 21 32.1688020  0  5                     
G 1  23212899.871       74636.769        2015.276          48.750  
G11  23874819.877       73837.244        2023.207          42.500  
G17  21525620.070      -84067.367       -2310.636          51.250  
G22  23382584.083       29161.283         821.243          47.000  
G28  21104938.885       12956.799         373.786          47.500  
> 2018  4 22 11 21 32.2688020  0  5                     
G 1  23214769.602       74838.314        2016.048          48.750  
G11  23876690.697       74039.617        2023.956          42.500  
G17  21527407.562      -84298.412       -2310.183          51.250  
G22  23384431.284       29243.412         822.371          47.250  
G28  21106778.973       12994.224         375.237          47.500  
> 2018  4 22 11 21 32.3688020  0  5                     
G 1  23216639.163       75039.958        2016.853          48.750  
G11  23878562.168       74242.116        2025.517          42.500  
G17  21529195.135      -84529.350       -2308.567          51.000  
G22  23386278.615       29325.641         822.941          47.250  
G28  21108616.077       13031.748         376.256          47.250  
> 2018  4 22 11 21 32.4688020  0  5                     
G 1  23218509.239       75241.629        2017.915          48.750  
G11  23880433.514       74444.638        2024.908          42.750  
G17  21530982.407      -84760.269       -2309.063          51.250  
G22  23388125.558       29407.905         823.369          47.250  
G28  21110455.248       13069.302         376.471          47.250  
> 2018  4 22 11 21 32.5688020  0  5                     
G 1  23220379.156       75443.417        2018.945          48.750  
G11  23882304.009       74647.237        2026.467          42.750  
G17  21532769.875      -84991.078       -2307.568          51.000  
G22  23389973.754       29490.278         824.042          47.250  
G28  21112293.500       13106.975         377.672          47.500  
> 2018  4 22 11 21 32.6688020  0  5                     
G 1  23222249.922       75645.261        2019.426          48.750  
G11  23884173.668       74849.928        2027.807          43.250  
G17  21534556.901      -85221.816       -2307.180          51.250  
G22  23391821.245       29572.729         824.857          47.250  
G28  21114131.900       13144.719         378.108          47.750  
> 2018  4 22 11 21 32.7688020  0  5                     
G 1  23224119.949       75847.139        2018.176          49.000  
G11  23886043.382       75052.641        2026.335          43.000  
G17  21536344.974      -85452.520       -2307.461          51.000  
G22  23393668.995       29655.213         824.625          47.250  
G28  21115972.003       13182.499         378.062          48.000  
> 2018  4 22 11 21 32.8688020  0  5                     
G 1  23225989.595       76049.023        2019.683          48.750  
G11  23887911.475       75255.366        2027.896          42.750  
G17  21538132.279      -85683.220       -2307.053          51.250  
G22  23395516.656       29737.709         825.585          47.250  
G28  21117810.515       13220.292         378.245          47.750  
> 2018  4 22 11 21 32.9688020  0  5                     
G 1  23227859.301       76250.986        2019.610          48.750  
G11  23889781.966       75458.160        2027.752          42.500  
G17  21539920.207      -85913.827       -2305.647          51.250  
G22  23397363.150       29820.281         826.391          47.000  
G28  21119650.379       13258.163         379.252          48.000  
> 2018  4 22 11 21 33.0688020  0  5                     
G 1  23229729.981       76452.959        2019.992          48.750  
G11  23891653.103       75660.975        2027.702          43.000  
G17  21541708.228      -86144.442       -2306.261          51.250  
G22  23399209.758       29902.861         825.411          47.250  
G28  21121489.317       13296.045         378.771          47.750  
> 2018  4 22 11 21 33.1688020  0  5                     
G 1  23231599.558       76654.935        2020.380          48.750  
G11  23893523.566       75863.788        2027.721          43.000  
G17  21543495.673      -86375.054       -2306.458          51.250  
G22  23401057.129       29985.442         825.645          47.500  
G28  21123327.746       13333.926         379.179          48.000  
> 2018  4 22 11 21 33.2688020  0  5                     
G 1  23233469.321       76856.940        2020.078          48.750  
G11  23895394.883       76066.627        2029.043          43.000  
G17  21545283.760      -86605.638       -2305.772          50.750  
G22  23402903.835       30068.071         826.602          47.000  
G28  21125167.954       13371.849         378.615          47.750  
> 2018  4 22 11 21 33.3688020  0  5                     
G 1  23235340.090       77058.902        2019.297          49.000  
G11  23897263.698       76269.435        2027.791          43.250  
G17  21547071.045      -86836.240       -2306.139          51.250  
G22  23404751.921       30150.671         825.459          47.250  
G28  21127005.016       13409.760         378.996          48.250  
> 2018  4 22 11 21 33.4688020  0  5                     
G 1  23237210.094       77260.888        2020.586          48.750  
G11  23899133.068       76472.234        2027.944          42.750  
G17  21548858.533      -87066.840       -2305.276          51.250  
G22  23406599.783       30233.266         825.742          47.250  
G28  21128844.128       13447.660         379.480          47.750  
> 2018  4 22 11 21 33.5688020  0  5                     
G 1  23239079.963       77462.886        2019.231          49.000  
G11  23901003.889       76675.081        2026.152          42.500  
G17  21550646.285      -87297.419       -2307.067          51.250  
G22  23408446.975       30315.902         825.747          47.250  
G28  21130683.556       13485.592         378.325          47.750  
> 2018  4 22 11 21 33.6688020  0  5                     
G 1  23240949.822       77664.835        2018.896          48.750  
G11  23902874.642       76877.874        2027.622          43.250  
G17  21552433.500      -87528.051       -2306.724          51.000  
G22  23410293.728       30398.499         826.250          47.250  
G28  21132521.158       13523.485         378.594          48.000  
> 2018  4 22 11 21 33.7688020  0  5                     
G 1  23242820.684       77866.796        2019.992          49.000  
G11  23904744.077       77080.660        2026.744          43.000  
G17  21554221.184      -87758.665       -2306.715          51.250  
G22  23412141.100       30481.088         826.151          47.500  
G28  21134362.024       13561.377         378.674          47.750  
> 2018  4 22 11 21 33.8688020  0  5                     
G 1  23244690.984       78068.770        2019.763          49.000  
G11  23906614.350       77283.462        2028.101          43.500  
G17  21556008.544      -87989.280       -2306.288          51.000  
G22  23413988.426       30563.701         826.471          47.250  
G28  21136199.634       13599.292         379.104          47.750  
> 2018  4 22 11 21 33.9688020  0  5                     
G 1  23246560.464       78270.722        2020.544          48.750  
G11  23908484.563       77486.257        2029.052          43.250  
G17  21557796.195      -88219.898       -2305.936          51.000  
G22  23415835.379       30646.293         826.128          47.250  
G28  21138039.514       13637.179         379.042          47.750  
> 2018  4 22 11 21 34.0688020  0  5                     
G 1  23248430.455       78472.662        2019.455          49.000  
G11  23910356.598       77689.030        2027.357          43.500  
G17  21559583.954      -88450.530       -2306.855          51.000  
G22  23417683.080       30728.892         825.839          47.250  
G28  21139877.924       13675.091         379.054          47.750  
> 2018  4 22 11 21 34.1688020  0  5                     
G 1  23250300.335       78674.580        2019.202          48.500  
G11  23912227.070       77891.774        2027.433          43.000  
G17  21561371.731      -88681.186       -2307.128          51.000  
G22  23419530.492       30811.467         825.981          47.250  
G28  21141715.527       13712.958         378.018          47.500  
> 2018  4 22 11 21 34.2688020  0  5                     
G 1  23252169.965       78876.405        2018.284          48.750  
G11  23914097.335       78094.423        2025.696          43.250  
G17  21563159.552      -88911.939       -2307.779          51.000  
G22  23421377.704       30893.946         823.667          47.500  
G28  21143556.181       13750.742         377.884          47.750  
> 2018  4 22 11 21 34.3688020  0  5                     
G 1  23254040.165       79078.146        2017.071          48.750  
G11  23915967.252       78297.012        2025.303          43.250  
G17  21564947.280      -89142.761       -2309.120          51.250  
G22  23423224.354       30976.367         824.483          47.250  
G28  21145392.396       13788.464         377.044          47.750  
> 2018  4 22 11 21 34.4688020  0  5                     
G 1  23255910.034       79279.883        2017.269          48.500  
G11  23917837.055       78499.574        2025.414          43.000  
G17  21566734.656      -89373.604       -2309.094          51.000  
G22  23425071.478       31058.755         823.569          47.500  
G28  21147231.488       13826.150         376.615          47.750  
> 2018  4 22 11 21 34.5688020  0  5                     
G 1  23257779.874       79481.605        2017.446          48.750  
G11  23919706.642       78702.150        2025.526          43.000  
G17  21568522.154      -89604.440       -2308.717          50.750  
G22  23426918.139       31141.141         823.539          47.250  
G28  21149071.054       13863.862         376.894          47.500  
> 2018  4 22 11 21 34.6688020  0  5                     
G 1  23259649.494       79683.340        2016.697          48.750  
G11  23921576.804       78904.699        2025.013          43.250  
G17  21570309.522      -89835.289       -2309.163          51.000  
G22  23428765.741       31223.539         823.328          47.000  
G28  21150908.613       13901.564         376.639          47.750  
> 2018  4 22 11 21 34.7688020  0  5                     
G 1  23261519.611       79885.040        2017.319          49.000  
G11  23923447.069       79107.229        2024.960          43.000  
G17  21572096.945      -90066.152       -2308.968          51.000  
G22  23430613.171       31305.921         823.620          47.500  
G28  21152748.741       13939.246         376.025          47.750  
> 2018  4 22 11 21 34.8688020  0  5                     
G 1  23263389.768       80086.793        2017.716          48.750  
G11  23925318.385       79309.806        2025.938          43.000  
G17  21573884.655      -90296.980       -2308.582          51.000  
G22  23432460.609       31388.357         824.036          47.500  
G28  21154587.167       13976.995         377.477          47.750  
> 2018  4 22 11 21 34.9688020  0  5                     
G 1  23265259.809       80288.577        2017.795          48.750  
G11  23927187.655       79512.451        2026.979          43.000  
G17  21575672.010      -90527.748       -2307.796          51.000  
G22  23434307.736       31470.828         825.189          47.750  
G28  21156425.253       14014.772         377.601          47.750  
> 2018  4 22 11 21 35.0688020  0  5                     
G 1  23267129.942       80490.436        2019.075          49.000  
G11  23929057.822       79715.125        2028.192          43.500  
G17  21577460.158      -90758.465       -2307.055          51.000  
G22  23436154.602       31553.380         825.784          47.500  
G28  21158264.550       14052.612         377.899          47.750  
> 2018  4 22 11 21 35.1688020  0  5                     
G 1  23268999.778       80692.361        2019.867          48.750  
G11  23930928.581       79917.873        2027.545          43.250  
G17  21579247.562      -90989.112       -2305.901          50.750  
G22  23438001.867       31635.976         826.770          47.000  
G28  21160100.968       14090.523         378.625          47.250  
> 2018  4 22 11 21 35.2688020  0  5                     
G 1  23270869.177       80894.316        2019.745          48.500  
G11  23932798.938       80120.665        2028.305          43.500  
G17  21581035.539      -91219.719       -2306.530          51.000  
G22  23439849.723       31718.646         826.583          47.250  
G28  21161940.438       14128.509         380.336          47.750  
> 2018  4 22 11 21 35.3688020  0  5                     
G 1  23272738.919       81096.333        2021.084          48.750  
G11  23934669.443       80323.509        2027.812          43.500  
G17  21582822.711      -91450.262       -2304.552          51.000  
G22  23441697.805       31801.349         827.663          47.500  
G28  21163779.937       14166.519         380.868          47.500  
> 2018  4 22 11 21 35.4688020  0  5                     
G 1  23274609.111       81298.409        2020.631          48.750  
G11  23936539.090       80526.417        2028.883          43.750  
G17  21584609.808      -91680.761       -2305.768          51.000  
G22  23443545.833       31884.133         828.006          47.250  
G28  21165618.324       14204.602         380.199          47.500  
> 2018  4 22 11 21 35.5688020  0  5                     
G 1  23276478.714       81500.410        2020.423          48.750  
G11  23938409.365       80729.248        2028.795          43.500  
G17  21586397.791      -91911.324       -2305.783          51.000  
G22  23445393.455       31966.836         826.704          47.500  
G28  21167458.846       14242.625         380.111          47.750  
> 2018  4 22 11 21 35.6688020  0  5                     
G 1  23278348.261       81702.420        2020.583          48.750  
G11  23940280.078       80932.087        2029.146          43.750  
G17  21588184.971      -92141.883       -2305.680          51.000  
G22  23447240.417       32049.554         826.993          47.250  
G28  21169295.781       14280.649         380.651          47.500  
> 2018  4 22 11 21 35.7688020  0  5                     
G 1  23280218.594       81904.427        2020.693          48.500  
G11  23942150.960       81134.934        2029.298          43.500  
G17  21589972.970      -92372.431       -2305.216          50.750  
G22  23449086.839       32132.273         827.766          47.250  
G28  21171134.918       14318.681         380.877          47.750  
> 2018  4 22 11 21 35.8688020  0  5                     
G 1  23282088.911       82106.403        2020.657          48.750  
G11  23944021.832       81337.728        2027.218          44.000  
G17  21591760.436      -92603.017       -2305.518          51.000  
G22  23450934.326       32214.955         827.397          47.500  
G28  21172974.177       14356.671         380.117          47.750  
> 2018  4 22 11 21 35.9688020  0  5                     
G 1  23283959.337       82308.413        2020.021          48.500  
G11  23945891.737       81540.574        2028.105          43.500  
G17  21593548.605      -92833.575       -2306.061          50.750  
G22  23452781.317       32297.694         827.550          47.250  
G28  21174812.435       14394.730         380.656          47.500  
> 2018  4 22 11 21 36.0688020  0  5                     
G 1  23285829.802       82510.431        2020.805          48.750  
G11  23947761.500       81743.581        2050.799          43.750  
G17  21595336.160      -93064.104       -2305.317          51.000  
G22  23454627.853       32380.448         827.525          47.500  
G28  21176653.018       14432.786         380.809          47.750  
> 2018  4 22 11 21 36.1688020  0  5                     
G 1  23287699.264       82712.488        2019.959          48.750  
G11  23949631.241       81946.318        2027.424          43.750  
G17  21597123.216      -93294.609       -2305.740          51.000  
G22  23456475.395       32463.231         827.867          47.500  
G28  21178490.061       14470.884         381.193          47.750  
> 2018  4 22 11 21 36.2688020  0  5                     
G 1  23289569.041       82914.514        2020.294          48.750  
G11  23951501.620       82149.173        2029.458          43.750  
G17  21598911.292      -93525.134       -2304.572          51.000  
G22  23458323.302       32545.997         827.858          47.500  
G28  21180328.987       14508.965         380.580          47.500  
> 2018  4 22 11 21 36.3688020  0  5                     
G 1  23291439.049       83116.600        2020.863          48.750  
G11  23953372.316       82352.084        2029.573          43.750  
G17  21600699.153      -93755.610       -2304.912          50.750  
G22  23460171.619       32628.817         828.432          47.250  
G28  21182167.979       14547.083         381.618          47.500  
> 2018  4 22 11 21 36.4688020  0  5                     
G 1  23293309.258       83318.702        2020.914          48.500  
G11  23955242.151       82555.015        2029.591          43.750  
G17  21602486.666      -93986.066       -2304.522          50.750  
G22  23462019.062       32711.662         829.093          47.500  
G28  21184006.023       14585.246         381.643          47.500  
> 2018  4 22 11 21 36.5688020  0  5                     
G 1  23295179.247       83520.812        2021.480          48.750  
G11  23957112.417       82757.954        2029.426          43.750  
G17  21604274.465      -94216.512       -2304.222          51.000  
G22  23463865.628       32794.503         828.008          47.500  
G28  21185847.223       14623.414         381.621          47.500  
> 2018  4 22 11 21 36.6688020  0  5                     
G 1  23297049.271       83722.944        2021.689          48.750  
G11  23958981.053       82960.908        2030.227          43.750  
G17  21606062.347      -94446.944       -2304.619          51.000  
G22  23465713.148       32877.385         828.323          47.500  
G28  21187683.951       14661.608         381.345          47.750  
> 2018  4 22 11 21 36.7688020  0  5                     
G 1  23298919.329       83925.087        2022.219          48.500  
G11  23960850.837       83163.874        2030.070          43.250  
G17  21607850.303      -94677.353       -2303.307          50.750  
G22  23467560.865       32960.273         830.331          47.500  
G28  21189523.628       14699.812         383.594          47.750  
> 2018  4 22 11 21 36.8688020  0  5                     
G 1  23300790.808       84127.218        2020.370          48.750  
G11  23962720.287       83366.849        2029.135          43.500  
G17  21609638.058      -94907.772       -2304.260          51.000  
G22  23469407.533       33043.171         827.627          47.500  
G28  21191362.504       14738.018         382.039          47.750  
> 2018  4 22 11 21 36.9688020  0  5                     
G 1  23302660.913       84329.348        2021.671          48.750  
G11  23964591.030       83569.788        2029.219          43.250  
G17  21611425.689      -95138.192       -2304.200          50.750  
G22  23471254.853       33126.060         829.539          47.500  
G28  21193199.852       14776.215         382.358          47.500  
> 2018  4 22 11 21 37.0688020  0  5                     
G 1  23304530.554       84531.488        2021.751          48.750  
G11  23966460.347       83772.749        2029.205          43.500  
G17  21613213.295      -95368.616       -2304.251          50.750  
G22  23473101.940       33208.953         829.857          47.500  
G28  21195040.311       14814.417         381.730          47.750  
> 2018  4 22 11 21 37.1688020  0  5                     
G 1  23306400.503       84733.622        2020.989          48.750  
G11  23968330.716       83975.703        2029.539          43.750  
G17  21615000.377      -95599.043       -2304.610          50.750  
G22  23474948.703       33291.840         828.162          47.500  
G28  21196878.991       14852.636         382.183          47.500  
> 2018  4 22 11 21 37.2688020  0  5                     
G 1  23308270.109       84935.676        2020.172          48.750  
G11  23970201.169       84178.604        2028.859          43.500  
G17  21616787.995      -95829.534       -2305.741          50.750  
G22  23476796.076       33374.680         827.638          47.500  
G28  21198718.657       14890.778         380.493          47.500  
> 2018  4 22 11 21 37.3688020  0  5                     
G 1  23310140.543       85137.701        2020.017          48.500  
G11  23972070.288       84381.438        2027.834          43.750  
G17  21618575.866      -96060.055       -2305.491          50.750  
G22  23478644.219       33457.468         827.571          47.500  
G28  21200557.174       14928.892         380.876          47.500  
> 2018  4 22 11 21 37.4688020  0  5                     
G 1  23312010.312       85339.680        2020.051          48.500  
G11  23973941.221       84584.248        2027.925          43.750  
G17  21620363.496      -96290.623       -2305.844          50.750  
G22  23480491.191       33540.234         827.538          47.500  
G28  21202395.352       14966.970         380.419          47.750  
> 2018  4 22 11 21 37.5688020  0  5                     
G 1  23313880.155       85541.659        2020.283          48.500  
G11  23975812.106       84787.052        2028.966          43.750  
G17  21622151.573      -96521.197       -2305.679          51.000  
G22  23482338.849       33622.985         827.552          47.500  
G28  21204235.646       15005.043         381.136          47.750  
> 2018  4 22 11 21 37.6688020  0  5                     
G 1  23315750.584       85743.627        2020.273          48.750  
G11  23977683.215       84989.869        2028.949          44.000  
G17  21623939.329      -96751.775       -2305.137          50.750  
G22  23484186.546       33705.746         828.249          47.750  
G28  21206071.867       15043.112         380.887          47.500  
> 2018  4 22 11 21 37.7688020  0  5                     
G 1  23317620.505       85945.676        2020.570          48.750  
G11  23979552.753       85192.730        2027.661          43.750  
G17  21625726.625      -96982.265       -2305.179          50.750  
G22  23486035.119       33788.584         828.223          47.500  
G28  21207911.147       15081.276         381.035          47.500  
> 2018  4 22 11 21 37.8688020  0  5                     
G 1  23319491.282       86147.789        2021.765          48.750  
G11  23981423.090       85395.670        2030.443          43.500  
G17  21627514.767      -97212.706       -2303.768          50.750  
G22  23487881.487       33871.489         829.214          47.500  
G28  21209750.826       15119.500         383.127          47.750  
> 2018  4 22 11 21 37.9688020  0  5                     
G 1  23321360.329       86349.959        2021.588          48.750  
G11  23983293.683       85598.656        2030.298          43.750  
G17  21629302.051      -97443.095       -2303.812          50.500  
G22  23489728.451       33954.454         830.337          47.500  
G28  21211588.038       15157.777         382.606          47.500  
> 2018  4 22 11 21 38.0688020  0  5                     
G 1  23323230.089       86552.152        2021.597          48.250  
G11  23985164.444       85801.666        2029.959          44.000  
G17  21631090.554      -97673.441       -2303.479          50.750  
G22  23491575.718       34037.438         829.316          47.500  
G28  21213428.060       15196.086         383.166          47.500  
> 2018  4 22 11 21 38.1688020  0  5                     
G 1  23325100.323       86754.338        2022.335          48.500  
G11  23987035.130       86004.682        2030.800          43.750  
G17  21632878.525      -97903.803       -2303.765          51.000  
G22  23493422.506       34120.422         830.067          47.750  
G28  21215265.698       15234.399         383.428          47.750  
> 2018  4 22 11 21 38.2688020  0  5                     
G 1  23326970.520       86956.538        2021.878          48.500  
G11  23988904.892       86207.694        2030.304          43.750  
G17  21634666.173      -98134.143       -2303.768          50.750  
G22  23495270.007       34203.440         830.108          47.500  
G28  21217104.362       15272.723         382.669          47.500  
> 2018  4 22 11 21 38.3688020  0  5                     
G 1  23328841.028       87158.686        2020.895          48.750  
G11  23990774.463       86410.690        2029.922          44.000  
G17  21636453.861      -98364.535       -2304.242          50.750  
G22  23497117.977       34286.402         829.557          47.500  
G28  21218945.131       15311.014         383.318          47.750  
> 2018  4 22 11 21 38.4688020  0  5                     
G 1  23330710.760       87360.840        2021.434          48.750  
G11  23992644.587       86613.662        2029.762          43.750  
G17  21638241.081      -98594.927       -2304.486          50.750  
G22  23498966.375       34369.376         829.707          47.500  
G28  21220782.660       15349.300         382.605          47.750  
> 2018  4 22 11 21 38.5688020  0  5                     
G 1  23332581.592       87562.952        2021.113          48.750  
G11  23994513.904       86816.578        2028.938          43.750  
G17  21640028.512      -98825.362       -2304.453          50.750  
G22  23500812.964       34452.300         829.381          47.750  
G28  21222623.930       15387.545         381.989          47.750  
> 2018  4 22 11 21 38.6688020  0  5                     
G 1  23334451.807       87765.070        2021.032          48.750  
G11  23996385.421       87019.527        2029.752          44.000  
G17  21641815.816      -99055.784       -2304.518          50.750  
G22  23502660.735       34535.238         830.023          47.750  
G28  21224461.766       15425.814         383.180          47.500  
> 2018  4 22 11 21 38.7688020  0  5                     
G 1  23336322.255       87967.146        2020.616          48.500  
G11  23998255.284       87222.432        2029.785          43.500  
G17  21643603.576      -99286.236       -2304.358          50.750  
G22  23504508.048       34618.142         829.422          47.750  
G28  21226300.491       15464.043         382.306          47.500  
> 2018  4 22 11 21 38.8688020  0  5                     
G 1  23338191.746       88169.247        2021.647          48.500  
G11  24000126.547       87425.346        2029.193          44.000  
G17  21645391.756      -99516.687       -2304.497          50.750  
G22  23506354.981       34701.069         829.283          47.750  
G28  21228139.934       15502.281         382.785          47.750  
> 2018  4 22 11 21 38.9688020  0  5                     
G 1  23340061.331       88371.329        2021.585          48.500  
G11  24001996.011       87628.251        2029.821          44.000  
G17  21647178.952      -99747.141       -2303.959          50.750  
G22  23508202.457       34783.976         829.198          47.750  
G28  21229977.810       15540.530         383.135          47.750  
> 2018  4 22 11 21 39.0688020  0  5                     
G 1  23341931.423       88573.472        2021.500          48.250  
G11  24003866.210       87831.219        2030.009          43.750  
G17  21648967.453      -99977.534       -2303.745          50.750  
G22  23510051.030       34866.959         829.643          47.750  
G28  21231817.623       15578.829         383.107          47.500  
> 2018  4 22 11 21 39.1688020  0  5                     
G 1  23343801.284       88775.651        2022.290          48.500  
G11  24005736.544       88034.199        2029.598          43.750  
G17  21650755.141     -100207.889       -2302.988          50.750  
G22  23511898.840       34949.982         830.244          47.750  
G28  21233654.983       15617.167         383.839          47.500  
> 2018  4 22 11 21 39.2688020  0  5                     
G 1  23345671.103       88977.901        2022.369          48.500  
G11  24007606.104       88237.298        2030.011          44.000  
G17  21652543.193     -100438.169       -2302.698          50.750  
G22  23513746.072       35033.084         831.308          47.750  
G28  21235494.127       15655.597         384.050          47.750  
> 2018  4 22 11 21 39.3688020  0  5                     
G 1  23347541.006       89180.247        2024.599          48.500  
G11  24009476.162       88440.452        2033.182          43.750  
G17  21654331.288     -100668.368       -2300.796          50.750  
G22  23515593.034       35116.273         832.900          47.750  
G28  21237333.870       15694.109         385.913          47.750  
> 2018  4 22 11 21 39.4688020  0  5                     
G 1  23349411.598       89382.603        2023.636          48.500  
G11  24011346.805       88643.632        2031.295          44.000  
G17  21656119.166     -100898.545       -2302.307          50.750  
G22  23517439.580       35199.481         832.214          47.750  
G28  21239170.985       15732.654         385.266          47.500  
> 2018  4 22 11 21 39.5688020  0  5                     
G 1  23351281.620       89584.927        2023.008          48.500  
G11  24013216.620       88846.771        2031.645          44.250  
G17  21657906.735     -101128.762       -2302.890          50.750  
G22  23519287.205       35282.656         831.719          47.750  
G28  21241011.168       15771.150         384.654          47.750  
> 2018  4 22 11 21 39.6688020  0  5                     
G 1  23353152.167       89787.229        2024.101          48.750  
G11  24015087.486       89049.892        2032.020          44.000  
G17  21659693.990     -101359.003       -2302.474          50.750  
G22  23521134.275       35365.803         830.938          47.750  
G28  21242849.686       15809.623         384.617          47.750  
> 2018  4 22 11 21 39.7688020  0  5                     
G 1  23355021.233       89989.496        2022.994          48.500  
G11  24016957.885       89252.984        2030.790          44.250  
G17  21661481.576     -101589.264       -2302.786          50.750  
G22  23522981.971       35448.937         830.965          47.500  
G28  21244688.507       15848.086         384.064          47.750  
> 2018  4 22 11 21 39.8688020  0  5                     
G 1  23356891.215       90191.781        2023.149          48.750  
G11  24018828.488       89456.081        2030.867          43.750  
G17  21663269.246     -101819.503       -2302.505          50.500  
G22  23524830.115       35532.092         831.297          47.750  
G28  21246528.930       15886.567         384.801          47.750  
> 2018  4 22 11 21 39.9688020  0  5                     
G 1  23358761.305       90394.023        2022.271          48.500  
G11  24020698.438       89659.143        2031.147          44.000  
G17  21665056.835     -102049.791       -2303.119          50.500  
G22  23526678.713       35615.218         831.227          47.500  
G28  21248365.997       15925.020         384.267          47.750  
> 2018  4 22 11 21 40.0688020  0  5                     
G 1  23360631.199       90596.278        2021.932          48.500  
G11  24022568.570       89862.221        2029.804          44.000  
G17  21666844.926     -102280.070       -2302.785          50.750  
G22  23528526.215       35698.336         830.979          47.500  
G28  21250206.398       15963.465         384.401          47.500  
> 2018  4 22 11 21 40.1688020  0  5                     
G 1  23362501.088       90798.533        2023.210          48.750  
G11  24024439.732       90065.288        2029.820          44.000  
G17  21668632.856     -102510.351       -2303.231          50.750  
G22  23530372.142       35781.466         830.585          47.750  
G28  21252044.624       16001.921         384.425          47.500  
> 2018  4 22 11 21 40.2688020  0  5                     
G 1  23364370.774       91000.726        2021.917          48.750  
G11  24026309.914       90268.306        2030.993          44.000  
G17  21670420.201     -102740.685       -2303.975          50.750  
G22  23532219.230       35864.547         831.955          48.000  
G28  21253883.647       16040.329         384.026          47.750  
> 2018  4 22 11 21 40.3688020  0  5                     
G 1  23366240.848       91202.889        2021.269          48.500  
G11  24028180.397       90471.291        2029.947          44.000  
G17  21672208.374     -102971.038       -2303.676          50.750  
G22  23534066.681       35947.592         830.592          47.750  
G28  21255723.820       16078.710         383.666          47.750  
> 2018  4 22 11 21 40.4688020  0  5                     
G 1  23368111.415       91405.035        2021.766          48.750  
G11  24030050.953       90674.237        2030.374          44.000  
G17  21673996.182     -103201.438       -2304.213          50.750  
G22  23535913.404       36030.623         830.699          48.000  
G28  21257560.888       16117.066         383.576          47.500  
> 2018  4 22 11 21 40.5688020  0  5                     
G 1  23369981.994       91607.181        2021.267          48.500  
G11  24031921.440       90877.208        2028.713          44.250  
G17  21675784.060     -103431.808       -2304.545          50.750  
G22  23537760.593       36113.666         829.891          47.750  
G28  21259400.878       16155.446         383.800          47.750  
> 2018  4 22 11 21 40.6688020  0  5                     
G 1  23371852.333       91809.301        2021.109          48.500  
G11  24033791.083       91080.135        2029.413          44.000  
G17  21677571.983     -103662.216       -2304.714          50.500  
G22  23539608.260       36196.688         829.963          47.750  
G28  21261239.300       16193.793         383.294          47.500  
> 2018  4 22 11 21 40.7688020  0  5                     
G 1  23373722.534       92011.424        2021.366          48.750  
G11  24035661.288       91283.096        2029.255          44.250  
G17  21679359.744     -103892.614       -2304.437          50.750  
G22  23541455.797       36279.717         829.691          47.750  
G28  21263077.755       16232.157         383.299          47.750  
> 2018  4 22 11 21 40.8688020  0  5                     
G 1  23375591.878       92213.509        2021.128          48.750  
G11  24037531.394       91485.978        2027.702          43.750  
G17  21681147.426     -104123.062       -2304.760          50.500  
G22  23543302.140       36362.703         830.625          47.750  
G28  21264917.357       16270.466         382.655          47.500  
> 2018  4 22 11 21 40.9688020  0  5                     
G 1  23377461.892       92415.592        2020.663          48.500  
G11  24039402.451       91688.882        2028.673          44.250  
G17  21682934.854     -104353.508       -2305.105          50.500  
G22  23545149.503       36445.678         829.782          47.750  
G28  21266755.204       16308.789         383.163          47.500  
> 2018  4 22 11 21 41.0688020  0  5                     
G 1  23379332.593       92617.658        2021.175          48.500  
G11  24041272.674       91891.764        2029.327          44.000  
G17  21684722.652     -104583.954       -2304.482          50.500  
G22  23546997.463       36528.658         830.130          47.750  
G28  21268595.734       16347.107         383.175          47.500  
> 2018  4 22 11 21 41.1688020  0  5                     
G 1  23381202.407       92819.728        2020.465          48.750  
G11  24043142.245       92094.657        2028.569          44.250  
G17  21686510.571     -104814.408       -2305.095          50.750  
G22  23548844.958       36611.645         829.755          48.000  
G28  21270433.999       16385.426         383.080          47.750  
> 2018  4 22 11 21 41.2688020  0  5                     
G 1  23383072.635       93021.782        2021.251          48.750  
G11  24045011.799       92297.532        2028.601          44.250  
G17  21688298.417     -105044.869       -2304.634          50.750  
G22  23550692.289       36694.629         829.611          47.750  
G28  21272272.522       16423.737         383.157          47.500  
> 2018  4 22 11 21 41.3688020  0  5                     
G 1  23384942.713       93223.817        2020.424          48.750  
G11  24046881.962       92500.376        2028.690          44.000  
G17  21690086.549     -105275.352       -2304.907          50.500  
G22  23552540.314       36777.575         829.254          48.000  
G28  21274112.687       16462.026         383.056          47.500  
> 2018  4 22 11 21 41.4688020  0  5                     
G 1  23386811.997       93425.823        2020.047          48.750  
G11  24048752.061       92703.208        2029.206          44.250  
G17  21691874.082     -105505.857       -2304.661          50.500  
G22  23554387.858       36860.521         829.722          48.000  
G28  21275950.617       16500.296         382.622          47.500  
> 2018  4 22 11 21 41.5688020  0  5                     
G 1  23388681.689       93627.870        2020.256          48.750  
G11  24050622.285       92906.052        2028.945          44.250  
G17  21693661.973     -105736.342       -2305.209          50.750  
G22  23556234.838       36943.493         829.656          47.750  
G28  21277791.352       16538.596         382.631          47.500  
> 2018  4 22 11 21 41.6688020  0  5                     
G 1  23390552.240       93829.892        2020.352          48.500  
G11  24052492.888       93108.885        2028.045          44.250  
G17  21695449.517     -105966.834       -2305.398          50.500  
G22  23558082.364       37026.452         829.744          47.750  
G28  21279628.928       16576.899         382.918          47.500  
> 2018  4 22 11 21 41.7688020  0  5                     
G 1  23392422.535       94031.918        2020.446          48.500  
G11  24054363.657       93311.735        2028.798          44.250  
G17  21697236.261     -106197.330       -2304.827          50.750  
G22  23559929.960       37109.406         830.184          48.000  
G28  21281467.092       16615.195         383.061          47.500  
> 2018  4 22 11 21 41.8688020  0  5                     
G 1  23394292.781       94233.948        2020.083          48.500  
G11  24056233.529       93514.581        2029.161          44.250  
G17  21699024.079     -106427.815       -2304.504          50.750  
G22  23561777.020       37192.379         829.814          48.000  
G28  21283307.053       16653.507         383.266          47.750  
> 2018  4 22 11 21 41.9688020  0  5                     
G 1  23396162.759       94436.031        2020.949          48.500  
G11  24058103.256       93717.470        2028.715          44.250  
G17  21700811.094     -106658.256       -2304.709          50.500  
G22  23563625.087       37275.396         830.132          47.750  
G28  21285145.291       16691.864         383.527          47.500  
> 2018  4 22 11 21 42.0688020  0  5                     
G 1  23398033.154       94638.124        2021.573          48.500  
G11  24059973.706       93920.502        2076.203          44.500  
G17  21702598.889     -106888.680       -2304.450          50.750  
G22  23565472.771       37358.447         831.049          47.750  
G28  21286985.324       16730.239         383.822          47.750  
> 2018  4 22 11 21 42.1688020  0  5                     
G 1  23399902.919       94840.148        2020.102          48.500  
G11  24061844.313       94123.223        2029.379          44.250  
G17  21704386.690     -107119.157       -2304.862          50.750  
G22  23567319.635       37441.421         829.424          47.750  
G28  21288822.572       16768.562         383.013          47.750  
> 2018  4 22 11 21 42.2688020  0  5                     
G 1  23401772.838       95042.243        2020.580          48.500  
G11  24063713.120       94326.116        2028.515          44.500  
G17  21706174.143     -107349.589       -2304.971          50.500  
G22  23569166.301       37524.472         830.995          47.750  
G28  21290660.389       16806.953         383.380          47.500  
> 2018  4 22 11 21 42.3688020  0  5                     
G 1  23403642.760       95244.313        2020.691          48.750  
G11  24065583.959       94529.009        2029.155          44.500  
G17  21707961.927     -107580.022       -2304.181          50.500  
G22  23571013.662       37607.505         830.431          47.750  
G28  21292501.078       16845.324         384.060          47.750  
> 2018  4 22 11 21 42.4688020  0  5                     
G 1  23405512.884       95446.409        2020.786          48.750  
G11  24067453.760       94731.922        2029.091          44.500  
G17  21709749.312     -107810.436       -2304.167          50.500  
G22  23572861.205       37690.564         830.644          47.750  
G28  21294338.462       16883.732         383.899          47.750  
> 2018  4 22 11 21 42.5688020  0  5                     
G 1  23407382.541       95648.514        2021.488          48.500  
G11  24069323.693       94934.832        2028.999          44.250  
G17  21711536.412     -108040.850       -2303.676          50.500  
G22  23574708.724       37773.627         830.673          47.750  
G28  21296177.845       16922.132         383.943          47.500  
> 2018  4 22 11 21 42.6688020  0  5                     
G 1  23409252.820       95850.602        2021.548          48.750  
G11  24071193.832       95137.754        2030.210          44.750  
G17  21713324.121     -108271.257       -2303.403          50.500  
G22  23576556.419       37856.702         831.362          48.000  
G28  21298016.683       16960.542         385.320          47.750  
> 2018  4 22 11 21 42.7688020  0  5                     
G 1  23411122.581       96052.724        2020.847          48.500  
G11  24073064.672       95340.665        2029.146          44.250  
G17  21715111.500     -108501.662       -2304.125          50.250  
G22  23578403.635       37939.778         830.744          47.500  
G28  21299855.059       16998.971         385.210          47.500  
> 2018  4 22 11 21 42.8688020  0  5                     
G 1  23412993.007       96254.855        2021.229          48.500  
G11  24074935.218       95543.609        2028.656          44.500  
G17  21716900.074     -108732.031       -2304.183          50.500  
G22  23580250.743       38022.901         830.900          47.750  
G28  21301695.261       17037.407         383.593          47.500  
> 2018  4 22 11 21 42.9688020  0  5                     
G 1  23414862.742       96456.999        2021.115          48.750  
G11  24076805.426       95746.546        2028.719          44.500  
G17  21718687.648     -108962.401       -2304.074          50.500  
G22  23582097.452       38106.022         831.384          47.750  
G28  21303532.968       17075.878         384.281          47.750  
> 2018  4 22 11 21 43.0688020  0  5                     
G 1  23416732.615       96659.122        2021.455          48.500  
G11  24078675.029       95949.495        2030.056          44.500  
G17  21720475.376     -109192.784       -2303.657          50.500  
G22  23583944.271       38189.131         831.604          47.750  
G28  21305372.757       17114.335         385.275          47.500  
> 2018  4 22 11 21 43.1688020  0  5                     
G 1  23418602.389       96861.265        2021.533          48.500  
G11  24080544.730       96152.450        2030.344          44.500  
G17  21722263.232     -109423.150       -2303.799          50.500  
G22  23585791.999       38272.265         831.554          48.000  
G28  21307211.588       17152.810         384.824          47.500  
> 2018  4 22 11 21 43.2688020  0  5                     
G 1  23420472.262       97063.356        2020.851          48.750  
G11  24082415.146       96355.366        2029.857          44.500  
G17  21724050.849     -109653.553       -2303.743          50.500  
G22  23587639.082       38355.362         831.733          47.750  
G28  21309050.488       17191.241         384.490          47.750  
> 2018  4 22 11 21 43.3688020  0  5                     
G 1  23422342.111       97265.428        2021.237          48.500  
G11  24084286.019       96558.234        2028.896          44.500  
G17  21725838.763     -109883.985       -2304.182          50.500  
G22  23589486.485       38438.423         830.412          48.000  
G28  21310890.543       17229.663         384.231          47.500  
> 2018  4 22 11 21 43.4688020  0  5                     
G 1  23424211.978       97467.443        2020.505          48.750  
G11  24086156.492       96761.061        2028.431          44.500  
G17  21727626.443     -110114.481       -2305.621          50.500  
G22  23591334.863       38521.436         830.273          47.750  
G28  21312727.713       17268.011         383.058          47.750  
> 2018  4 22 11 21 43.5688020  0  5                     
G 1  23426081.695       97669.378        2019.173          48.750  
G11  24088026.725       96963.800        2026.903          44.500  
G17  21729413.635     -110345.059       -2306.498          50.500  
G22  23593182.468       38604.376         829.082          48.000  
G28  21314568.339       17306.290         382.348          47.500  
> 2018  4 22 11 21 43.6688020  0  5                     
G 1  23427951.457       97871.215        2017.776          48.500  
G11  24089897.520       97166.443        2025.856          44.750  
G17  21731200.817     -110575.722       -2307.420          50.500  
G22  23595028.669       38687.209         827.355          47.750  
G28  21316405.619       17344.485         382.025          47.500  
> 2018  4 22 11 21 43.7688020  0  5                     
G 1  23429821.290       98072.942        2017.599          48.500  
G11  24091766.345       97368.980        2025.282          44.500  
G17  21732988.158     -110806.495       -2308.073          50.500  
G22  23596877.047       38769.960         827.559          47.750  
G28  21318244.616       17382.569         380.269          47.500  
> 2018  4 22 11 21 43.8688020  0  5                     
G 1  23431692.249       98274.634        2017.169          48.500  
G11  24093636.076       97571.481        2024.765          44.750  
G17  21734775.593     -111037.297       -2308.506          50.500  
G22  23598723.482       38852.665         826.534          47.750  
G28  21320084.629       17420.616         380.982          47.500  
> 2018  4 22 11 21 43.9688020  0  5                     
G 1  23433561.719       98476.302        2017.475          48.500  
G11  24095505.537       97773.965        2025.033          44.500  
G17  21736563.139     -111268.129       -2307.774          50.500  
G22  23600570.758       38935.349         827.404          47.750  
G28  21321922.175       17458.663         380.659          47.750  
> 2018  4 22 11 21 44.0688020  0  5                     
G 1  23435431.178       98678.101        2018.550          48.500  
G11  24097375.272       97976.577        2027.354          44.250  
G17  21738350.744     -111498.832       -2306.456          50.250  
G22  23602418.655       39018.174         828.936          48.000  
G28  21323762.027       17496.829         382.238          47.250  
> 2018  4 22 11 21 44.1688020  0  5                     
G 1  23437301.521       98880.013        2019.960          48.250  
G11  24099245.464       98179.283        2027.709          44.750  
G17  21740138.463     -111729.415       -2305.514          50.250  
G22  23604266.048       39101.112         829.972          47.750  
G28  21325600.209       17535.114         383.809          47.500  
> 2018  4 22 11 21 44.2688020  0  5                     
G 1  23439171.292       99082.001        2020.241          48.250  
G11  24101114.820       98382.098        2029.012          44.500  
G17  21741926.174     -111959.921       -2305.120          50.500  
G22  23606113.273       39184.134         830.088          48.000  
G28  21327439.082       17573.479         383.728          47.500  
> 2018  4 22 11 21 44.3688020  0  5                     
G 1  23441040.801       99284.059        2020.295          48.500  
G11  24102984.940       98584.962        2029.083          44.750  
G17  21743714.142     -112190.361       -2304.305          50.250  
G22  23607959.898       39267.231         831.336          47.750  
G28  21329279.060       17611.920         384.488          47.500  
> 2018  4 22 11 21 44.4688020  0  5                     
G 1  23442911.310       99486.099        2020.960          48.250  
G11  24104855.759       98787.801        2028.505          44.750  
G17  21745502.348     -112420.823       -2304.514          50.500  
G22  23609806.371       39350.304         831.123          48.000  
G28  21331116.425       17650.352         384.949          47.750  
> 2018  4 22 11 21 44.5688020  0  5                     
G 1  23444781.188       99688.115        2020.547          48.750  
G11  24106726.080       98990.637        2028.877          44.750  
G17  21747289.986     -112651.302       -2304.855          50.500  
G22  23611653.387       39433.378         831.239          47.750  
G28  21332957.361       17688.757         384.481          47.500  
> 2018  4 22 11 21 44.6688020  0  5                     
G 1  23446651.576       99890.098        2020.271          48.500  
G11  24108596.298       99193.417        2027.872          44.500  
G17  21749077.554     -112881.813       -2305.427          50.250  
G22  23613501.022       39516.400         830.466          48.000  
G28  21334795.411       17727.142         383.720          47.500  
> 2018  4 22 11 21 44.7688020  0  5                     
G 1  23448522.147      100092.053        2019.130          48.500  
G11  24110466.480       99396.168        2027.206          44.750  
G17  21750865.040     -113112.359       -2306.154          50.250  
G22  23615349.240       39599.391         830.017          48.000  
G28  21336634.704       17765.476         383.037          47.500  
> 2018  4 22 11 21 44.8688020  0  5                     
G 1  23450391.947      100293.934        2018.798          48.500  
G11  24112335.773       99598.864        2026.546          44.500  
G17  21752653.289     -113342.962       -2306.239          50.500  
G22  23617197.161       39682.330         829.147          47.750  
G28  21338474.277       17803.764         382.112          47.500  
> 2018  4 22 11 21 44.9688020  0  5                     
G 1  23452262.033      100495.806        2018.036          48.500  
G11  24114205.986       99801.553        2027.266          44.750  
G17  21754440.444     -113573.585       -2306.809          50.500  
G22  23619045.650       39765.270         828.725          48.000  
G28  21340311.367       17842.055         382.725          47.500  
> 2018  4 22 11 21 45.0688020  0  5                     
G 1  23454132.288      100697.642        2018.598          48.500  
G11  24116076.863      100004.188        2026.493          44.750  
G17  21756228.214     -113804.241       -2306.913          50.500  
G22  23620893.140       39848.153         828.236          48.000  
G28  21342151.478       17880.299         382.462          47.500  
> 2018  4 22 11 21 45.1688020  0  5                     
G 1  23456001.829      100899.423        2017.835          48.250  
G11  24117945.955      100206.777        2026.413          44.750  
G17  21758016.233     -114034.950       -2307.538          50.250  
G22  23622739.723       39931.006         828.365          48.000  
G28  21343989.767       17918.500         383.190          47.500  
> 2018  4 22 11 21 45.2688020  0  5                     
G 1  23457871.357      101101.172        2016.988          48.500  
G11  24119816.886      100409.332        2025.036          44.750  
G17  21759803.876     -114265.696       -2307.937          50.250  
G22  23624586.515       40013.825         828.219          48.000  
G28  21345827.577       17956.664         381.181          47.500  
> 2018  4 22 11 21 45.3688020  0  5                     
G 1  23459741.295      101302.928        2018.016          48.250  
G11  24121687.082      100611.888        2025.618          45.000  
G17  21761591.256     -114496.412       -2307.397          50.500  
G22  23626434.205       40096.643         827.831          48.000  
G28  21347667.723       17994.854         382.492          47.500  
> 2018  4 22 11 21 45.4688020  0  5                     
G 1  23461610.521      101504.655        2017.695          48.250  
G11  24123557.219      100814.430        2026.087          44.250  
G17  21763378.806     -114727.180       -2307.957          50.250  
G22  23628282.249       40179.458         828.463          47.500  
G28  21349505.278       18033.007         382.255          47.250  
> 2018  4 22 11 21 45.5688020  0  5                     
G 1  23463480.626      101706.405        2017.123          48.000  
G11  24125427.692      101016.976        2025.225          45.000  
G17  21765166.276     -114957.919       -2307.490          50.500  
G22  23630129.296       40262.283         827.773          47.750  
G28  21351343.694       18071.192         382.031          47.500  
> 2018  4 22 11 21 45.6688020  0  5                     
G 1  23465350.681      101908.141        2017.041          48.500  
G11  24127298.374      101219.509        2025.204          44.750  
G17  21766954.008     -115188.680       -2308.109          50.500  
G22  23631976.552       40345.089         827.921          48.000  
G28  21353182.194       18109.349         381.218          47.750  
> 2018  4 22 11 21 45.7688020  0  5                     
G 1  23467220.496      102109.809        2016.857          48.500  
G11  24129168.896      101421.984        2024.547          45.000  
G17  21768741.387     -115419.495       -2308.058          50.250  
G22  23633823.920       40427.855         827.195          48.000  
G28  21355019.558       18147.465         380.877          47.250  
> 2018  4 22 11 21 45.8688020  0  5                     
G 1  23469090.354      102311.466        2017.319          48.000  
G11  24131039.154      101624.454        2025.568          45.000  
G17  21770529.695     -115650.320       -2308.401          50.250  
G22  23635671.292       40510.605         827.775          48.000  
G28  21356860.497       18185.572         381.357          47.750  
> 2018  4 22 11 21 45.9688020  0  5                     
G 1  23470960.355      102513.181        2017.468          48.250  
G11  24132908.616      101826.966        2025.211          45.000  
G17  21772317.744     -115881.099       -2307.678          50.500  
G22  23637518.254       40593.403         828.454          48.000  
G28  21358698.306       18223.732         381.854          47.500  
> 2018  4 22 11 21 46.0688020  0  5                     
G 1  23472830.857      102714.906        2017.635          48.250  
G11  24134778.837      102029.496        2025.971          44.750  
G17  21774104.920     -116111.847       -2307.348          50.250  
G22  23639366.090       40676.232         828.705          48.000  
G28  21360538.024       18261.905         382.398          47.750  
> 2018  4 22 11 21 46.1688020  0  5                     
G 1  23474700.682      102916.693        2018.067          48.250  
G11  24136649.556      102232.087        2025.647          45.000  
G17  21775892.693     -116342.549       -2306.466          50.500  
G22  23641213.957       40759.113         829.287          48.000  
G28  21362377.681       18300.152         382.945          47.500  
> 2018  4 22 11 21 46.2688020  0  5                     
G 1  23476570.753      103118.554        2019.085          48.250  
G11  24138519.207      102434.764        2028.034          44.750  
G17  21777679.953     -116573.165       -2305.799          50.500  
G22  23643061.100       40842.091         830.967          48.000  
G28  21364216.212       18338.480         384.582          47.500  
> 2018  4 22 11 21 46.3688020  0  5                     
G 1  23478441.052      103320.444        2019.422          47.750  
G11  24140390.498      102637.445        2027.359          44.750  
G17  21779467.841     -116803.752       -2305.521          50.000  
G22  23644908.089       40925.087         829.853          47.750  
G28  21366057.016       18376.829         384.029          47.250  
> 2018  4 22 11 21 46.4688020  0  5                     
G 1  23480310.270      103522.368        2019.396          48.250  
G11  24142260.933      102840.176        2027.255          45.000  
G17  21781255.658     -117034.302       -2305.282          50.250  
G22  23646755.942       41008.142         830.336          48.000  
G28  21367894.268       18415.236         383.946          47.500  
> 2018  4 22 11 21 46.5688020  0  5                     
G 1  23482180.438      103724.340        2019.633          48.250  
G11  24144131.035      103042.959        2027.315          44.750  
G17  21783043.086     -117264.817       -2305.066          50.250  
G22  23648603.351       41091.224         830.883          48.000  
G28  21369732.987       18453.682         384.785          47.250  
> 2018  4 22 11 21 46.6688020  0  5                     
G 1  23484049.313      103926.296        2019.759          48.000  
G11  24146001.205      103245.716        2028.287          45.000  
G17  21784830.906     -117495.340       -2305.345          50.250  
G22  23650450.840       41174.295         830.999          47.750  
G28  21371571.516       18492.108         384.703          47.500  
> 2018  4 22 11 21 46.7688020  0  5                     
G 1  23485919.527      104128.182        2017.822          48.000  
G11  24147871.214      103448.408        2026.518          44.500  
G17  21786618.543     -117725.927       -2306.385          50.000  
G22  23652297.780       41257.320         830.482          47.750  
G28  21373409.798       18530.485         383.359          47.250  
> 2018  4 22 11 21 46.8688020  0  5                     
G 1  23487789.908      104329.953        2017.951          48.000  
G11  24149740.998      103650.970        2024.638          45.000  
G17  21788406.046     -117956.645       -2307.361          50.250  
G22  23654144.731       41340.196         828.538          47.750  
G28  21375250.746       18568.728         382.243          47.500  
> 2018  4 22 11 21 46.9688020  0  5                     
G 1  23489660.658      104531.623        2016.200          48.000  
G11  24151610.643      103853.434        2023.742          45.000  
G17  21790194.001     -118187.461       -2308.855          50.250  
G22  23655992.290       41422.997         827.249          48.000  
G28  21377087.788       18606.896         381.260          47.500  
> 2018  4 22 11 21 47.0688020  0  5                     
G 1  23491530.829      104733.256        2016.764          48.250  
G11  24153480.898      104055.887        2025.411          45.000  
G17  21791981.920     -118418.302       -2307.816          50.500  
G22  23657839.737       41505.767         828.302          48.000  
G28  21378926.885       18645.023         382.019          47.500  
> 2018  4 22 11 21 47.1688020  0  5                     
G 1  23493401.225      104934.920        2017.641          48.250  
G11  24155350.617      104258.342        2024.286          45.250  
G17  21793769.717     -118649.117       -2308.444          50.500  
G22  23659686.744       41588.555         827.612          47.750  
G28  21380766.445       18683.168         381.050          47.250  
> 2018  4 22 11 21 47.2688020  0  5                     
G 1  23495271.137      105136.567        2017.103          48.250  
G11  24157221.478      104460.786        2025.338          45.000  
G17  21795557.154     -118879.943       -2308.279          50.500  
G22  23661534.250       41671.350         828.122          48.000  
G28  21382604.436       18721.327         381.668          47.500  
> 2018  4 22 11 21 47.3688020  0  5                     
G 1  23497141.103      105338.340        2017.811          48.000  
G11  24159090.809      104663.355        2025.458          45.250  
G17  21797345.027     -119110.642       -2307.027          50.250  
G22  23663381.185       41754.274         829.705          48.000  
G28  21384444.264       18759.609         382.560          47.500  
> 2018  4 22 11 21 47.4688020  0  5                     
G 1  23499010.806      105540.140        2018.262          48.000  
G11  24160961.544      104865.956        2026.675          45.000  
G17  21799132.349     -119341.317       -2307.243          50.250  
G22  23665228.246       41837.218         829.090          48.250  
G28  21386281.265       18797.924         383.140          47.500  
> 2018  4 22 11 21 47.5688020  0  5                     
G 1  23500879.993      105742.004        2018.646          48.000  
G11  24162831.217      105068.635        2027.288          45.000  
G17  21800919.534     -119571.919       -2305.909          50.000  
G22  23667076.724       41920.243         829.917          48.000  
G28  21388120.571       18836.306         383.750          47.500  
> 2018  4 22 11 21 47.6688020  0  5                     
G 1  23502749.672      105943.886        2018.766          48.000  
G11  24164701.569      105271.304        2026.302          45.250  
G17  21802707.557     -119802.506       -2305.096          50.250  
G22  23668924.272       42003.275         830.565          48.250  
G28  21389960.318       18874.701         384.338          47.250  
> 2018  4 22 11 21 47.7688020  0  5                     
G 1  23504619.723      106145.856        2020.537          48.000  
G11  24166572.508      105474.077        2028.213          45.000  
G17  21804495.097     -120033.027       -2305.262          50.250  
G22  23670771.878       42086.406         832.127          48.000  
G28  21391798.499       18913.190         385.363          47.500  
> 2018  4 22 11 21 47.8688020  0  5                     
G 1  23506489.822      106347.861        2021.591          48.250  
G11  24168442.151      105676.895        2029.604          45.000  
G17  21806282.982     -120263.482       -2303.931          50.250  
G22  23672618.891       42169.590         833.350          47.750  
G28  21393638.839       18951.733         387.120          47.500  
> 2018  4 22 11 21 47.9688020  0  5                     
G 1  23508360.393      106550.043        2022.278          48.000  
G11  24170313.369      105879.860        2030.318          45.250  
G17  21808070.994     -120493.773       -2302.938          50.250  
G22  23674466.231       42252.928         833.505          48.000  
G28  21395477.639       18990.443         387.237          47.500  
> 2018  4 22 11 21 48.0688020  0  5                     
G 1  23510231.279      106752.253        2022.489          48.000  
G11  24172184.292      106082.880        2030.775          45.000  
G17  21809858.494     -120724.026       -2302.958          50.250  
G22  23676313.206       42336.149         797.546          48.000  
G28  21397317.579       19029.184         386.901          47.500  
> 2018  4 22 11 21 48.1688020  0  5                     
G 1  23512100.578      106954.392        2021.284          48.000  
G11  24174054.353      106285.802        2028.867          45.000  
G17  21811646.398     -120954.350       -2303.820          50.250  
G22  23678160.498       42419.630         832.392          48.000  
G28  21399156.048       19067.871         387.033          47.500  
> 2018  4 22 11 21 48.2688020  0  5                     
G 1  23513970.764      107156.436        2020.518          48.250  
G11  24175923.857      106488.667        2029.281          45.500  
G17  21813434.810     -121184.786       -2304.950          50.250  
G22  23680007.797       42502.857         832.373          48.000  
G28  21400994.377       19106.460         384.999          47.500  
> 2018  4 22 11 21 48.3688020  0  5                     
G 1  23515841.079      107358.394        2020.069          48.500  
G11  24177794.650      106691.412        2027.225          45.500  
G17  21815222.508     -121415.297       -2305.643          50.250  
G22  23681855.307       42585.987         830.546          48.000  
G28  21402835.012       19144.966         384.926          47.500  
> 2018  4 22 11 21 48.4688020  0  5                     
G 1  23517711.775      107560.275        2019.098          48.250  
G11  24179664.645      106894.087        2027.706          45.500  
G17  21817010.117     -121645.884       -2306.110          50.500  
G22  23683703.241       42669.065         831.044          48.000  
G28  21404672.391       19183.403         384.464          47.500  
> 2018  4 22 11 21 48.5688020  0  5                     
G 1  23519581.197      107762.155        2018.720          48.000  
G11  24181534.876      107096.766        2026.240          45.500  
G17  21818797.469     -121876.464       -2306.212          50.500  
G22  23685550.517       42752.139         830.799          48.000  
G28  21406510.937       19221.848         384.670          47.500  
> 2018  4 22 11 21 48.6688020  0  5                     
G 1  23521451.068      107963.966        2018.002          48.250  
G11  24183404.888      107299.375        2025.904          45.500  
G17  21820585.318     -122107.105       -2306.133          50.250  
G22  23687398.663       42835.135         830.537          48.000  
G28  21408350.204       19260.215         384.188          47.250  
> 2018  4 22 11 21 48.7688020  0  5                     
G 1  23523320.321      108165.760        2018.045          48.250  
G11  24185275.359      107501.969        2025.815          45.750  
G17  21822373.261     -122337.777       -2306.927          50.250  
G22  23689245.019       42918.140         829.712          48.000  
G28  21410188.361       19298.581         383.825          47.250  
> 2018  4 22 11 21 48.8688020  0  5                     
G 1  23525190.259      108367.525        2017.905          48.250  
G11  24187144.851      107704.532        2026.021          45.250  
G17  21824160.379     -122568.481       -2307.089          50.500  
G22  23691092.646       43001.101         829.633          48.250  
G28  21412029.034       19336.909         383.564          47.750  
> 2018  4 22 11 21 48.9688020  0  5                     
G 1  23527060.750      108569.313        2018.253          48.250  
G11  24189014.464      107907.099        2025.887          45.250  
G17  21825948.335     -122799.167       -2307.297          50.500  
G22  23692939.293       43084.085         829.470          48.250  
G28  21413866.644       19375.253         383.155          47.500  
> 2018  4 22 11 21 49.0688020  0  5                     
G 1  23528930.301      108771.044        2017.907          48.250  
G11  24190884.510      108109.641        2026.084          45.250  
G17  21827735.734     -123029.885       -2307.121          50.500  
G22  23694786.467       43167.036         829.661          48.250  
G28  21415706.297       19413.579         383.223          47.500  
> 2018  4 22 11 21 49.1688020  0  5                     
G 1  23530800.733      108972.833        2018.146          48.000  
G11  24192753.886      108312.210        2025.492          45.250  
G17  21829523.650     -123260.563       -2307.066          50.250  
G22  23696633.565       43250.037         830.116          47.750  
G28  21417544.942       19451.951         383.483          47.250  
> 2018  4 22 11 21 49.2688020  0  5                     
G 1  23532670.365      109174.604        2016.983          48.000  
G11  24194623.639      108514.781        2025.916          45.250  
G17  21831311.294     -123491.247       -2307.581          50.500  
G22  23698481.143       43333.026         829.489          48.000  
G28  21419383.071       19490.303         383.078          47.500  
> 2018  4 22 11 21 49.3688020  0  5                     
G 1  23534540.516      109376.384        2018.655          48.250  
G11  24196493.468      108717.354        2025.303          45.250  
G17  21833098.823     -123721.929       -2306.528          50.500  
G22  23700329.207       43416.026         830.246          48.000  
G28  21421223.586       19528.679         383.584          47.250  
> 2018  4 22 11 21 49.4688020  0  5                     
G 1  23536409.804      109578.244        2019.384          48.250  
G11  24198363.882      108920.011        2028.395          45.250  
G17  21834886.708     -123952.529       -2305.164          50.500  
G22  23702176.111       43499.115         831.844          48.000  
G28  21423060.708       19567.136         385.827          47.500  
> 2018  4 22 11 21 49.5688020  0  5                     
G 1  23538280.346      109780.353        2021.756          48.000  
G11  24200234.250      109122.917        2029.656          45.000  
G17  21836674.096     -124182.878       -2302.546          50.000  
G22  23704023.445       43582.452         834.948          48.000  
G28  21424899.774       19605.836         387.131          47.000  
> 2018  4 22 11 21 49.6688020  0  5                     
G 1  23540149.944      109982.606        2023.674          48.000  
G11  24202104.227      109325.960        2030.406          45.000  
G17  21838462.244     -124413.072       -2301.359          50.250  
G22  23705870.674       43665.930         835.843          48.000  
G28  21426738.215       19644.700         389.518          47.250  
> 2018  4 22 11 21 49.7688020  0  5                     
G 1  23542020.423      110184.955        2023.590          48.250  
G11  24203974.811      109529.099        2031.496          45.250  
G17  21840249.914     -124643.191       -2302.006          50.250  
G22  23707718.188       43749.511         835.655          48.250  
G28  21428577.047       19683.651         388.624          47.500  
> 2018  4 22 11 21 49.8688020  0  5                     
G 1  23543890.527      110387.109        2020.401          48.000  
G11  24205844.910      109732.048        2027.744          45.000  
G17  21842037.761     -124873.492       -2304.225          50.000  
G22  23709565.726       43832.920         832.778          47.750  
G28  21430417.589       19722.427         387.013          47.500  
> 2018  4 22 11 21 49.9688020  0  5                     
G 1  23545760.567      110589.092        2019.581          48.000  
G11  24207714.406      109934.840        2026.671          45.000  
G17  21843825.673     -125103.949       -2304.925          50.500  
G22  23711413.270       43916.146         831.975          48.250  
G28  21432254.493       19761.036         385.711          47.500  
> 2018  4 22 11 21 50.0688020  0  5                     
G 1  23547630.919      110790.981        2019.447          48.250  
G11  24209584.381      110137.520        2027.276          45.250  
G17  21845613.297     -125334.524       -2305.644          50.500  
G22  23713260.818       43999.279         831.566          48.250  
G28  21434094.192       19799.532         385.274          47.500  
> 2018  4 22 11 21 50.1688020  0  5                     
G 1  23549500.811      110993.011        2021.971          48.250  
G11  24211454.435      110340.341        2029.842          45.000  
G17  21847401.604     -125564.942       -2302.180          50.250  
G22  23715108.998       44082.554         833.952          48.250  
G28  21435933.558       19838.196         388.483          47.500  
> 2018  4 22 11 21 50.2688020  0  5                     
G 1  23551371.548      111195.331        2023.795          48.000  
G11  24213325.026      110543.452        2031.983          45.250  
G17  21849189.375     -125795.084       -2300.795          50.250  
G22  23716955.716       44166.128         836.263          48.000  
G28  21437771.643       19877.143         390.604          47.500  
> 2018  4 22 11 21 50.3688020  0  5                     
G 1  23553241.976      111397.663        2023.376          48.250  
G11  24215195.737      110746.582        2032.078          45.000  
G17  21850977.170     -126025.207       -2301.315          50.250  
G22  23718802.878       44249.719         835.879          48.000  
G28  21439612.698       19916.104         390.312          47.500  
> 2018  4 22 11 21 50.4688020  0  5                     
G 1  23555111.855      111599.978        2022.708          48.250  
G11  24217065.953      110949.687        2031.089          45.000  
G17  21852764.836     -126255.333       -2301.697          50.500  
G22  23720650.135       44333.302         835.938          48.250  
G28  21441449.332       19955.067         389.681          47.500  
> 2018  4 22 11 21 50.5688020  0  5                     
G 1  23556981.430      111802.229        2023.319          48.000  
G11  24218936.341      111152.727        2030.845          45.000  
G17  21854551.944     -126485.525       -2301.372          50.500  
G22  23722497.777       44416.811         836.004          48.250  
G28  21443288.349       19993.955         389.951          47.500  
> 2018  4 22 11 21 50.6688020  0  5                     
G 1  23558852.184      112004.548        2022.890          48.250  
G11  24220806.323      111355.839        2031.397          45.000  
G17  21856340.411     -126715.665       -2301.586          50.250  
G22  23724345.482       44500.400         836.150          48.250  
G28  21445127.436       20032.910         389.408          47.250  
> 2018  4 22 11 21 50.7688020  0  5                     
G 1  23560722.178      112206.847        2022.874          48.250  
G11  24222676.589      111558.929        2031.359          45.250  
G17  21858128.146     -126945.813       -2301.926          50.500  
G22  23726193.492       44583.979         836.020          48.250  
G28  21446965.710       20071.872         389.316          47.500  
> 2018  4 22 11 21 50.8688020  0  5                     
G 1  23562591.722      112409.097        2022.149          48.250  
G11  24224546.524      111761.981        2030.495          45.000  
G17  21859915.509     -127176.007       -2302.640          50.500  
G22  23728041.242       44667.499         834.597          48.500  
G28  21448806.895       20110.766         388.947          47.500  
> 2018  4 22 11 21 50.9688020  0  5                     
G 1  23564461.842      112611.182        2020.173          48.000  
G11  24226417.259      111964.842        2027.853          44.250  
G17  21861703.322     -127406.375       -2304.276          49.750  
G22  23729888.581       44750.857         832.622          48.000  
G28  21450644.138       20149.505         386.784          47.000  
> 2018  4 22 11 21 51.0688020  0  5                     
G 1  23566331.671      112813.082        2018.999          47.750  
G11  24228286.221      112167.535        2025.865          44.750  
G17  21863490.696     -127636.920       -2306.273          50.000  
G22  23731735.099       44834.040         830.942          48.000  
G28  21452484.138       20188.064         384.793          47.250  
> 2018  4 22 11 21 51.1688020  0  5                     
G 1  23568201.753      113014.905        2018.348          48.000  
G11  24230156.519      112370.152        2026.624          45.000  
G17  21865278.056     -127867.543       -2305.767          50.250  
G22  23733582.255       44917.162         831.760          48.250  
G28  21454323.371       20226.555         385.787          47.250  
> 2018  4 22 11 21 51.2688020  0  5                     
G 1  23570071.229      113216.742        2018.706          48.250  
G11  24232026.459      112572.769        2026.266          45.000  
G17  21867066.365     -128098.155       -2306.045          50.250  
G22  23735430.378       45000.277         831.644          48.500  
G28  21456161.945       20265.058         384.484          47.500  
> 2018  4 22 11 21 51.3688020  0  5                     
G 1  23571942.178      113418.581        2017.990          48.000  
G11  24233896.956      112775.418        2026.481          44.750  
G17  21868854.122     -128328.748       -2305.582          50.250  
G22  23737277.798       45083.427         832.085          48.250  
G28  21458002.889       20303.592         385.096          47.250  
> 2018  4 22 11 21 51.4688020  0  5                     
G 1  23573811.384      113620.413        2018.669          48.250  
G11  24235767.114      112978.034        2026.193          45.250  
G17  21870641.979     -128559.372       -2305.865          50.500  
G22  23739125.413       45166.559         832.064          48.250  
G28  21459840.002       20342.091         385.196          47.500  
> 2018  4 22 11 21 51.5688020  0  5                     
G 1  23575681.843      113822.272        2018.750          48.250  
G11  24237637.417      113180.673        2027.774          45.000  
G17  21872429.585     -128789.948       -2305.534          50.500  
G22  23740973.732       45249.714         831.487          48.500  
G28  21461679.961       20380.640         386.323          47.500  
> 2018  4 22 11 21 51.6688020  0  5                     
G 1  23577551.840      114024.065        2018.153          48.250  
G11  24239507.121      113383.265        2025.634          45.000  
G17  21874217.336     -129020.597       -2306.457          50.500  
G22  23742821.521       45332.824         831.211          48.500  
G28  21463518.059       20419.120         384.553          47.500  
> 2018  4 22 11 21 51.7688020  0  5                     
G 1  23579422.016      114225.817        2016.842          48.250  
G11  24241377.879      113585.800        2024.298          45.000  
G17  21876004.647     -129251.292       -2306.915          50.250  
G22  23744668.629       45415.874         830.207          48.250  
G28  21465355.935       20457.563         384.987          47.500  
> 2018  4 22 11 21 51.8688020  0  5                     
G 1  23581291.252      114427.514        2017.122          48.250  
G11  24243247.074      113788.295        2024.719          44.750  
G17  21877792.089     -129482.027       -2307.738          50.500  
G22  23746515.034       45498.888         830.281          48.250  
G28  21467196.730       20495.965         384.277          47.500  
> 2018  4 22 11 21 51.9688020  0  5                     
G 1  23583162.082      114629.246        2018.000          48.000  
G11  24245116.381      113990.823        2025.673          44.750  
G17  21879580.109     -129712.739       -2307.232          50.250  
G22  23748362.244       45581.938         830.542          48.000  
G28  21469034.618       20534.385         384.185          47.250  
> 2018  4 22 11 21 52.0688020  0  5                     
G 1  23585031.949      114830.999        2018.094          48.000  
G11  24246987.101      114193.348        2025.534          44.750  
G17  21881367.451     -129943.433       -2306.759          50.500  
G22  23750209.992       45664.995         831.214          48.250  
G28  21470874.876       20572.828         384.544          47.250  
> 2018  4 22 11 21 52.1688020  0  5                     
G 1  23586902.074      115032.835        2018.334          48.250  
G11  24248857.106      114395.982        2026.550          44.750  
G17  21883155.367     -130174.029       -2305.957          50.500  
G22  23752057.622       45748.166         831.702          48.250  
G28  21472712.332       20611.381         385.606          47.250  
> 2018  4 22 11 21 52.2688020  0  5                     
G 1  23588771.331      115234.678        2018.844          48.250  
G11  24250727.725      114598.608        2027.135          44.750  
G17  21884943.285     -130404.627       -2306.425          50.500  
G22  23753904.822       45831.341         832.067          48.250  
G28  21474550.732       20649.948         385.948          47.500  
> 2018  4 22 11 21 52.3688020  0  5                     
G 1  23590641.269      115436.686        2022.381          48.000  
G11  24252597.967      114801.406        2029.947          44.500  
G17  21886731.854     -130635.059       -2302.240          50.000  
G22  23755752.425       45914.684         835.737          48.250  
G28  21476391.338       20688.667         389.747          47.250  
> 2018  4 22 11 21 52.4688020  0  5                     
G 1  23592510.599      115639.107        2024.941          47.750  
G11  24254468.525      115004.610        2032.842          44.750  
G17  21888519.629     -130865.076       -2299.654          50.250  
G22  23757599.287       45998.434         838.639          48.000  
G28  21478228.061       20727.800         391.524          47.250  
> 2018  4 22 11 21 52.5688020  0  5                     
G 1  23594381.000      115841.475        2022.548          48.250  
G11  24256338.467      115207.769        2031.326          44.750  
G17  21890306.713     -131095.142       -2302.267          50.500  
G22  23759446.250       46082.149         836.737          48.500  
G28  21480068.404       20766.903         390.092          47.500  
> 2018  4 22 11 21 52.6688020  0  5                     
G 1  23596251.191      116043.536        2019.711          48.000  
G11  24258208.912      115410.615        2027.156          44.750  
G17  21892094.560     -131325.504       -2304.904          50.250  
G22  23761294.597       46165.545         832.798          48.250  
G28  21481907.309       20805.695         387.480          47.250  
> 2018  4 22 11 21 52.7688020  0  5                     
G 1  23598121.554      116245.419        2018.462          48.000  
G11  24260079.009      115613.278        2026.041          44.750  
G17  21893882.426     -131556.051       -2306.313          50.250  
G22  23763141.965       46248.784         831.477          48.000  
G28  21483745.719       20844.309         385.748          47.250  
> 2018  4 22 11 21 52.8688020  0  5                     
G 1  23599992.082      116447.159        2017.520          48.000  
G11  24261948.634      115815.807        2024.827          45.000  
G17  21895669.651     -131786.755       -2307.506          50.500  
G22  23764989.759       46331.863         830.403          48.250  
G28  21485586.019       20882.771         384.066          47.500  
> 2018  4 22 11 21 52.9688020  0  5                     
G 1  23601862.367      116648.817        2015.769          48.000  
G11  24263819.389      116018.252        2023.645          44.750  
G17  21897457.691     -132017.530       -2308.313          50.500  
G22  23766837.795       46414.884         829.857          48.250  
G28  21487423.507       20921.180         383.794          47.500  
> 2018  4 22 11 21 53.0688020  0  5                     
G 1  23603731.710      116850.449        2017.091          48.250  
G11  24265689.062      116220.685        2025.278          44.750  
G17  21899245.026     -132248.322       -2307.363          50.500  
G22  23768684.879       46497.879         830.661          48.250  
G28  21489263.601       20959.566         384.398          47.500  
> 2018  4 22 11 21 53.1688020  0  5                     
G 1  23605601.855      117052.144        2016.203          48.250  
G11  24267559.463      116423.149        2023.811          44.750  
G17  21901032.584     -132479.061       -2307.843          50.500  
G22  23770532.253       46580.933         830.494          48.250  
G28  21491101.731       20998.000         384.753          47.500  
> 2018  4 22 11 21 53.2688020  0  5                     
G 1  23607472.697      117253.866        2017.190          48.250  
G11  24269430.346      116625.666        2025.098          45.000  
G17  21902820.656     -132709.759       -2306.616          50.500  
G22  23772379.369       46664.031         830.700          48.500  
G28  21492940.093       21036.485         385.025          47.500  
> 2018  4 22 11 21 53.3688020  0  5                     
G 1  23609342.358      117455.625        2017.156          48.250  
G11  24271300.772      116828.206        2025.865          45.000  
G17  21904608.342     -132940.434       -2306.983          50.500  
G22  23774226.767       46747.149         831.280          48.500  
G28  21494781.079       21075.000         385.042          47.500  
> 2018  4 22 11 21 53.4688020  0  5                     
G 1  23611212.170      117657.401        2018.401          48.500  
G11  24273170.155      117030.776        2026.452          45.000  
G17  21906396.494     -133171.081       -2306.333          50.500  
G22  23776073.696       46830.305         831.833          48.500  
G28  21496619.042       21113.548         386.493          47.750  
> 2018  4 22 11 21 53.5688020  0  5                     
G 1  23613081.847      117859.162        2017.797          48.250  
G11  24275040.699      117233.322        2025.456          45.000  
G17  21908184.087     -133401.750       -2307.160          50.500  
G22  23777920.453       46913.440         830.992          48.500  
G28  21498458.145       21152.057         385.063          47.500  
> 2018  4 22 11 21 53.6688020  0  5                     
G 1  23614951.977      118060.850        2016.636          48.250  
G11  24276910.748      117435.804        2024.712          44.750  
G17  21909971.514     -133632.487       -2307.740          50.500  
G22  23779767.797       46996.507         830.645          48.500  
G28  21500296.605       21190.528         384.497          47.750  
> 2018  4 22 11 21 53.7688020  0  5                     
G 1  23616822.168      118262.484        2015.934          48.250  
G11  24278780.506      117638.232        2023.926          44.750  
G17  21911758.897     -133863.271       -2308.711          50.500  
G22  23781616.100       47079.529         829.698          48.500  
G28  21502135.576       21228.939         383.580          47.500  
> 2018  4 22 11 21 53.8688020  0  5                     
G 1  23618691.590      118464.035        2014.740          48.250  
G11  24280651.716      117840.549        2021.898          45.000  
G17  21913546.517     -134094.155       -2310.040          50.500  
G22  23783463.506       47162.470         828.582          48.500  
G28  21503975.247       21267.261         382.991          47.500  
> 2018  4 22 11 21 53.9688020  0  5                     
G 1  23620560.589      118665.479        2013.595          48.250  
G11  24282520.409      118042.790        2022.420          44.500  
G17  21915333.856     -134325.131       -2309.957          50.500  
G22  23785309.802       47245.297         827.870          48.250  
G28  21505812.660       21305.485         381.514          47.500  
> 2018  4 22 11 21 54.0688020  0  5                     
G 1  23622430.846      118866.862        2015.030          48.000  
G11  24284390.641      118244.945        2022.328          44.500  
G17  21917121.141     -134556.176       -2310.346          50.500  
G22  23787157.213       47328.110         831.910          48.500  
G28  21507653.276       21343.662         382.430          47.500  
> 2018  4 22 11 21 54.1688020  0  5                     
G 1  23624301.039      119068.230        2014.160          48.000  
G11  24286260.316      118447.102        2021.463          44.500  
G17  21918908.544     -134787.226       -2310.252          50.500  
G22  23789004.958       47410.846         828.417          48.250  
G28  21509491.021       21381.817         382.614          47.500  
> 2018  4 22 11 21 54.2688020  0  5                     
G 1  23626170.796      119269.653        2014.617          48.000  
G11  24288129.788      118649.315        2022.364          45.000  
G17  21920696.174     -135018.221       -2309.736          50.500  
G22  23790852.591       47493.677         828.277          48.500  
G28  21511329.274       21420.041         381.889          47.500  
> 2018  4 22 11 21 54.3688020  0  5                     
G 1  23628040.651      119471.166        2016.359          48.250  
G11  24289999.669      118851.595        2024.560          45.000  
G17  21922483.645     -135249.128       -2308.171          50.500  
G22  23792700.229       47576.601         830.474          48.500  
G28  21513169.445       21458.361         384.631          47.500  
> 2018  4 22 11 21 54.4688020  0  5                     
G 1  23629910.297      119672.815        2016.748          48.250  
G11  24291870.449      119054.036        2024.712          44.750  
G17  21924271.453     -135479.892       -2307.180          50.500  
G22  23794547.732       47659.657         831.424          48.250  
G28  21515006.914       21496.815         384.989          47.500  
> 2018  4 22 11 21 54.5688020  0  5                     
G 1  23631780.769      119874.512        2017.670          48.250  
G11  24293741.943      119256.525        2025.902          45.000  
G17  21926059.170     -135710.621       -2307.276          50.500  
G22  23796395.538       47742.775         831.770          48.750  
G28  21516846.741       21535.325         385.336          47.750  
> 2018  4 22 11 21 54.6688020  0  5                     
G 1  23633650.303      120076.258        2017.985          48.250  
G11  24295612.660      119459.047        2026.487          44.750  
G17  21927847.841     -135941.292       -2306.021          50.500  
G22  23798242.894       47825.937         832.415          48.500  
G28  21518685.002       21573.874         386.427          47.500  
> 2018  4 22 11 21 54.7688020  0  5                     
G 1  23635520.119      120278.040        2018.559          48.250  
G11  24297482.858      119661.601        2025.041          44.500  
G17  21929635.954     -136171.927       -2306.505          50.500  
G22  23800090.323       47909.132         832.218          48.500  
G28  21520523.712       21612.477         386.100          47.500  
> 2018  4 22 11 21 54.8688020  0  5                     
G 1  23637390.235      120479.783        2018.397          48.250  
G11  24299353.054      119864.127        2025.587          45.000  
G17  21931423.754     -136402.609       -2307.259          50.500  
G22  23801936.828       47992.303         832.442          48.250  
G28  21522363.970       21651.036         385.642          47.500  
> 2018  4 22 11 21 54.9688020  0  5                     
G 1  23639261.433      120681.497        2016.828          48.500  
G11  24301223.149      120066.619        2023.774          44.750  
G17  21933211.419     -136633.304       -2307.786          50.500  
G22  23803784.109       48075.443         830.624          48.500  
G28  21524201.967       21689.570         384.714          47.250  
> 2018  4 22 11 21 55.0688020  0  5                     
G 1  23641131.003      120883.121        2016.231          48.250  
G11  24303093.118      120269.027        2023.556          45.000  
G17  21934998.708     -136864.097       -2308.709          50.500  
G22  23805631.634       48158.508         830.295          48.500  
G28  21526041.660       21728.022         384.670          47.500  
> 2018  4 22 11 21 55.1688020  0  5                     
G 1  23643001.200      121084.624        2014.644          48.250  
G11  24304963.106      120471.313        2022.669          45.000  
G17  21936785.779     -137094.998       -2309.591          50.500  
G22  23807478.930       48241.451         828.751          48.500  
G28  21527879.647       21766.365         383.165          47.750  
> 2018  4 22 11 21 55.2688020  0  5                     
G 1  23644871.587      121286.054        2014.208          48.250  
G11  24306832.881      120673.536        2021.441          44.750  
G17  21938573.587     -137325.982       -2310.255          50.250  
G22  23809326.286       48324.325         828.522          48.250  
G28  21529718.694       21804.639         382.297          47.250  
> 2018  4 22 11 21 55.3688020  0  5                     
G 1  23646741.654      121487.497        2014.531          47.750  
G11  24308702.149      120875.749        2022.268          44.750  
G17  21940361.067     -137556.953       -2309.647          50.500  
G22  23811174.148       48407.210         829.235          48.500  
G28  21531558.425       21842.921         382.794          47.500  
> 2018  4 22 11 21 55.4688020  0  5                     
G 1  23648610.943      121689.007        2015.745          48.250  
G11  24310572.025      121078.035        2022.277          44.750  
G17  21942148.739     -137787.860       -2308.959          50.500  
G22  23813020.946       48490.165         829.002          48.500  
G28  21533395.289       21881.272         383.408          47.750  
> 2018  4 22 11 21 55.5688020  0  5                     
G 1  23650480.371      121890.515        2015.670          48.000  
G11  24312441.427      121280.319        2022.677          44.750  
G17  21943936.442     -138018.763       -2309.222          50.500  
G22  23814867.444       48573.123         829.788          48.500  
G28  21535235.888       21919.636         383.856          47.500  
> 2018  4 22 11 21 55.6688020  0  5                     
G 1  23652350.201      122092.114        2016.678          48.250  
G11  24314311.661      121482.700        2023.498          45.000  
G17  21945723.741     -138249.566       -2307.879          50.750  
G22  23816714.913       48656.183         831.327          48.750  
G28  21537074.247       21958.092         385.820          47.500  
> 2018  4 22 11 21 55.7688020  0  5                     
G 1  23654220.256      122293.778        2016.584          48.250  
G11  24316182.576      121685.154        2023.934          44.750  
G17  21947511.422     -138480.318       -2308.301          50.750  
G22  23818562.689       48739.300         830.632          48.500  
G28  21538912.752       21996.614         384.697          47.500  
> 2018  4 22 11 21 55.8688020  0  5                     
G 1  23656090.597      122495.404        2016.901          48.250  
G11  24318052.995      121887.567        2024.254          44.750  
G17  21949298.811     -138711.099       -2308.110          50.250  
G22  23820410.224       48822.396         831.312          48.500  
G28  21540752.860       22035.096         384.845          47.250  
> 2018  4 22 11 21 55.9688020  0  5                     
G 1  23657960.610      122697.063        2017.068          48.000  
G11  24319923.741      122090.003        2024.995          44.750  
G17  21951087.045     -138941.849       -2307.457          50.500  
G22  23822258.142       48905.523         831.281          48.500  
G28  21542590.064       22073.628         385.240          47.500  
> 2018  4 22 11 21 56.0688020  0  5                     
G 1  23659830.306      122898.670        2016.100          48.250  
G11  24321793.017      122292.390        2024.254          44.750  
G17  21952874.562     -139172.640       -2308.291          50.750  
G22  23824105.654       48988.605         830.990          48.500  
G28  21544430.543       22112.117         385.201          47.500  
> 2018  4 22 11 21 56.1688020  0  5                     
G 1  23661699.877      123100.232        2016.335          48.250  
G11  24323662.582      122494.727        2023.215          45.250  
G17  21954662.084     -139403.485       -2308.565          50.500  
G22  23825952.279       49071.647         830.327          48.750  
G28  21546269.745       22150.546         384.192          47.500  
> 2018  4 22 11 21 56.2688020  0  5                     
G 1  23663569.489      123301.780        2015.771          48.250  
G11  24325533.091      122697.049        2022.879          44.750  
G17  21956450.121     -139634.353       -2309.085          50.750  
G22  23827799.596       49154.655         830.614          48.500  
G28  21548108.551       22188.966         383.626          47.500  
> 2018  4 22 11 21 56.3688020  0  5                     
G 1  23665439.193      123503.253        2015.590          48.000  
G11  24327402.691      122899.302        2023.235          44.750  
G17  21958237.329     -139865.288       -2309.365          50.500  
G22  23829646.521       49237.610         829.290          48.250  
G28  21549948.321       22227.322         383.217          47.500  
> 2018  4 22 11 21 56.4688020  0  5                     
G 1  23667308.542      123704.710        2013.359          48.250  
G11  24329272.957      123101.552        2021.769          45.000  
G17  21960025.556     -140096.217       -2309.957          50.750  
G22  23831494.718       49320.567         829.662          48.500  
G28  21551785.613       22265.693         382.885          47.750  
> 2018  4 22 11 21 56.5688020  0  5                     
G 1  23669178.512      123906.077        2014.268          48.000  
G11  24331143.447      123303.692        2021.357          44.750  
G17  21961813.456     -140327.253       -2310.254          50.750  
G22  23833342.000       49403.418         829.379          48.500  
G28  21553624.973       22303.946         383.254          47.250  
> 2018  4 22 11 21 56.6688020  0  5                     
G 1  23671048.716      124107.397        2013.568          48.000  
G11  24333012.602      123505.776        2020.032          44.750  
G17  21963601.371     -140558.343       -2310.904          50.750  
G22  23835190.135       49486.230         827.868          48.500  
G28  21555462.666       22342.154         382.607          47.500  
> 2018  4 22 11 21 56.7688020  0  5                     
G 1  23672918.830      124308.657        2012.438          48.250  
G11  24334881.981      123707.821        2019.766          44.750  
G17  21965389.162     -140789.480       -2311.415          50.750  
G22  23837037.793       49568.984         826.837          48.500  
G28  21557301.439       22380.315         381.420          47.750  
> 2018  4 22 11 21 56.8688020  0  5                     
G 1  23674789.099      124509.844        2010.870          48.250  
G11  24336751.769      123909.771        2018.641          44.500  
G17  21967176.833     -141020.699       -2313.152          51.000  
G22  23838884.970       49651.675         826.008          48.750  
G28  21559141.488       22418.403         380.443          47.500  
> 2018  4 22 11 21 56.9688020  0  5                     
G 1  23676659.231      124710.976        2011.237          48.250  
G11  24338622.647      124111.699        2019.247          44.750  
G17  21968963.900     -141251.958       -2311.848          50.750  
G22  23840731.401       49734.310         827.206          48.750  
G28  21560979.027       22456.449         379.867          47.750  
> 2018  4 22 11 21 57.0688020  0  5                     
G 1  23678529.751      124912.097        2012.169          48.250  
G11  24340492.507      124313.581        2019.176          44.750  
G17  21970751.566     -141483.255       -2313.211          50.750  
G22  23842579.161       49816.927         826.430          48.750  
G28  21562819.194       22494.467         380.438          47.750  
> 2018  4 22 11 21 57.1688020  0  5                     
G 1  23680399.858      125113.115        2009.165          48.000  
G11  24342362.741      124515.403        2017.802          44.750  
G17  21972538.897     -141714.622       -2314.131          50.750  
G22  23844426.373       49899.467         825.061          48.500  
G28  21564657.588       22532.412         379.500          47.500  
> 2018  4 22 11 21 57.2688020  0  5                     
G 1  23682269.985      125314.128        2009.880          48.250  
G11  24344232.576      124717.165        2016.504          44.250  
G17  21974327.086     -141946.012       -2314.528          50.500  
G22  23846274.309       49981.994         824.340          48.500  
G28  21566495.952       22570.341         378.548          47.500  
> 2018  4 22 11 21 57.3688020  0  5                     
G 1  23684139.492      125515.105        2009.259          48.000  
G11  24346102.373      124918.931        2018.101          44.500  
G17  21976114.416     -142177.425       -2314.227          50.750  
G22  23848121.380       50064.491         824.857          48.750  
G28  21568335.901       22608.258         378.498          47.750  
> 2018  4 22 11 21 57.4688020  0  5                     
G 1  23686009.019      125716.031        2009.226          48.250  
G11  24347971.957      125120.628        2017.683          44.250  
G17  21977902.514     -142408.899       -2314.927          50.750  
G22  23849969.041       50146.935         823.955          48.750  
G28  21570172.798       22646.114         378.307          47.750  
> 2018  4 22 11 21 57.5688020  0  5                     
G 1  23687879.087      125916.958        2009.311          48.500  
G11  24349841.922      125322.321        2017.205          44.500  
G17  21979690.112     -142640.378       -2315.432          50.750  
G22  23851815.963       50229.392         824.685          48.750  
G28  21572012.514       22683.955         378.449          47.500  
> 2018  4 22 11 21 57.6688020  0  5                     
G 1  23689748.409      126117.863        2008.938          48.250  
G11  24351712.465      125524.006        2016.516          44.250  
G17  21981477.613     -142871.858       -2315.217          50.750  
G22  23853663.498       50311.827         824.323          48.500  
G28  21573851.241       22721.803         378.764          47.250  
> 2018  4 22 11 21 57.7688020  0  5                     
G 1  23691618.361      126318.790        2009.374          47.750  
G11  24353583.773      125725.720        2016.666          44.250  
G17  21983265.654     -143103.311       -2314.786          50.500  
G22  23855510.521       50394.301         824.824          48.250  
G28  21575690.372       22759.685         378.496          47.250  
> 2018  4 22 11 21 57.8688020  0  5                     
G 1  23693488.083      126519.735        2010.292          48.000  
G11  24355452.647      125927.433        2017.270          44.500  
G17  21985053.452     -143334.764       -2313.907          50.750  
G22  23857357.793       50476.767         825.657          48.500  
G28  21577530.496       22797.572         379.957          47.500  
> 2018  4 22 11 21 57.9688020  0  5                     
G 1  23695358.066      126720.690        2010.426          48.250  
G11  24357323.467      126129.153        2017.417          44.750  
G17  21986841.583     -143566.203       -2314.062          51.000  
G22  23859205.155       50559.262         825.064          48.500  
G28  21579366.924       22835.484         379.600          47.750  
> 2018  4 22 11 21 58.0688020  0  5                     
G 1  23697227.841      126921.678        2010.119          48.250  
G11  24359193.033      126330.931        2017.450          44.750  
G17  21988628.838     -143797.604       -2314.150          51.000  
G22  23861052.734       50641.800         824.647          48.750  
G28  21581206.132       22873.429         379.122          47.750  
> 2018  4 22 11 21 58.1688020  0  5                     
G 1  23699097.346      127122.719        2011.333          48.250  
G11  24361063.149      126532.746        2018.224          44.500  
G17  21990415.869     -144028.956       -2313.257          51.000  
G22  23862900.492       50724.398         826.606          48.750  
G28  21583046.269       22911.420         380.441          47.750  
> 2018  4 22 11 21 58.2688020  0  5                     
G 1  23700966.920      127323.775        2011.430          48.250  
G11  24362933.815      126734.576        2019.122          44.500  
G17  21992203.414     -144260.288       -2313.417          51.000  
G22  23864746.990       50806.996         826.780          48.750  
G28  21584884.503       22949.444         380.698          47.750  
> 2018  4 22 11 21 58.3688020  0  5                     
G 1  23702837.336      127524.891        2012.047          48.250  
G11  24364804.313      126936.459        2018.926          44.750  
G17  21993990.749     -144491.566       -2312.714          51.000  
G22  23866594.139       50889.673         827.028          48.750  
G28  21586724.353       22987.522         381.118          47.750  
> 2018  4 22 11 21 58.4688020  0  5                     
G 1  23704707.205      127726.098        2012.518          48.000  
G11  24366673.608      127138.441        2019.887          44.250  
G17  21995778.911     -144722.739       -2311.617          50.750  
G22  23868441.343       50972.437         828.258          48.500  
G28  21588561.087       23025.707         383.038          47.250  
> 2018  4 22 11 21 58.5688020  0  5                     
G 1  23706576.827      127927.392        2013.387          47.750  
G11  24368543.210      127340.525        2021.859          44.500  
G17  21997566.501     -144953.829       -2310.681          50.750  
G22  23870288.338       51055.300         829.369          48.250  
G28  21590400.684       23063.978         383.338          47.500  
> 2018  4 22 11 21 58.6688020  0  5                     
G 1  23708446.613      128128.752        2013.449          48.000  
G11  24370412.477      127542.650        2021.984          44.500  
G17  21999353.819     -145184.861       -2310.414          50.750  
G22  23872135.900       51138.221         829.181          48.500  
G28  21592240.353       23102.300         383.264          47.500  
> 2018  4 22 11 21 58.7688020  0  5                     
G 1  23710316.361      128330.142        2014.477          48.250  
G11  24372282.496      127744.817        2022.355          44.750  
G17  22001141.900     -145415.853       -2309.244          51.000  
G22  23873983.595       51221.197         830.785          48.750  
G28  21594078.236       23140.693         383.992          47.750  
> 2018  4 22 11 21 58.8688020  0  5                     
G 1  23712185.897      128531.599        2014.554          48.250  
G11  24374152.556      127947.045        2022.530          44.750  
G17  22002929.322     -145646.783       -2309.754          51.000  
G22  23875831.523       51304.213         830.138          48.750  
G28  21595919.240       23179.137         384.208          47.750  
> 2018  4 22 11 21 58.9688020  0  5                     
G 1  23714055.746      128733.107        2015.356          48.000  
G11  24376021.561      128149.330        2022.480          44.500  
G17  22004716.768     -145877.654       -2308.575          50.750  
G22  23877680.030       51387.303         831.019          48.500  
G28  21597756.532       23217.640         385.818          47.250  
> 2018  4 22 11 21 59.0688020  0  5                     
G 1  23715925.705      128934.660        2015.359          47.750  
G11  24377891.559      128351.628        2022.119          44.250  
G17  22006504.301     -146108.499       -2308.863          51.000  
G22  23879525.832       51470.433         831.247          48.250  
G28  21599596.407       23256.174         384.611          47.500  
> 2018  4 22 11 21 59.1688020  0  5                     
G 1  23717795.167      129136.150        2014.971          48.000  
G11  24379761.835      128553.902        2022.507          44.750  
G17  22008291.229     -146339.381       -2309.098          51.000  
G22  23881373.431       51553.508         830.647          48.500  
G28  21601434.778       23294.670         384.371          47.750  
> 2018  4 22 11 21 59.2688020  0  5                     
G 1  23719665.156      129337.551        2013.835          48.000  
G11  24381631.802      128756.079        2021.325          44.250  
G17  22010078.959     -146570.357       -2310.118          50.750  
G22  23883219.716       51636.504         830.045          48.750  
G28  21603272.605       23333.088         384.152          47.750  
> 2018  4 22 11 21 59.3688020  0  5                     
G 1  23721535.294      129538.904        2013.218          48.000  
G11  24383501.831      128958.184        2021.018          44.750  
G17  22011866.635     -146801.398       -2310.498          51.000  
G22  23885067.341       51719.441         829.579          48.750  
G28  21605113.884       23371.431         383.432          47.750  
> 2018  4 22 11 21 59.4688020  0  5                     
G 1  23723405.170      129740.233        2014.120          47.750  
G11  24385372.501      129160.300        2021.899          44.500  
G17  22013654.796     -147032.448       -2310.333          50.750  
G22  23886915.122       51802.366         829.502          48.500  
G28  21606949.988       23409.783         384.009          47.250  
> 2018  4 22 11 21 59.5688020  0  5                     
G 1  23725274.781      129941.581        2014.464          47.750  
G11  24387243.329      129362.418        2022.292          44.500  
G17  22015442.730     -147263.469       -2310.066          51.000  
G22  23888762.865       51885.322         830.319          48.750  
G28  21608788.810       23448.149         384.622          47.750  
> 2018  4 22 11 21 59.6688020  0  5                     
G 1  23727145.198      130143.003        2014.087          48.000  
G11  24389113.165      129564.606        2021.249          44.750  
G17  22017230.632     -147494.437       -2310.317          51.000  
G22  23890610.279       51968.343         829.894          48.750  
G28  21610628.565       23486.582         383.644          47.500  
> 2018  4 22 11 21 59.7688020  0  5                     
G 1  23729014.614      130344.381        2014.018          47.750  
G11  24390982.562      129766.782        2022.526          44.250  
G17  22019018.911     -147725.421       -2310.518          50.750  
G22  23892457.388       52051.339         830.348          48.500  
G28  21612466.492       23525.001         384.164          47.500  
> 2018  4 22 11 21 59.8688020  0  5                     
G 1  23730883.981      130545.764        2013.741          48.250  
G11  24392853.772      129968.911        2021.396          44.500  
G17  22020806.824     -147956.433       -2309.735          51.000  
G22  23894304.357       52134.321         830.336          48.750  
G28  21614307.710       23563.393         384.070          47.500  
> 2018  4 22 11 21 59.9688020  0  5                     
G 1  23732753.912      130747.135        2013.637          48.000  
G11  24394724.513      130171.048        2020.370          44.750  
G17  22022594.482     -148187.432       -2310.423          51.000  
G22  23896151.125       52217.299         830.037          48.500  
G28  21616144.802       23601.811         384.052          47.500  
> 2018  4 22 11 22  0.0688020  0  5                     
G 1  23734623.843      130948.498        2012.914          48.000  
G11  24396594.663      130372.987        2018.442          44.750  
G17  22024381.822     -148418.443       -2310.015          51.000  
G22  23897998.589       52300.290         829.716          48.750  
G28  21617983.791       23640.206         383.770          47.500  
> 2018  4 22 11 22  0.1688020  0  5                     
G 1  23736493.893      131149.873        2012.538          48.000  
G11  24398465.190      130575.335        2022.014          44.500  
G17  22026168.810     -148649.448       -2310.493          51.000  
G22  23899846.334       52383.273         829.018          48.750  
G28  21619823.226       23678.623         383.863          47.500  
> 2018  4 22 11 22  0.2688020  0  5                     
G 1  23738363.548      131351.222        2013.224          48.000  
G11  24400334.348      130777.458        2021.609          44.250  
G17  22027956.486     -148880.465       -2310.912          51.000  
G22  23901694.560       52466.266         829.106          48.750  
G28  21621661.674       23717.032         383.335          47.750  
> 2018  4 22 11 22  0.3688020  0  5                     
G 1  23740233.440      131552.574        2013.922          47.750  
G11  24402204.348      130979.564        2021.473          44.500  
G17  22029743.921     -149111.489       -2309.779          51.000  
G22  23903542.395       52549.247         830.616          48.750  
G28  21623502.815       23755.418         383.608          47.500  
> 2018  4 22 11 22  0.4688020  0  5                     
G 1  23742102.833      131753.943        2012.503          48.000  
G11  24404073.353      131181.711        2021.268          44.500  
G17  22031531.342     -149342.490       -2311.003          51.000  
G22  23905389.623       52632.250         829.174          48.750  
G28  21625339.930       23793.855         383.471          47.750  
> 2018  4 22 11 22  0.5688020  0  5                     
G 1  23743972.368      131955.300        2014.768          47.750  
G11  24405943.195      131383.827        2021.007          44.500  
G17  22033319.124     -149573.513       -2310.167          51.250  
G22  23907235.658       52715.245         830.156          48.750  
G28  21627178.802       23832.259         384.884          47.500  
> 2018  4 22 11 22  0.6688020  0  5                     
G 1  23745842.448      132156.661        2014.053          48.000  
G11  24407812.316      131585.964        2021.949          44.250  
G17  22035106.676     -149804.526       -2309.358          51.250  
G22  23909082.495       52798.226         830.258          48.750  
G28  21629018.102       23870.685         384.866          47.500  
> 2018  4 22 11 22  0.7688020  0  5                     
G 1  23747713.249      132358.059        2014.125          47.750  
G11  24409683.151      131788.139        2022.250          43.750  
G17  22036894.683     -150035.489       -2310.018          50.500  
G22  23910930.099       52881.276         829.465          48.250  
G28  21630856.807       23909.163         384.708          47.250  
> 2018  4 22 11 22  0.8688020  0  5                     
G 1  23749582.817      132559.424        2014.097          47.750  
G11  24411552.937      131990.269        2021.983          44.500  
G17  22038682.451     -150266.497       -2310.002          51.000  
G22  23912777.951       52964.293         830.331          48.750  
G28  21632697.384       23947.599         384.934          47.750  
> 2018  4 22 11 22  0.9688020  0  5                     
G 1  23751452.942      132760.784        2013.423          47.750  
G11  24413422.313      132192.391        2021.279          44.500  
G17  22040470.205     -150497.505       -2310.468          51.250  
G22  23914625.491       53047.307         830.135          48.750  
G28  21634534.397       23986.032         383.940          47.750  
> 2018  4 22 11 22  1.0688020  0  5                     
G 1  23753322.890      132962.139        2014.026          48.000  
G11  24415292.877      132394.499        2020.778          44.500  
G17  22042258.069     -150728.518       -2310.115          51.250  
G22  23916473.891       53130.317         830.362          48.750  
G28  21636373.304       24024.455         384.323          47.500  
> 2018  4 22 11 22  1.1688020  0  5                     
G 1  23755193.740      133163.529        2013.641          47.750  
G11  24417162.682      132596.661        2021.423          44.750  
G17  22044045.504     -150959.492       -2310.098          51.250  
G22  23918320.708       53213.375         830.352          48.750  
G28  21638213.367       24062.929         384.230          47.750  
> 2018  4 22 11 22  1.2688020  0  5                     
G 1  23757063.605      133364.904        2013.984          48.000  
G11  24419033.080      132798.808        2021.531          44.500  
G17  22045833.659     -151190.480       -2309.923          51.000  
G22  23920167.945       53296.413         831.010          49.000  
G28  21640050.820       24101.400         384.977          47.750  
> 2018  4 22 11 22  1.3688020  0  5                     
G 1  23758932.488      133566.278        2013.197          48.000  
G11  24420902.919      133000.957        2021.088          44.500  
G17  22047621.126     -151421.473       -2310.612          51.250  
G22  23922015.128       53379.449         830.363          49.000  
G28  21641890.825       24139.861         383.998          47.750  
> 2018  4 22 11 22  1.4688020  0  5                     
G 1  23760801.938      133767.660        2014.338          48.000  
G11  24422772.686      133203.101        2020.678          44.250  
G17  22049408.584     -151652.457       -2310.138          51.250  
G22  23923862.921       53462.499         830.775          48.750  
G28  21643728.404       24178.344         384.288          47.750  
> 2018  4 22 11 22  1.5688020  0  5                     
G 1  23762671.427      133969.010        2013.645          47.750  
G11  24424643.184      133405.211        2020.134          44.750  
G17  22051196.132     -151883.469       -2310.307          51.000  
G22  23925709.981       53545.525         830.347          48.750  
G28  21645567.720       24216.795         384.595          47.750  
> 2018  4 22 11 22  1.6688020  0  5                     
G 1  23764541.431      134170.377        2013.703          48.000  
G11  24426513.317      133607.350        2021.803          44.250  
G17  22052983.113     -152114.468       -2309.901          51.000  
G22  23927557.659       53628.561         830.652          48.500  
G28  21647406.825       24255.259         385.375          47.500  
> 2018  4 22 11 22  1.7688020  0  5                     
G 1  23766412.590      134371.758        2013.644          48.000  
G11  24428383.319      133809.497        2020.999          44.250  
G17  22054771.009     -152345.441       -2309.768          51.000  
G22  23929405.271       53711.635         830.120          48.750  
G28  21649245.511       24293.767         384.589          47.500  
> 2018  4 22 11 22  1.8688020  0  5                     
G 1  23768282.291      134573.162        2014.094          47.500  
G11  24430253.382      134011.677        2022.665          44.250  
G17  22056558.310     -152576.397       -2309.398          51.000  
G22  23931252.540       53794.731         831.249          48.500  
G28  21651086.360       24332.285         385.635          47.500  
> 2018  4 22 11 22  1.9688020  0  5                     
G 1  23770151.847      134774.605        2014.810          47.750  
G11  24432124.649      134213.883        2022.835          44.000  
G17  22058345.689     -152807.317       -2309.015          51.000  
G22  23933099.118       53877.855         831.200          48.500  
G28  21652923.781       24370.841         385.572          47.500  
> 2018  4 22 11 22  2.0688020  0  5                     
G 1  23772021.709      134976.120        2015.113          47.750  
G11  24433994.228      134416.151        2022.632          44.250  
G17  22060134.204     -153038.172       -2308.886          51.250  
G22  23934945.849       53961.068         832.173          49.000  
G28  21654763.542       24409.472         386.048          47.750  
> 2018  4 22 11 22  2.1688020  0  5                     
G 1  23773891.795      135177.574        2015.428          48.000  
G11  24435863.542      134618.368        2023.479          44.500  
G17  22061921.909     -153269.082       -2308.841          51.250  
G22  23936793.707       54044.208         832.020          49.000  
G28  21656601.993       24448.039         386.126          47.750  
> 2018  4 22 11 22  2.2688020  0  5                     
G 1  23775761.567      135379.036        2014.886          48.000  
G11  24437734.031      134820.608        2022.677          44.000  
G17  22063710.287     -153499.968       -2308.784          51.000  
G22  23938640.997       54127.378         832.366          48.750  
G28  21658440.405       24486.652         386.311          47.500  
> 2018  4 22 11 22  2.3688020  0  5                     
G 1  23777631.960      135580.540        2014.638          47.750  
G11  24439603.986      135022.872        2023.556          44.250  
G17  22065497.467     -153730.815       -2308.732          51.000  
G22  23940488.507       54210.587         832.295          48.500  
G28  21660280.848       24525.282         386.373          47.250  
> 2018  4 22 11 22  2.4688020  0  5                     
G 1  23779501.858      135782.024        2015.116          48.000  
G11  24441474.069      135225.123        2023.426          44.000  
G17  22067284.801     -153961.686       -2309.368          51.250  
G22  23942336.376       54293.780         831.818          49.000  
G28  21662117.571       24563.916         385.849          47.750  
> 2018  4 22 11 22  2.5688020  0  5                     
G 1  23781372.193      135983.567        2015.524          48.000  
G11  24443344.014      135427.431        2024.094          44.000  
G17  22069072.990     -154192.501       -2308.151          51.250  
G22  23944184.200       54377.033         832.217          48.750  
G28  21663956.499       24602.583         386.712          47.250  
> 2018  4 22 11 22  2.6688020  0  5                     
G 1  23783242.169      136185.097        2015.428          47.500  
G11  24445213.803      135629.722        2023.114          44.000  
G17  22070860.592     -154423.318       -2308.071          51.000  
G22  23946030.512       54460.288         832.850          48.500  
G28  21665795.614       24641.276         387.041          47.250  
> 2018  4 22 11 22  2.7688020  0  5                     
G 1  23785111.715      136386.690        2016.554          48.000  
G11  24447083.757      135832.077        2024.185          44.250  
G17  22072648.761     -154654.085       -2306.882          51.250  
G22  23947877.981       54543.584         833.655          48.750  
G28  21667633.640       24680.020         388.375          47.750  
> 2018  4 22 11 22  2.8688020  0  5                     
G 1  23786982.172      136588.296        2016.237          48.000  
G11  24448953.785      136034.448        2024.617          44.000  
G17  22074436.494     -154884.828       -2307.564          51.250  
G22  23949725.063       54626.920         833.352          48.750  
G28  21669473.805       24718.779         387.586          47.750  
> 2018  4 22 11 22  2.9688020  0  5                     
G 1  23788852.222      136789.881        2016.342          48.000  
G11  24450824.417      136236.794        2023.262          43.750  
G17  22076224.394     -155115.599       -2307.562          51.000  
G22  23951572.792       54710.228         833.487          48.750  
G28  21671311.541       24757.526         388.110          47.750  
> 2018  4 22 11 22  3.0688020  0  5                     
G 1  23790721.646      136991.498        2015.404          47.750  
G11  24452695.504      136439.167        2023.446          44.000  
G17  22078012.137     -155346.334       -2307.809          51.000  
G22  23953420.409       54793.580         833.299          48.500  
G28  21673150.599       24796.296         387.454          47.500  
> 2018  4 22 11 22  3.1688020  0  5                     
G 1  23792591.095      137193.092        2015.831          48.000  
G11  24454564.976      136641.520        2023.064          44.000  
G17  22079799.580     -155577.098       -2307.750          51.250  
G22  23955268.818       54876.892         832.802          49.000  
G28  21674990.474       24835.052         387.890          47.750  
> 2018  4 22 11 22  3.2688020  0  5                     
G 1  23794460.961      137394.632        2015.911          48.000  
G11  24456436.030      136843.829        2023.388          44.250  
G17  22081587.306     -155807.900       -2307.818          51.250  
G22  23957116.891       54960.190         832.733          48.750  
G28  21676828.868       24873.784         387.980          47.750  
> 2018  4 22 11 22  3.3688020  0  5                     
G 1  23796330.908      137596.105        2014.785          48.000  
G11  24458306.287      137046.075        2022.531          44.000  
G17  22083374.671     -156038.780       -2309.124          51.250  
G22  23958965.414       55043.403         832.098          48.750  
G28  21678668.808       24912.424         386.365          47.750  
> 2018  4 22 11 22  3.4688020  0  5                     
G 1  23798200.745      137797.563        2014.779          48.000  
G11  24460176.863      137248.275        2021.678          44.000  
G17  22085162.152     -156269.667       -2309.121          51.250  
G22  23960812.124       55126.610         832.107          49.000  
G28  21680506.657       24951.071         386.320          47.750  
> 2018  4 22 11 22  3.5688020  0  5                     
G 1  23800070.506      137999.044        2015.206          48.000  
G11  24462046.320      137450.520        2022.884          44.250  
G17  22086950.005     -156500.537       -2308.229          51.250  
G22  23962657.555       55209.834         832.685          48.750  
G28  21682346.580       24989.725         386.894          47.500  
> 2018  4 22 11 22  3.6688020  0  5                     
G 1  23801940.983      138200.482        2014.822          48.000  
G11  24463917.200      137652.720        2022.422          44.250  
G17  22088737.529     -156731.451       -2309.011          51.250  
G22  23964504.812       55293.024         832.641          49.000  
G28  21684185.574       25028.347         386.992          47.750  
> 2018  4 22 11 22  3.7688020  0  5                     
G 1  23803810.657      138401.960        2015.471          48.000  
G11  24465786.392      137854.971        2023.307          44.000  
G17  22090526.003     -156962.308       -2308.437          51.500  
G22  23966352.209       55376.262         832.833          49.000  
G28  21686023.994       25067.031         386.839          47.750  
> 2018  4 22 11 22  3.8688020  0  5                     
G 1  23805680.266      138603.501        2016.217          48.000  
G11  24467655.916      138057.257        2023.464          44.000  
G17  22092313.566     -157193.121       -2307.597          51.250  
G22  23968200.075       55459.551         833.680          48.750  
G28  21687864.879       25105.754         387.619          47.750  
> 2018  4 22 11 22  3.9688020  0  5                     
G 1  23807549.994      138805.130        2016.956          48.000  
G11  24469525.536      138259.651        2024.653          43.750  
G17  22094100.941     -157423.838       -2306.958          51.250  
G22  23970048.112       55542.959         834.398          48.750  
G28  21689702.287       25144.590         388.275          47.500  
> 2018  4 22 11 22  4.0688020  0  5                     
G 1  23809420.674      139006.821        2016.812          47.750  
G11  24471394.306      138462.105        2025.157          43.500  
G17  22095888.528     -157654.490       -2306.242          51.000  
G22  23971896.205       55626.414         834.649          48.750  
G28  21691542.257       25183.487         389.028          47.250  
> 2018  4 22 11 22  4.1688020  0  5                     
G 1  23811290.233      139208.579        2018.830          47.750  
G11  24473264.663      138664.626        2025.329          43.750  
G17  22097675.952     -157885.069       -2305.409          51.000  
G22  23973743.250       55709.950         836.639          48.750  
G28  21693381.096       25222.451         390.395          47.500  
> 2018  4 22 11 22  4.2688020  0  5                     
G 1  23813160.694      139410.447        2019.254          47.750  
G11  24475134.700      138867.251        2026.039          43.750  
G17  22099463.662     -158115.536       -2304.537          51.250  
G22  23975589.925       55793.590         836.323          48.750  
G28  21695219.995       25261.547         390.899          47.500  
> 2018  4 22 11 22  4.3688020  0  5                     
G 1  23815030.238      139612.354        2018.692          48.000  
G11  24477004.289      139069.922        2026.971          43.500  
G17  22101251.644     -158345.976       -2304.728          51.500  
G22  23977437.376       55877.283         837.203          49.000  
G28  21697059.806       25300.677         391.798          47.500  
> 2018  4 22 11 22  4.4688020  0  5                     
G 1  23816901.444      139814.335        2020.647          47.500  
G11  24478873.165      139272.662        2027.625          43.250  
G17  22103039.370     -158576.332       -2302.813          50.750  
G22  23979284.744       55961.040         838.594          48.250  
G28  21698896.746       25339.879         392.901          47.250  
> 2018  4 22 11 22  4.5688020  0  5                     
G 1  23818771.461      140016.384        2021.104          47.750  
G11  24480743.808      139475.460        2027.912          43.250  
G17  22104827.368     -158806.624       -2302.865          51.000  
G22  23981132.374       56044.878         838.279          48.500  
G28  21700736.660       25379.151         392.737          47.250  
> 2018  4 22 11 22  4.6688020  0  5                     
G 1  23820642.109      140218.453        2020.519          47.750  
G11  24482614.070      139678.284        2028.592          43.750  
G17  22106615.008     -159036.907       -2303.364          51.250  
G22  23982980.391       56128.728         838.566          48.750  
G28  21702575.078       25418.436         392.735          47.500  
> 2018  4 22 11 22  4.7688020  0  5                     
G 1  23822512.509      140420.541        2021.388          47.500  
G11  24484485.597      139881.127        2027.529          43.500  
G17  22108402.905     -159267.158       -2302.865          51.000  
G22  23984828.091       56212.610         838.823          48.750  
G28  21704414.218       25457.751         392.585          47.000  
> 2018  4 22 11 22  4.8688020  0  5                     
G 1  23824382.155      140622.618        2020.708          47.750  
G11  24486355.454      140083.976        2028.210          43.500  
G17  22110190.628     -159497.410       -2302.985          51.250  
G22  23986676.189       56296.490         838.849          48.500  
G28  21706254.440       25497.085         392.796          47.750  
> 2018  4 22 11 22  4.9688020  0  5                     
G 1  23826252.132      140824.717        2021.245          48.000  
G11  24488225.318      140286.838        2028.903          43.750  
G17  22111977.861     -159727.646       -2302.610          51.500  
G22  23988523.065       56380.395         839.301          49.000  
G28  21708092.596       25536.427         392.955          47.750  
> 2018  4 22 11 22  5.0688020  0  5                     
G 1  23828122.327      141026.753        2020.037          47.750  
G11  24490095.212      140489.624        2027.805          43.750  
G17  22113765.567     -159957.943       -2303.184          51.500  
G22  23990370.553       56464.225         838.255          48.750  
G28  21709933.509       25575.703         392.416          47.750  
> 2018  4 22 11 22  5.1688020  0  5                     
G 1  23829991.506      141228.745        2019.389          48.000  
G11  24491965.311      140692.370        2026.888          43.500  
G17  22115553.094     -160188.291       -2304.293          51.250  
G22  23992217.309       56548.027         837.433          48.750  
G28  21711771.214       25614.959         392.171          47.500  
> 2018  4 22 11 22  5.2688020  0  5                     
G 1  23831861.279      141430.676        2019.903          47.500  
G11  24493835.984      140895.051        2026.729          43.750  
G17  22117341.023     -160418.704       -2303.956          51.000  
G22  23994065.202       56631.767         837.988          48.500  
G28  21713610.729       25654.129         392.632          47.500  
> 2018  4 22 11 22  5.3688020  0  5                     
G 1  23833731.206      141632.628        2020.018          48.000  
G11  24495706.700      141097.783        2027.969          43.500  
G17  22119128.871     -160649.063       -2303.404          51.500  
G22  23995913.059       56715.550         838.605          49.000  
G28  21715449.996       25693.363         392.736          47.750  
> 2018  4 22 11 22  5.4688020  0  5                     
G 1  23835601.296      141834.631        2020.397          47.750  
G11  24497576.628      141300.526        2027.610          43.750  
G17  22120916.148     -160879.407       -2303.370          51.500  
G22  23997761.013       56799.362         838.459          49.000  
G28  21717288.240       25732.615         392.729          47.750  
> 2018  4 22 11 22  5.5688020  0  5                     
G 1  23837471.352      142036.611        2019.540          47.750  
G11  24499446.612      141503.290        2027.711          43.500  
G17  22122704.294     -161109.747       -2303.240          51.500  
G22  23999608.373       56883.174         837.591          48.750  
G28  21719128.377       25771.872         392.367          47.500  
> 2018  4 22 11 22  5.6688020  0  5                     
G 1  23839341.191      142238.520        2019.035          48.000  
G11  24501316.611      141705.936        2027.020          43.750  
G17  22124491.791     -161340.177       -2304.598          51.500  
G22  24001455.578       56966.905         837.182          48.750  
G28  21720966.309       25811.049         391.557          47.750  
> 2018  4 22 11 22  5.7688020  0  5                     
G 1  23841211.241      142440.368        2018.764          47.750  
G11  24503186.167      141908.534        2026.247          44.000  
G17  22126279.998     -161570.663       -2305.089          51.500  
G22  24003303.218       57050.582         836.905          49.000  
G28  21722806.210       25850.177         391.492          47.750  
> 2018  4 22 11 22  5.8688020  0  5                     
G 1  23843081.418      142642.165        2018.346          48.000  
G11  24505056.460      142111.093        2025.854          43.250  
G17  22128068.062     -161801.195       -2305.222          51.500  
G22  24005150.940       57134.216         836.805          49.000  
G28  21724645.116       25889.249         390.707          47.750  
> 2018  4 22 11 22  5.9688020  0  5                     
G 1  23844951.573      142844.012        2018.860          47.750  
G11  24506926.922      142313.700        2027.230          43.250  
G17  22129855.681     -162031.672       -2304.495          51.500  
G22  24006998.283       57217.911         837.633          48.500  
G28  21726483.555       25928.396         392.477          47.500  
> 2018  4 22 11 22  6.0688020  0  5                     
G 1  23846821.682      143045.970        2019.754          48.000  
G11  24508796.934      142516.274        2010.453          43.500  
G17  22131644.215     -162262.047       -2303.818          51.750  
G22  24008845.010       57301.701         837.834          49.000  
G28  21728323.842       25967.629         392.236          47.750  
> 2018  4 22 11 22  6.1688020  0  5                     
G 1  23848691.640      143247.967        2020.247          48.000  
G11  24510667.135      142719.147        2027.262          43.750  
G17  22133432.127     -162492.381       -2303.174          51.750  
G22  24010692.494       57385.544         839.183          49.000  
G28  21730160.984       26006.918         393.915          47.750  
> 2018  4 22 11 22  6.2688020  0  5                     
G 1  23850561.786      143450.022        2020.603          48.000  
G11  24512538.563      142921.979        2029.200          43.000  
G17  22135219.980     -162722.649       -2302.881          51.250  
G22  24012541.026       57469.453         839.460          48.750  
G28  21732000.501       26046.276         393.497          47.500  
> 2018  4 22 11 22  6.3688020  0  5                     
G 1  23852431.978      143652.108        2020.063          47.500  
G11  24514408.108      143124.814        2027.917          43.250  
G17  22137007.643     -162952.888       -2303.080          51.250  
G22  24014388.731       57553.400         838.669          48.500  
G28  21733839.256       26085.659         392.802          47.500  
> 2018  4 22 11 22  6.4688020  0  5                     
G 1  23854302.021      143854.163        2020.080          48.000  
G11  24516278.747      143327.611        2027.068          43.500  
G17  22138795.420     -163183.166       -2303.124          51.500  
G22  24016235.581       57637.295         839.131          49.000  
G28  21735677.890       26125.018         393.125          47.750  
> 2018  4 22 11 22  6.5688020  0  5                     
G 1  23856171.794      144056.313        2024.373          47.750  
G11  24518149.612      143530.525        2032.225          42.500  
G17  22140583.515     -163413.332       -2298.931          51.000  
G22  24018083.463       57721.318         843.251          48.750  
G28  21737518.905       26164.488         397.363          47.000  
> 2018  4 22 11 22  6.6688020  0  5                     
G 1  23858042.082      144259.093        2029.657          46.750  
G11  24520019.720      143734.059        2037.197          42.750  
G17  22142371.771     -163642.878       -2293.808          50.750  
G22  24019931.161       57805.958         848.449          47.750  
G28  21739356.397       26204.587         402.559          47.000  
> 2018  4 22 11 22  6.7688020  0  5                     
G 1  23859912.116      144462.038        2029.045          47.750  
G11  24521890.359      143937.751        2036.045          43.500  
G17  22144159.177     -163872.258       -2294.823          51.500  
G22  24021778.416       57890.769         847.085          48.750  
G28  21741196.649       26244.844         401.976          47.750  
> 2018  4 22 11 22  6.8688020  0  5                     
G 1  23861781.836      144664.612        2024.069          47.500  
G11  24523760.745      144141.073        2031.666          42.500  
G17  22145947.651     -164102.002       -2299.113          51.000  
G22  24023626.687       57975.215         842.987          48.500  
G28  21743035.426       26284.734         396.747          46.750  
> 2018  4 22 11 22  6.9688020  0  5                     
G 1  23863652.221      144867.028        2025.731          47.250  
G11  24525631.289      144344.239        2033.080          43.500  
G17  22147734.994     -164331.917       -2297.870          51.250  
G22  24025474.401       58059.501         844.070          48.750  
G28  21744873.876       26324.472         398.704          47.750  
> 2018  4 22 11 22  7.0688020  0  5                     
G 1  23865521.708      145069.549        2024.111          48.000  
G11  24527501.583      144547.506        2031.597          43.500  
G17  22149523.203     -164561.717       -2299.001          51.750  
G22  24027322.159       58143.903         843.119          48.750  
G28  21746714.175       26364.325         397.344          47.750  
> 2018  4 22 11 22  7.1688020  0  5                     
G 1  23867391.346      145271.796        2020.734          47.750  
G11  24529371.384      144750.510        2027.988          43.250  
G17  22151310.735     -164791.783       -2302.229          51.500  
G22  24029170.309       58228.044         840.415          49.000  
G28  21748551.678       26403.906         394.311          47.750  
> 2018  4 22 11 22  7.2688020  0  5                     
G 1  23869260.726      145473.806        2018.683          47.750  
G11  24531240.528      144953.286        2026.878          42.750  
G17  22153098.428     -165022.099       -2305.104          51.250  
G22  24031018.113       58311.941         837.729          48.750  
G28  21750391.836       26443.260         392.739          47.250  
> 2018  4 22 11 22  7.3688020  0  5                     
G 1  23871131.252      145675.574        2017.601          47.250  
G11  24533110.299      145155.785        2024.208          42.500  
G17  22154886.143     -165252.652       -2305.929          51.250  
G22  24032864.946       58395.593         836.289          48.500  
G28  21752230.113       26482.371         391.331          47.250  
> 2018  4 22 11 22  7.4688020  0  5                     
G 1  23873001.066      145877.362        2019.262          47.250  
G11  24534980.192      145358.352        2026.788          43.000  
G17  22156673.104     -165483.171       -2304.428          51.250  
G22  24034712.090       58479.283         837.864          48.500  
G28  21754068.354       26521.512         392.865          47.250  
> 2018  4 22 11 22  7.5688020  0  5                     
G 1  23874870.664      146079.311        2019.640          47.750  
G11  24536850.770      145561.050        2027.773          43.250  
G17  22158461.063     -165713.545       -2303.669          51.750  
G22  24036559.747       58563.121         838.556          49.250  
G28  21755908.083       26560.806         393.531          47.750  
> 2018  4 22 11 22  7.6688020  0  5                     
G 1  23876740.581      146281.316        2021.509          48.000  
G11  24538719.785      145763.792        2029.242          43.000  
G17  22160249.385     -165943.849       -2301.856          51.750  
G22  24038408.242       58647.035         840.392          49.250  
G28  21757746.107       26600.161         394.953          47.750  
> 2018  4 22 11 22  7.7688020  0  5                     
G 1  23878610.373      146483.660        2024.820          47.750  
G11  24540590.167      145966.890        2032.586          43.250  
G17  22162037.241     -166173.825       -2298.425          51.250  
G22  24040256.062       58731.287         844.299          48.500  
G28  21759586.419       26639.864         397.950          47.500  
> 2018  4 22 11 22  7.8688020  0  5                     
G 1  23880480.930      146686.115        2024.132          48.000  
G11  24542460.981      146170.094        2030.920          43.000  
G17  22163825.534     -166403.691       -2299.917          51.750  
G22  24042103.984       58815.651         842.570          49.000  
G28  21761424.606       26679.693         397.343          47.500  
> 2018  4 22 11 22  7.9688020  0  5                     
G 1  23882351.166      146888.319        2020.559          47.250  
G11  24544331.152      146373.038        2027.181          42.500  
G17  22165613.041     -166633.802       -2302.927          51.000  
G22  24043951.523       58899.757         839.517          48.750  
G28  21763264.378       26719.259         393.457          47.250  
> 2018  4 22 11 22  8.0688020  0  5                     
G 1  23884221.156      147090.145        2017.801          47.250  
G11  24546200.655      146575.618        2025.164          42.750  
G17  22167400.608     -166864.283       -2306.061          51.500  
G22  24045799.548       58983.510         837.262          48.750  
G28  21765104.047       26758.460         391.582          47.500  
> 2018  4 22 11 22  8.1688020  0  5                     
G 1  23886091.511      147291.863        2016.651          47.750  
G11  24548071.467      146778.075        2023.953          43.000  
G17  22169188.679     -167094.886       -2306.688          51.750  
G22  24047646.668       59067.137         835.744          49.000  
G28  21766942.677       26797.545         389.992          47.750  
