     3.02           OBSERVATION DATA    M: Mixed            RINEX VERSION / TYPE
GNSS-SDRLIB v1.1                        20180429 101715 UTC PGM / RUN BY / DATE 
                                                            MARKER NAME         
                                                            MARKER NUMBER       
                                                            MARKER TYPE         
                                                            OBSERVER / AGENCY   
GNSS-SDRLIB         GNSS-SDRLIB         1.1                 REC # / TYPE / VERS 
                                                            ANT # / TYPE        
        0.0000        0.0000        0.0000                  APPROX POSITION XYZ 
        0.0000        0.0000        0.0000                  ANTENNA: DELTA H/E/N
G    4 C1C L1C D1C S1C                                      SYS / # / OBS TYPES 
R    4 C1C L1C D1C S1C                                      SYS / # / OBS TYPES 
E    4 C1C L1C D1C S1C                                      SYS / # / OBS TYPES 
J    4 C1C L1C D1C S1C                                      SYS / # / OBS TYPES 
S    4 C1C L1C D1C S1C                                      SYS / # / OBS TYPES 
C    4 C1C L1C D1C S1C                                      SYS / # / OBS TYPES 
  1970     1     1     0     0    0.0000000     GPS         TIME OF FIRST OBS   
  1970     1     1     0     0    0.0000000     GPS         TIME OF LAST OBS    
G                                                           SYS / PHASE SHIFT   
R                                                           SYS / PHASE SHIFT   
E                                                           SYS / PHASE SHIFT   
J                                                           SYS / PHASE SHIFT   
S                                                           SYS / PHASE SHIFT   
C                                                           SYS / PHASE SHIFT   
  0                                                         GLONASS SLOT / FRQ #
 C1C    0.000 C1P    0.000 C2C    0.000 C2P    0.000        GLONASS COD/PHS/BIS 
                                                            END OF HEADER       
> 2018  4 22 11 21  6.0688020  0  1                     
G28  20625059.286        3265.449         352.535          48.500  
> 2018  4 22 11 21  6.1688020  0  1                     
G28  20626915.722        3300.676         353.090          48.000  
> 2018  4 22 11 21  6.0688020  0  2                     
G17  21059048.120      -23035.503       -2314.746          51.750  
G28  20625059.286        3265.449         352.535          48.000  
> 2018  4 22 11 21  6.1688020  0  2                     
G17  21060853.674      -23275.055       -2323.825          51.750  
G28  20626915.722        3300.676         353.090          48.000  
> 2018  4 22 11 21  6.0688020  0  3                     
G 3  21349491.489       -8751.939        -794.281          42.750  
G17  21059048.120      -23043.221       -2324.049          51.750  
G28  20625059.286        3265.449         352.535          48.000  
> 2018  4 22 11 21  6.1688020  0  3                     
G 3  21351325.576       -8835.492        -844.903          42.500  
G17  21060853.674      -23275.055       -2323.825          51.750  
G28  20626915.722        3300.676         353.090          48.000  
> 2018  4 22 11 21  6.0688020  0  4                     
G 1  22724837.717       22077.246        1994.421          48.750  
G 3  21349491.489       -8752.169        -830.684          42.500  
G17  21059048.120      -23043.221       -2324.049          51.750  
G28  20625059.286        3265.449         352.535          48.000  
> 2018  4 22 11 21  6.1688020  0  4                     
G 1  22726725.758       22277.893        2008.820          49.000  
G 3  21351325.576       -8835.313        -830.799          42.500  
G17  21060853.674      -23275.055       -2323.825          51.750  
G28  20626915.722        3300.676         353.090          48.000  
> 2018  4 22 11 21  6.0688020  0  5                     
G 1  22724837.717       22077.334        2004.250          49.000  
G 3  21349491.489       -8752.169        -830.684          42.500  
G17  21059048.120      -23043.221       -2324.049          51.750  
G22  22900473.534        7691.043         785.711          46.250  
G28  20625059.286        3265.449         352.535          48.000  
> 2018  4 22 11 21  6.1688020  0  5                     
G 1  22726725.758       22277.789        2004.206          49.000  
G 3  21351325.576       -8835.313        -830.799          42.500  
G17  21060853.674      -23275.055       -2323.825          51.750  
G22  22902337.542        7771.232         799.003          46.500  
G28  20626915.722        3300.676         353.090          48.000  
> 2018  4 22 11 21  6.0688020  0  6                     
G 1  22724837.717       22077.334        2004.250          49.000  
G 3  21349491.489       -8752.169        -830.684          42.500  
G11  23386715.917       20497.872        2029.323          44.250  
G17  21059048.120      -23043.221       -2324.049          51.750  
G22  22900473.534        7691.224         800.926          46.500  
G28  20625059.286        3265.449         352.535          48.000  
> 2018  4 22 11 21  6.1688020  0  6                     
G 1  22726725.758       22277.789        2004.206          49.000  
G 3  21351325.576       -8835.313        -830.799          42.500  
G11  23388604.474       20689.550        2012.370          44.500  
G17  21060853.674      -23275.055       -2323.825          51.750  
G22  22902337.542        7771.288         801.391          46.500  
G28  20626915.722        3300.676         353.090          48.000  
> 2018  4 22 11 21  6.2688020  0  6                     
G 1  22728595.347       22478.286        2005.248          49.000  
G 3  21353142.381       -8918.404        -830.846          42.500  
G11  23390475.389       20891.093        2014.182          44.250  
G17  21062641.665      -23507.344       -2322.585          51.750  
G22  22904184.876        7851.396         801.434          46.500  
G28  20628755.276        3335.978         353.018          48.250  
> 2018  4 22 11 21  6.3688020  0  6                     
G 1  22730465.351       22678.887        2006.155          48.750  
G 3  21354957.168       -9001.365        -830.133          42.750  
G11  23392345.389       21092.595        2015.187          44.250  
G17  21064429.052      -23739.518       -2322.530          51.750  
G22  22906032.118        7931.626         802.140          46.500  
G28  20630591.203        3371.382         354.289          48.250  
> 2018  4 22 11 21  6.4688020  0  6                     
G 1  22732335.777       22879.541        2007.387          49.000  
G 3  21356772.446       -9084.271        -828.075          42.500  
G11  23394215.073       21294.142        2016.016          44.250  
G17  21066216.659      -23971.662       -2320.948          51.500  
G22  22907879.146        8011.887         803.287          46.250  
G28  20632430.246        3406.836         354.426          48.500  
> 2018  4 22 11 21  6.5688020  0  6                     
G 1  22734205.539       23080.235        2006.998          49.000  
G 3  21358589.698       -9167.139        -828.586          42.750  
G11  23396084.324       21495.734        2015.718          44.250  
G17  21068004.712      -24203.747       -2320.750          51.750  
G22  22909725.181        8092.211         803.118          46.250  
G28  20634269.766        3442.340         355.526          48.250  
> 2018  4 22 11 21  6.6688020  0  6                     
G 1  22736075.307       23280.953        2008.092          49.000  
G 3  21360405.290       -9249.966        -828.284          42.250  
G11  23397955.295       21697.375        2017.198          44.250  
G17  21069792.201      -24435.804       -2320.367          51.750  
G22  22911571.953        8172.564         804.247          46.500  
G28  20636106.898        3477.879         356.043          48.250  
> 2018  4 22 11 21  6.7688020  0  6                     
G 1  22737945.568       23481.787        2008.752          49.000  
G 3  21362221.059       -9332.669        -825.874          42.500  
G11  23399825.569       21899.096        2017.705          44.250  
G17  21071579.722      -24667.750       -2319.374          51.500  
G22  22913419.709        8253.029         805.768          46.500  
G28  20637946.724        3513.525         356.694          48.500  
> 2018  4 22 11 21  6.8688020  0  6                     
G 1  22739815.321       23682.659        2008.243          49.000  
G 3  21364037.054       -9415.354        -826.399          42.500  
G11  23401695.407       22100.871        2017.244          44.500  
G17  21073366.750      -24899.661       -2319.283          51.750  
G22  22915266.688        8333.542         805.831          46.750  
G28  20639784.220        3549.208         356.827          48.250  
> 2018  4 22 11 21  6.9688020  0  6                     
G 1  22741684.552       23883.584        2009.628          49.000  
G 3  21365851.519       -9497.947        -825.920          42.750  
G11  23403565.722       22302.694        2018.479          44.000  
G17  21075154.419      -25131.513       -2318.367          51.500  
G22  22917113.397        8414.111         805.646          46.500  
G28  20641621.682        3584.950         357.888          48.250  
> 2018  4 22 11 21  7.0688020  0  6                     
G 1  22743554.252       24084.519        2009.253          48.750  
G 3  21367666.932       -9580.582        -826.017          42.250  
G11  23405436.431       22504.527        2018.422          44.000  
G17  21076941.919      -25363.359       -2318.377          51.750  
G22  22918960.914        8494.695         806.587          46.250  
G28  20643461.160        3620.716         358.108          48.250  
> 2018  4 22 11 21  7.1688020  0  6                     
G 1  22745423.805       24285.477        2009.031          49.000  
G 3  21369483.965       -9663.136        -825.670          42.000  
G11  23407306.061       22706.389        2019.134          44.000  
G17  21078729.648      -25595.188       -2319.002          51.750  
G22  22920808.327        8575.286         806.118          46.250  
G28  20645298.527        3656.507         357.853          48.250  
> 2018  4 22 11 21  7.2688020  0  6                     
G 1  22747293.959       24486.400        2008.838          49.000  
G 3  21371300.059       -9745.722        -825.869          42.000  
G11  23409176.075       22908.201        2017.668          44.000  
G17  21080517.317      -25827.035       -2318.177          51.750  
G22  22922655.638        8655.871         804.978          46.500  
G28  20647137.025        3692.267         357.234          48.250  
> 2018  4 22 11 21  7.3688020  0  6                     
G 1  22749163.472       24687.299        2008.446          49.250  
G 3  21373115.387       -9828.337        -826.749          42.500  
G11  23411046.493       23110.000        2017.078          44.000  
G17  21082304.199      -26058.913       -2319.299          51.750  
G22  22924502.250        8736.430         806.444          46.250  
G28  20648976.502        3728.008         357.427          48.250  
> 2018  4 22 11 21  7.4688020  0  6                     
G 1  22751033.598       24888.207        2009.954          49.000  
G 3  21374930.964       -9910.944        -825.923          42.250  
G11  23412916.614       23311.822        2019.298          44.000  
G17  21084091.581      -26290.768       -2318.090          51.750  
G22  22926347.245        8816.989         806.157          46.250  
G28  20650812.440        3763.774         358.455          48.000  
> 2018  4 22 11 21  7.5688020  0  6                     
G 1  22752903.710       25089.169        2009.506          49.000  
G 3  21376746.964       -9993.487        -825.668          42.500  
G11  23414785.590       23513.674        2018.260          44.250  
G17  21085879.154      -26522.596       -2318.115          51.750  
G22  22928194.518        8897.610         806.343          46.250  
G28  20652651.500        3799.568         357.742          48.250  
> 2018  4 22 11 21  7.6688020  0  6                     
G 1  22754773.836       25290.112        2009.257          49.000  
G 3  21378562.434      -10076.049        -826.501          42.750  
G11  23416655.695       23715.497        2019.009          44.250  
G17  21087666.338      -26754.435       -2318.766          51.750  
G22  22930041.935        8978.214         805.677          46.500  
G28  20654490.537        3835.355         358.291          48.000  
> 2018  4 22 11 21  7.7688020  0  6                     
G 1  22756644.489       25491.013        2009.766          48.750  
G 3  21380378.848      -10158.638        -825.671          42.500  
G11  23418525.431       23917.300        2018.076          44.250  
G17  21089453.709      -26986.303       -2318.947          51.750  
G22  22931889.730        9058.794         806.105          46.250  
G28  20656327.505        3871.124         357.647          48.250  
> 2018  4 22 11 21  7.8688020  0  6                     
G 1  22758514.291       25691.896        2008.582          49.000  
G 3  21382194.795      -10241.250        -827.286          42.750  
G11  23420395.261       24119.082        2017.138          44.000  
G17  21091240.639      -27218.185       -2319.125          51.750  
G22  22933736.487        9139.353         805.481          46.250  
G28  20658166.677        3906.861         357.229          48.250  
> 2018  4 22 11 21  7.9688020  0  6                     
G 1  22760384.729       25892.774        2009.064          48.750  
G 3  21384010.584      -10323.839        -825.326          43.000  
G11  23422266.769       24320.849        2017.361          44.000  
G17  21093028.493      -27450.081       -2318.994          51.750  
G22  22935583.692        9219.903         805.728          46.750  
G28  20660005.084        3942.617         357.861          48.250  
> 2018  4 22 11 21  8.0688020  0  6                     
G 1  22762254.328       26093.635        2008.268          49.000  
G 3  21385826.151      -10406.433        -826.381          42.500  
G11  23424136.658       24522.638        2017.626          44.250  
G17  21094815.919      -27681.981       -2319.704          52.000  
G22  22937430.261        9300.458         805.139          46.500  
G28  20661843.785        3978.352         357.527          48.250  
> 2018  4 22 11 21  8.1688020  0  6                     
G 1  22764123.761       26294.491        2009.110          49.000  
G 3  21387641.502      -10489.049        -825.773          42.750  
G11  23426006.331       24724.379        2017.202          44.000  
G17  21096603.131      -27913.893       -2318.799          52.000  
G22  22939277.619        9380.994         806.147          46.250  
G28  20663684.154        4014.081         358.254          48.000  
> 2018  4 22 11 21  8.2688020  0  6                     
G 1  22765993.019       26495.366        2009.191          49.000  
G 3  21389457.453      -10571.648        -824.745          42.750  
G11  23427876.869       24926.141        2018.021          44.000  
G17  21098390.725      -28145.796       -2318.542          51.750  
G22  22941125.296        9461.557         806.488          46.500  
G28  20665520.141        4049.828         358.233          48.000  
> 2018  4 22 11 21  8.3688020  0  6                     
G 1  22767862.625       26696.285        2009.419          49.000  
G 3  21391273.093      -10654.169        -824.748          43.000  
G11  23429745.806       25127.970        2018.597          44.500  
G17  21100178.240      -28377.645       -2318.631          51.750  
G22  22942972.903        9542.180         806.581          46.500  
G28  20667358.125        4085.632         358.941          48.250  
> 2018  4 22 11 21  8.4688020  0  6                     
G 1  22769732.031       26897.162        2009.038          49.000  
G 3  21393089.347      -10736.755        -825.902          42.750  
G11  23431615.363       25329.745        2017.956          44.250  
G17  21101965.980      -28609.545       -2318.691          51.750  
G22  22944819.296        9622.754         806.119          46.250  
G28  20669197.286        4121.396         358.400          48.250  
> 2018  4 22 11 21  8.5688020  0  6                     
G 1  22771602.121       27098.075        2009.935          49.250  
G 3  21394905.162      -10819.270        -824.674          42.500  
G11  23433485.550       25531.551        2018.374          44.000  
G17  21103753.322      -28841.394       -2318.479          51.750  
G22  22946666.322        9703.359         806.456          46.000  
G28  20671034.273        4157.197         358.432          48.250  
> 2018  4 22 11 21  8.6688020  0  6                     
G 1  22773471.214       27298.984        2009.155          49.000  
G 3  21396722.195      -10901.788        -825.168          42.000  
G11  23435356.295       25733.370        2018.627          44.500  
G17  21105541.339      -29073.234       -2318.703          51.750  
G22  22948511.795        9784.000         806.722          46.250  
G28  20672874.524        4193.013         357.466          48.250  
> 2018  4 22 11 21  8.7688020  0  6                     
G 1  22775340.568       27499.857        2008.619          49.000  
G 3  21398537.110      -10984.377        -826.367          42.000  
G11  23437227.526       25935.112        2017.118          44.500  
G17  21107328.476      -29305.144       -2319.668          51.750  
G22  22950358.616        9864.560         805.308          46.250  
G28  20674712.409        4228.769         357.393          48.250  
> 2018  4 22 11 21  8.8688020  0  6                     
G 1  22777210.751       27700.668        2008.618          49.000  
G 3  21400352.406      -11067.001        -825.429          42.000  
G11  23439096.916       26136.833        2017.672          44.500  
G17  21109115.937      -29537.081       -2319.732          52.000  
G22  22952206.131        9945.094         805.297          46.250  
G28  20676550.148        4264.494         356.608          48.500  
> 2018  4 22 11 21  8.9688020  0  6                     
G 1  22779080.605       27901.501        2008.170          49.000  
G 3  21402167.922      -11149.619        -827.045          42.500  
G11  23440967.114       26338.565        2017.250          44.250  
G17  21110903.286      -29769.029       -2319.372          51.750  
G22  22954053.420       10025.629         805.314          46.500  
G28  20678389.787        4300.220         357.131          48.000  
> 2018  4 22 11 21  9.0688020  0  6                     
G 1  22780950.766       28102.348        2008.326          49.000  
G 3  21403983.301      -11232.143        -824.652          42.500  
G11  23442836.542       26540.309        2016.639          44.250  
G17  21112690.517      -30000.935       -2319.269          51.750  
G22  22955900.423       10106.217         805.443          46.000  
G28  20680227.139        4335.999         357.962          47.750  
> 2018  4 22 11 21  9.1688020  0  6                     
G 1  22782820.961       28303.202        2008.496          48.750  
G 3  21405799.576      -11314.724        -825.888          43.000  
G11  23444705.680       26742.056        2016.726          44.250  
G17  21114478.440      -30232.841       -2319.126          51.750  
G22  22957746.496       10186.780         805.992          46.250  
G28  20682064.884        4371.763         357.763          48.000  
> 2018  4 22 11 21  9.2688020  0  6                     
G 1  22784690.462       28504.040        2008.200          48.750  
G 3  21407616.032      -11397.285        -826.566          42.750  
G11  23446576.070       26943.807        2017.121          44.250  
G17  21116265.737      -30464.761       -2319.427          51.750  
G22  22959592.654       10267.350         805.149          46.250  
G28  20683904.972        4407.523         357.077          48.000  
> 2018  4 22 11 21  9.3688020  0  6                     
G 1  22786559.895       28704.857        2008.815          49.000  
G 3  21409431.590      -11479.862        -825.797          42.250  
G11  23448445.845       27145.507        2016.818          44.500  
G17  21118053.137      -30696.716       -2319.609          51.750  
G22  22961440.037       10347.891         805.952          46.250  
G28  20685741.539        4443.263         357.331          48.000  
> 2018  4 22 11 21  9.4688020  0  6                     
G 1  22788429.473       28905.684        2008.111          49.250  
G 3  21411247.306      -11562.404        -825.309          41.750  
G11  23450316.175       27347.217        2017.619          44.250  
G17  21119841.148      -30928.633       -2318.882          51.750  
G22  22963288.390       10428.452         805.614          46.500  
G28  20687580.651        4479.021         358.320          48.000  
> 2018  4 22 11 21  9.5688020  0  6                     
G 1  22790299.252       29106.465        2008.370          49.000  
G 3  21413063.709      -11645.048        -825.992          41.000  
G11  23452186.052       27548.887        2017.120          44.000  
G17  21121628.414      -31160.627       -2319.830          52.000  
G22  22965135.867       10508.975         805.244          46.500  
G28  20689418.415        4514.728         357.520          48.000  
> 2018  4 22 11 21  9.6688020  0  6                     
G 1  22792169.118       29307.145        2006.518          49.000  
G 3  21414880.088      -11727.772        -827.830          41.750  
G11  23454056.405       27750.477        2015.442          44.250  
G17  21123416.326      -31392.692       -2321.203          51.750  
G22  22966982.604       10589.405         803.067          46.500  
G28  20691255.715        4550.354         355.635          47.750  
> 2018  4 22 11 21  9.7688020  0  6                     
G 1  22794038.257       29507.797        2006.222          49.000  
G 3  21416695.327      -11810.512        -828.023          42.750  
G11  23455926.146       27952.010        2014.813          44.500  
G17  21125203.477      -31624.812       -2321.570          52.000  
G22  22968829.590       10669.799         803.584          46.500  
G28  20693095.043        4585.943         355.466          48.000  
> 2018  4 22 11 21  9.8688020  0  6                     
G 1  22795908.049       29708.419        2006.500          49.250  
G 3  21418511.621      -11893.234        -828.051          43.250  
G11  23457795.852       28153.541        2015.344          44.750  
G17  21126991.015      -31856.944       -2321.931          51.750  
G22  22970677.158       10750.160         803.894          46.250  
G28  20694933.121        4621.515         355.294          48.000  
> 2018  4 22 11 21  9.9688020  0  6                     
G 1  22797778.080       29908.993        2005.841          48.750  
G 3  21420328.734      -11976.008        -828.266          42.500  
G11  23459666.734       28354.998        2014.778          44.000  
G17  21128778.484      -32089.132       -2322.124          51.750  
G22  22972523.732       10830.502         803.474          46.000  
G28  20696770.749        4657.035         354.953          47.750  
> 2018  4 22 11 21 10.0688020  0  6                     
G 1  22799648.114       30109.513        2004.787          49.000  
G 3  21422144.440      -12058.852        -829.287          42.500  
G11  23461537.002       28556.406        2014.040          44.500  
G17  21130565.370      -32321.348       -2322.708          52.000  
G22  22974370.152       10910.777         803.145          46.500  
G28  20698610.699        4692.517         354.367          48.000  
> 2018  4 22 11 21 10.1688020  0  6                     
G 1  22801518.243       30309.999        2004.753          49.000  
G 3  21423959.760      -12141.738        -829.416          42.000  
G11  23463406.256       28757.788        2013.867          44.000  
G17  21132353.266      -32553.631       -2323.036          51.750  
G22  22976217.261       10991.021         802.816          46.250  
G28  20700447.838        4727.955         354.380          48.000  
> 2018  4 22 11 21 10.2688020  0  6                     
G 1  22803387.867       30510.412        2003.561          49.000  
G 3  21425774.662      -12224.683        -829.090          42.500  
G11  23465276.189       28959.085        2012.737          44.000  
G17  21134140.540      -32785.969       -2324.403          51.750  
G22  22978064.165       11071.195         801.288          46.500  
G28  20702286.984        4763.333         353.020          48.250  
> 2018  4 22 11 21 10.3688020  0  6                     
G 1  22805257.881       30710.811        2004.075          49.000  
G 3  21427591.421      -12307.617        -828.379          43.000  
G11  23467145.975       29160.388        2013.726          44.250  
G17  21135927.763      -33018.321       -2323.154          52.000  
G22  22979911.313       11151.378         802.229          46.500  
G28  20704125.527        4798.698         354.375          48.250  
> 2018  4 22 11 21 10.4688020  0  6                     
G 1  22807127.428       30911.259        2004.367          49.000  
G 3  21429407.721      -12390.499        -828.321          43.500  
G11  23469015.456       29361.727        2014.225          44.250  
G17  21137715.357      -33250.627       -2323.391          51.750  
G22  22981757.130       11231.583         802.079          46.500  
G28  20705962.566        4834.123         354.089          48.000  
> 2018  4 22 11 21 10.5688020  0  6                     
G 1  22808996.938       31111.690        2004.339          49.250  
G 3  21431223.168      -12473.394        -829.130          43.000  
G11  23470884.350       29563.051        2013.258          44.250  
G17  21139502.612      -33482.953       -2323.055          52.000  
G22  22983603.163       11311.793         801.921          46.500  
G28  20707801.586        4869.526         354.041          48.000  
> 2018  4 22 11 21 10.6688020  0  6                     
G 1  22810866.733       31312.159        2005.032          49.000  
G 3  21433038.116      -12556.281        -827.225          41.000  
G11  23472754.999       29764.395        2014.650          44.250  
G17  21141290.887      -33715.244       -2322.976          52.000  
G22  22985450.019       11392.041         803.031          46.500  
G28  20709639.747        4904.957         355.158          48.000  
> 2018  4 22 11 21 10.7688020  0  6                     
G 1  22812736.350       31512.627        2004.543          49.250  
G 3  21434853.209      -12639.155        -829.420          42.000  
G11  23474624.769       29965.755        2013.223          44.250  
G17  21143077.853      -33947.535       -2323.099          51.750  
G22  22987296.834       11472.278         802.236          46.250  
G28  20711477.064        4940.409         354.329          48.250  
> 2018  4 22 11 21 10.8688020  0  6                     
G 1  22814606.246       31713.110        2005.432          49.250  
G 3  21436670.883      -12721.975        -828.161          43.750  
G11  23476494.814       30167.114        2013.254          44.250  
G17  21144865.212      -34179.795       -2322.811          52.000  
G22  22989144.350       11552.557         802.757          46.250  
G28  20713317.121        4975.868         354.437          48.000  
> 2018  4 22 11 21 10.9688020  0  6                     
G 1  22816476.121       31913.605        2004.453          49.250  
G 3  21438487.678      -12804.778        -828.018          42.750  
G11  23478365.540       30368.522        2013.912          44.250  
G17  21146652.742      -34412.031       -2322.672          51.750  
G22  22990991.549       11632.852         802.592          46.250  
G28  20715154.070        5011.373         355.305          48.000  
> 2018  4 22 11 21 11.0688020  0  6                     
G 1  22818346.128       32114.092        2004.908          49.250  
G 3  21440302.455      -12887.622        -828.597          42.500  
G11  23480234.025       30569.878        2013.195          44.000  
G17  21148439.447      -34644.303       -2322.856          52.000  
G22  22992836.531       11713.126         803.000          46.500  
G28  20716991.976        5046.841         354.447          48.000  
> 2018  4 22 11 21 11.1688020  0  6                     
G 1  22820215.763       32314.591        2005.203          49.250  
G 3  21442117.611      -12970.392        -826.292          42.250  
G11  23482102.662       30771.272        2013.712          43.750  
G17  21150226.823      -34876.547       -2322.492          52.000  
G22  22994683.566       11793.409         802.861          46.250  
G28  20718832.282        5082.338         354.520          47.750  
> 2018  4 22 11 21 11.2688020  0  6                     
G 1  22822084.904       32515.109        2005.409          49.000  
G 3  21443933.721      -13053.190        -827.374          42.000  
G11  23483972.855       30972.676        2014.805          44.000  
G17  21152013.802      -35108.776       -2322.548          51.750  
G22  22996530.955       11873.738         803.886          46.250  
G28  20720668.098        5117.862         355.370          48.000  
> 2018  4 22 11 21 11.3688020  0  6                     
G 1  22823954.443       32715.613        2005.415          49.000  
G 3  21445750.172      -13135.992        -828.495          42.750  
G11  23485841.604       31174.075        2014.016          44.000  
G17  21153801.523      -35341.022       -2322.371          51.750  
G22  22998378.451       11954.038         802.862          46.500  
G28  20722506.609        5153.372         354.681          48.000  
> 2018  4 22 11 21 11.4688020  0  6                     
G 1  22825824.422       32916.089        2004.852          49.000  
G 3  21447565.511      -13218.795        -828.892          42.250  
G11  23487711.390       31375.443        2013.313          43.750  
G17  21155588.896      -35573.289       -2322.703          51.750  
G22  23000226.089       12034.326         803.102          46.250  
G28  20724346.246        5188.856         354.881          47.750  
> 2018  4 22 11 21 11.5688020  0  6                     
G 1  22827694.870       33116.576        2005.069          48.750  
G 3  21449380.679      -13301.583        -828.421          42.750  
G11  23489581.809       31576.807        2014.029          43.750  
G17  21157376.164      -35805.544       -2322.191          51.750  
G22  23002072.243       12114.613         803.979          46.250  
G28  20726183.687        5224.369         355.649          48.000  
> 2018  4 22 11 21 11.6688020  0  6                     
G 1  22829563.984       33317.070        2005.538          49.000  
G 3  21451196.574      -13384.363        -827.883          42.500  
G11  23491451.118       31778.183        2014.384          44.000  
G17  21159163.835      -36037.788       -2322.033          52.000  
G22  23003919.122       12194.929         803.052          46.250  
G28  20728023.222        5259.866         355.354          47.750  
> 2018  4 22 11 21 11.7688020  0  6                     
G 1  22831433.225       33517.569        2005.246          49.000  
G 3  21453013.633      -13467.117        -827.717          42.750  
G11  23493321.411       31979.589        2014.564          44.000  
G17  21160951.120      -36270.033       -2322.265          52.000  
G22  23005766.076       12275.250         803.821          46.500  
G28  20729860.650        5295.397         355.500          48.000  
> 2018  4 22 11 21 11.8688020  0  6                     
G 1  22833302.938       33718.075        2005.514          49.250  
G 3  21454828.360      -13549.894        -827.064          42.250  
G11  23495191.288       32180.980        2014.884          44.250  
G17  21162738.815      -36502.259       -2321.953          52.000  
G22  23007613.237       12355.582         803.881          46.500  
G28  20731698.682        5330.950         356.278          48.000  
> 2018  4 22 11 21 11.9688020  0  6                     
G 1  22835172.701       33918.640        2005.855          49.000  
G 3  21456644.109      -13632.579        -826.307          43.000  
G11  23497061.039       32382.443        2015.273          44.250  
G17  21164526.236      -36734.429       -2321.271          52.000  
G22  23009459.850       12435.983         804.690          46.250  
G28  20733538.881        5366.543         356.347          48.000  
> 2018  4 22 11 21 12.0688020  0  6                     
G 1  22837042.752       34119.247        2007.154          49.000  
G 3  21458461.016      -13715.218        -825.870          42.500  
G11  23498931.736       32583.934        2016.590          44.250  
G17  21166313.591      -36966.570       -2320.870          52.250  
G22  23011306.852       12516.361         787.810          46.250  
G28  20735375.998        5402.188         357.899          48.250  
> 2018  4 22 11 21 12.1688020  0  6                     
G 1  22838912.687       34320.005        2007.890          49.250  
G 3  21460276.295      -13797.694        -825.232          42.500  
G11  23500801.955       32785.564        2016.827          44.250  
G17  21168101.594      -37198.539       -2319.608          52.250  
G22  23013152.811       12596.922         801.814          46.250  
G28  20737215.330        5437.980         358.789          48.250  
> 2018  4 22 11 21 12.2688020  0  6                     
G 1  22840782.900       34520.741        2007.539          49.250  
G 3  21462093.086      -13880.214        -825.505          42.500  
G11  23502672.485       32987.198        2015.772          44.250  
G17  21169888.794      -37430.544       -2320.542          52.000  
G22  23015000.276       12677.585         806.104          46.250  
G28  20739053.647        5473.771         357.604          48.000  
> 2018  4 22 11 21 12.3688020  0  6                     
G 1  22842653.495       34721.596        2009.567          49.000  
G 3  21463908.995      -13962.593        -822.989          42.500  
G11  23504542.754       33188.924        2017.085          44.000  
G17  21171676.390      -37662.436       -2318.571          52.000  
G22  23016846.488       12758.275         807.390          46.250  
G28  20740890.246        5509.650         360.159          48.250  
> 2018  4 22 11 21 12.4688020  0  6                     
G 1  22844522.597       34922.495        2008.688          49.000  
G 3  21465724.143      -14044.919        -821.982          42.750  
G11  23506412.455       33390.729        2018.932          43.750  
G17  21173463.589      -37894.258       -2318.211          52.000  
G22  23018694.584       12839.028         808.353          46.250  
G28  20742729.594        5545.628         360.086          48.000  
> 2018  4 22 11 21 12.5688020  0  6                     
G 1  22846391.910       35123.464        2009.403          49.000  
G 3  21467539.379      -14127.183        -822.190          42.500  
G11  23508281.830       33592.575        2018.889          44.000  
G17  21175251.078      -38126.036       -2318.005          52.000  
G22  23020541.843       12919.836         807.972          46.500  
G28  20744568.378        5581.641         360.451          47.750  
> 2018  4 22 11 21 12.6688020  0  6                     
G 1  22848261.600       35324.467        2010.849          49.000  
G 3  21469355.590      -14209.373        -821.580          42.250  
G11  23510151.189       33794.476        2019.613          44.000  
G17  21177038.890      -38357.760       -2316.981          52.000  
G22  23022389.458       13000.706         808.725          46.250  
G28  20746406.463        5617.702         360.410          48.000  
> 2018  4 22 11 21 12.7688020  0  6                     
G 1  22850131.179       35525.575        2011.358          49.250  
G 3  21471171.473      -14291.507        -821.000          42.250  
G11  23512021.304       33996.438        2019.524          44.000  
G17  21178826.797      -38589.389       -2315.885          52.000  
G22  23024235.976       13081.665         809.939          46.250  
G28  20748246.582        5653.871         362.128          47.750  
> 2018  4 22 11 21 12.8688020  0  6                     
G 1  22852001.653       35726.845        2013.523          48.500  
G 3  21472987.525      -14373.431        -817.760          42.250  
G11  23513890.287       34198.610        2022.946          43.750  
G17  21180614.393      -38820.851       -2313.756          51.750  
G22  23026082.881       13162.795         812.730          46.250  
G28  20750084.198        5690.222         364.522          47.750  
> 2018  4 22 11 21 12.9688020  0  6                     
G 1  22853872.011       35928.325        2015.401          49.000  
G 3  21474804.223      -14455.157        -816.333          42.500  
G11  23515761.257       34400.957        2024.291          43.750  
G17  21182401.237      -39052.116       -2312.442          51.750  
G22  23027929.584       13244.134         814.508          46.500  
G28  20751923.406        5726.743         365.688          47.750  
> 2018  4 22 11 21 13.0688020  0  6                     
G 1  22855742.018       36129.965        2016.838          49.250  
G 3  21476619.426      -14536.727        -814.783          42.000  
G11  23517631.726       34603.472        2025.705          44.000  
G17  21184188.691      -39283.215       -2310.059          52.000  
G22  23029776.521       13325.630         815.705          46.750  
G28  20753762.438        5763.468         367.838          48.000  
> 2018  4 22 11 21 13.1688020  0  6                     
G 1  22857611.759       36331.708        2017.915          49.250  
G 3  21478436.539      -14618.181        -814.064          42.250  
G11  23519501.765       34806.117        2026.452          44.000  
G17  21185975.941      -39514.198       -2309.783          52.000  
G22  23031623.899       13407.250         816.791          46.000  
G28  20755600.426        5800.299         369.069          48.000  
> 2018  4 22 11 21 13.2688020  0  6                     
G 1  22859481.937       36533.498        2018.268          49.250  
G 3  21480252.876      -14699.563        -813.182          42.750  
G11  23521372.149       35008.786        2026.580          43.750  
G17  21187763.466      -39745.140       -2309.579          52.000  
G22  23033471.657       13488.913         816.283          46.500  
G28  20757440.324        5837.169         368.731          48.000  
> 2018  4 22 11 21 13.3688020  0  6                     
G 1  22861351.491       36735.312        2017.519          49.250  
G 3  21482068.681      -14780.916        -814.053          42.500  
G11  23523242.361       35211.485        2025.634          44.000  
G17  21189551.271      -39976.046       -2309.609          52.000  
G22  23035318.402       13570.626         816.436          46.000  
G28  20759276.975        5874.080         368.105          47.750  
> 2018  4 22 11 21 13.4688020  0  6                     
G 1  22863221.063       36937.075        2016.641          49.000  
G 3  21483885.304      -14862.326        -814.664          42.500  
G11  23525111.296       35414.127        2024.895          44.000  
G17  21191338.387      -40207.021       -2310.712          51.750  
G22  23037164.885       13652.253         815.849          46.000  
G28  20761114.996        5910.933         367.142          47.750  
> 2018  4 22 11 21 13.5688020  0  6                     
G 1  22865091.650       37138.689        2015.684          49.000  
G 3  21485701.339      -14943.873        -815.227          42.250  
G11  23526981.872       35616.637        2025.485          44.000  
G17  21193126.039      -40438.124       -2311.206          52.000  
G22  23039010.928       13733.762         814.543          46.250  
G28  20762955.281        5947.659         366.889          48.000  
> 2018  4 22 11 21 13.6688020  0  6                     
G 1  22866961.655       37340.275        2015.942          49.000  
G 3  21487517.058      -15025.464        -816.011          42.250  
G11  23528852.321       35819.090        2024.185          44.250  
G17  21194913.963      -40669.275       -2311.829          52.000  
G22  23040858.005       13815.217         813.871          46.250  
G28  20764791.280        5984.342         367.063          47.750  
> 2018  4 22 11 21 13.7688020  0  6                     
G 1  22868831.151       37541.784        2015.063          48.750  
G 3  21489332.873      -15107.105        -816.804          42.500  
G11  23530721.953       36021.514        2024.641          43.750  
G17  21196701.936      -40900.480       -2312.117          52.000  
G22  23042704.472       13896.651         813.934          46.250  
G28  20766629.482        6020.961         365.559          48.000  
> 2018  4 22 11 21 13.8688020  0  6                     
G 1  22870701.197       37743.272        2014.845          49.000  
G 3  21491148.639      -15188.770        -816.539          43.000  
G11  23532592.308       36223.857        2023.930          44.000  
G17  21198489.787      -41131.729       -2312.500          52.000  
G22  23044552.116       13978.025         813.845          46.500  
G28  20768469.110        6057.557         366.121          48.000  
> 2018  4 22 11 21 13.9688020  0  6                     
G 1  22872571.225       37944.735        2014.724          49.000  
G 3  21492964.457      -15270.451        -817.376          42.250  
G11  23534462.785       36426.217        2024.185          44.250  
G17  21200276.973      -41362.980       -2312.587          52.000  
G22  23046399.747       14059.395         813.012          46.250  
G28  20770306.630        6094.140         365.830          48.250  
> 2018  4 22 11 21 14.0688020  0  6                     
G 1  22874440.669       38146.144        2013.535          49.250  
G 3  21494781.079      -15352.203        -817.533          43.000  
G11  23536333.137       36628.504        2022.779          44.000  
G17  21202065.022      -41594.304       -2313.472          52.000  
G22  23048246.735       14140.714         813.594          46.250  
G28  20772146.559        6130.669         365.417          48.000  
> 2018  4 22 11 21 14.1688020  0  6                     
G 1  22876310.510       38347.549        2014.086          49.000  
G 3  21496597.605      -15433.918        -817.824          42.500  
G11  23538202.262       36830.794        2023.514          43.750  
G17  21203852.614      -41825.611       -2313.120          52.000  
G22  23050092.832       14222.029         813.172          46.500  
G28  20773984.075        6167.193         365.948          48.000  
> 2018  4 22 11 21 14.2688020  0  6                     
G 1  22878180.378       38548.978        2014.226          49.250  
G 3  21498413.393      -15515.614        -816.633          42.250  
G11  23540071.817       37033.097        2022.670          43.750  
G17  21205640.146      -42056.916       -2313.457          52.000  
G22  23051940.698       14303.357         812.672          46.500  
G28  20775821.825        6203.748         364.977          48.000  
> 2018  4 22 11 21 14.3688020  0  6                     
G 1  22880050.087       38750.339        2013.611          49.000  
G 3  21500228.784      -15597.373        -817.880          42.250  
G11  23541942.110       37235.352        2022.637          43.750  
G17  21207427.839      -42288.266       -2313.932          52.250  
G22  23053787.520       14384.645         812.450          46.250  
G28  20777662.645        6240.242         364.671          48.000  
> 2018  4 22 11 21 14.4688020  0  6                     
G 1  22881919.981       38951.735        2013.949          49.250  
G 3  21502044.607      -15679.098        -817.808          42.500  
G11  23543811.477       37437.618        2022.425          44.000  
G17  21209215.439      -42519.601       -2313.818          52.000  
G22  23055635.625       14465.953         812.867          46.500  
G28  20779500.085        6276.768         364.893          48.000  
> 2018  4 22 11 21 14.5688020  0  6                     
G 1  22883789.524       39153.087        2013.673          49.250  
G 3  21503859.933      -15760.860        -817.462          42.250  
G11  23545681.344       37639.856        2022.281          44.000  
G17  21211003.198      -42750.973       -2314.120          52.000  
G22  23057483.242       14547.229         812.603          46.250  
G28  20781339.126        6313.255         364.678          47.750  
> 2018  4 22 11 21 14.6688020  0  6                     
G 1  22885659.911       39354.365        2013.582          49.250  
G 3  21505675.879      -15842.699        -818.627          42.500  
G11  23547551.643       37842.005        2022.844          43.750  
G17  21212790.290      -42982.427       -2314.690          52.000  
G22  23059329.547       14628.420         811.969          46.500  
G28  20783177.705        6349.671         364.334          47.750  
> 2018  4 22 11 21 14.7688020  0  6                     
G 1  22887529.429       39555.631        2012.665          49.000  
G 3  21507493.081      -15924.526        -819.378          42.250  
G11  23549423.690       38044.152        2021.010          44.000  
G17  21214577.709      -43213.868       -2314.753          52.000  
G22  23061175.941       14709.641         811.864          46.500  
G28  20785015.137        6386.097         363.742          47.750  
> 2018  4 22 11 21 14.8688020  0  6                     
G 1  22889399.928       39756.858        2012.042          49.000  
G 3  21509308.956      -16006.372        -819.237          42.500  
G11  23551293.711       38246.259        2020.311          44.000  
G17  21216365.350      -43445.353       -2315.139          52.000  
G22  23063023.712       14790.792         811.677          46.500  
G28  20786854.469        6422.474         364.290          47.750  
> 2018  4 22 11 21 14.9688020  0  6                     
G 1  22891270.302       39958.070        2012.901          49.250  
G 3  21511124.805      -16088.264        -818.559          42.250  
G11  23553164.227       38448.365        2022.812          44.000  
G17  21218152.995      -43676.853       -2314.459          52.000  
G22  23064870.138       14871.945         812.451          46.500  
G28  20788692.024        6458.853         365.084          47.750  
> 2018  4 22 11 21 15.0688020  0  6                     
G 1  22893139.988       40159.381        2012.999          49.000  
G 3  21512940.496      -16170.045        -818.256          42.250  
G11  23555033.976       38650.539        2021.700          43.750  
G17  21219940.485      -43908.266       -2314.247          52.000  
G22  23066717.482       14953.207         812.811          46.500  
G28  20790529.952        6495.315         364.890          47.750  
> 2018  4 22 11 21 15.1688020  0  6                     
G 1  22895009.733       40360.712        2013.452          49.250  
G 3  21514755.616      -16251.784        -817.662          42.250  
G11  23556904.074       38852.754        2022.110          44.250  
G17  21221727.646      -44139.652       -2314.055          52.000  
G22  23068565.063       15034.473         812.740          46.250  
G28  20792370.144        6531.806         365.317          47.750  
> 2018  4 22 11 21 15.2688020  0  6                     
G 1  22896880.364       40562.108        2014.534          49.250  
G 3  21516570.569      -16333.473        -816.420          42.250  
G11  23558774.646       39055.042        2022.452          44.000  
G17  21223515.012      -44370.961       -2312.604          51.750  
G22  23070412.459       15115.839         813.935          46.750  
G28  20794207.103        6568.386         365.515          47.750  
> 2018  4 22 11 21 15.3688020  0  6                     
G 1  22898750.285       40763.576        2015.697          49.250  
G 3  21518388.343      -16415.069        -815.356          42.250  
G11  23560644.022       39257.364        2023.526          44.000  
G17  21225302.966      -44602.224       -2312.716          52.000  
G22  23072259.020       15197.240         814.120          46.000  
G28  20796045.999        6605.016         366.478          47.500  
> 2018  4 22 11 21 15.4688020  0  6                     
G 1  22900620.113       40965.076        2015.574          49.250  
G 3  21520205.165      -16496.634        -815.645          42.250  
G11  23562514.626       39459.749        2023.299          43.500  
G17  21227090.137      -44833.440       -2312.312          52.000  
G22  23074106.444       15278.709         815.232          46.250  
G28  20797884.912        6641.693         366.455          47.750  
> 2018  4 22 11 21 15.5688020  0  6                     
G 1  22902490.368       41166.569        2015.433          49.000  
G 3  21522021.234      -16578.203        -815.731          42.250  
G11  23564385.174       39662.118        2022.827          44.250  
G17  21228877.976      -45064.662       -2312.557          52.000  
G22  23075953.196       15360.152         813.806          46.250  
G28  20799722.234        6678.366         366.759          47.500  
> 2018  4 22 11 21 15.6688020  0  6                     
G 1  22904360.500       41368.080        2015.391          49.000  
G 3  21523837.254      -16659.735        -815.705          42.000  
G11  23566255.806       39864.506        2023.126          44.250  
G17  21230665.976      -45295.866       -2312.223          52.000  
G22  23077799.176       15441.633         814.797          46.500  
G28  20801562.046        6715.065         367.005          47.750  
> 2018  4 22 11 21 15.7688020  0  6                     
G 1  22906230.531       41569.602        2016.378          49.250  
G 3  21525652.849      -16741.261        -814.677          42.500  
G11  23568126.160       40066.896        2024.492          44.000  
G17  21232453.476      -45527.067       -2311.883          52.000  
G22  23079647.096       15523.112         814.594          46.250  
G28  20803400.087        6751.763         367.584          47.500  
> 2018  4 22 11 21 15.8688020  0  6                     
G 1  22908100.405       41771.091        2015.843          49.000  
G 3  21527467.457      -16822.806        -815.503          42.000  
G11  23569995.782       40269.277        2024.100          44.000  
G17  21234241.103      -45758.272       -2312.129          52.000  
G22  23081494.976       15604.598         814.911          46.250  
G28  20805238.583        6788.462         366.236          47.750  
> 2018  4 22 11 21 15.9688020  0  6                     
G 1  22909970.089       41972.542        2014.402          49.000  
G 3  21529285.027      -16904.387        -816.053          42.250  
G11  23571865.636       40471.614        2023.340          44.000  
G17  21236028.923      -45989.530       -2312.871          52.000  
G22  23083341.519       15686.017         814.111          46.500  
G28  20807077.802        6825.114         366.340          47.750  
> 2018  4 22 11 21 16.0688020  0  6                     
G 1  22911840.463       42173.975        2014.443          49.000  
G 3  21531101.336      -16985.982        -815.771          42.000  
G11  23573735.144       40673.922        2023.611          44.000  
G17  21237816.396      -46220.815       -2312.244          52.000  
G22  23085188.296       15767.429         813.978          46.250  
G28  20808914.391        6861.747         366.743          47.750  
> 2018  4 22 11 21 16.1688020  0  6                     
G 1  22913710.278       42375.426        2014.631          49.000  
G 3  21532918.269      -17067.548        -815.643          42.250  
G11  23575605.090       40876.255        2023.598          44.250  
G17  21239604.294      -46452.060       -2312.149          52.000  
G22  23087035.268       15848.880         815.676          46.500  
G28  20810754.631        6898.406         367.068          47.750  
> 2018  4 22 11 21 16.2688020  0  6                     
G 1  22915579.565       42576.913        2014.489          49.000  
G 3  21534734.007      -17149.077        -815.433          42.250  
G11  23577475.074       41078.616        2023.226          44.250  
G17  21241391.771      -46683.283       -2312.890          52.000  
G22  23088882.681       15930.351         814.268          46.500  
G28  20812593.228        6935.102         366.234          47.750  
> 2018  4 22 11 21 16.3688020  0  6                     
G 1  22917449.059       42778.361        2014.949          49.000  
G 3  21536549.126      -17230.654        -814.912          42.000  
G11  23579345.038       41280.938        2023.720          44.250  
G17  21243179.481      -46914.554       -2312.546          52.000  
G22  23090729.379       16011.768         814.145          46.500  
G28  20814430.729        6971.760         366.933          47.750  
> 2018  4 22 11 21 16.4688020  0  6                     
G 1  22919318.792       42979.747        2013.479          49.000  
G 3  21538365.000      -17312.264        -816.323          42.250  
G11  23581215.195       41483.194        2021.066          44.250  
G17  21244966.524      -47145.865       -2313.830          52.000  
G22  23092576.683       16093.167         812.615          46.500  
G28  20816271.640        7008.370         365.264          47.500  
> 2018  4 22 11 21 16.5688020  0  6                     
G 1  22921189.060       43181.088        2013.578          49.000  
G 3  21540180.672      -17393.944        -817.292          42.000  
G11  23583085.887       41685.419        2021.560          44.500  
G17  21246754.194      -47377.242       -2314.202          52.000  
G22  23094424.641       16174.496         813.161          46.500  
G28  20818108.564        7044.931         365.166          47.750  
> 2018  4 22 11 21 16.6688020  0  6                     
G 1  22923057.907       43382.398        2013.096          49.000  
G 3  21541996.789      -17475.626        -817.490          42.250  
G11  23584956.639       41887.596        2022.409          44.000  
G17  21248541.781      -47608.641       -2314.233          52.000  
G22  23096271.896       16255.808         812.878          46.250  
G28  20819947.275        7081.464         365.359          47.500  
> 2018  4 22 11 21 16.7688020  0  6                     
G 1  22924927.976       43583.689        2013.714          48.750  
G 3  21543813.662      -17557.317        -817.157          42.500  
G11  23586826.396       42089.784        2022.723          44.000  
G17  21250329.282      -47840.040       -2313.181          52.000  
G22  23098117.957       16337.103         813.145          46.500  
G28  20821786.838        7117.994         365.493          47.750  
> 2018  4 22 11 21 16.8688020  0  6                     
G 1  22926797.839       43785.014        2012.644          49.000  
G 3  21545627.889      -17638.956        -818.186          41.750  
G11  23588696.426       42291.969        2021.940          44.000  
G17  21252117.098      -48071.420       -2314.406          52.000  
G22  23099964.874       16418.448         812.772          46.250  
G28  20823624.244        7154.563         365.147          47.500  
> 2018  4 22 11 21 16.9688020  0  6                     
G 1  22928667.926       43986.318        2013.115          49.250  
G 3  21547443.314      -17720.658        -816.679          42.000  
G11  23590565.657       42494.138        2021.457          44.250  
G17  21253904.049      -48302.830       -2314.214          52.000  
G22  23101811.064       16499.759         813.282          46.250  
G28  20825464.325        7191.093         365.028          47.750  
> 2018  4 22 11 21 17.0688020  0  6                     
G 1  22930538.084       44187.585        2013.461          49.250  
G 3  21549258.964      -17802.364        -817.582          42.250  
G11  23592435.981       42696.286        2021.497          44.000  
G17  21255691.937      -48534.267       -2314.401          52.000  
G22  23103658.086       16581.034         812.407          46.250  
G28  20827302.084        7227.604         365.744          47.750  
> 2018  4 22 11 21 17.1688020  0  6                     
G 1  22932408.071       44388.868        2013.597          49.250  
G 3  21551074.358      -17884.036        -816.979          42.000  
G11  23594306.319       42898.451        2022.534          44.000  
G17  21257479.088      -48765.682       -2313.333          52.000  
G22  23105505.693       16662.341         812.966          46.750  
G28  20829140.172        7264.143         366.309          47.750  
> 2018  4 22 11 21 17.2688020  0  6                     
G 1  22934278.030       44590.242        2014.527          49.250  
G 3  21552890.812      -17965.619        -815.760          42.000  
G11  23596176.070       43100.690        2021.838          44.000  
G17  21259266.440      -48997.011       -2313.311          52.000  
G22  23107353.071       16743.743         814.139          46.500  
G28  20830980.367        7300.764         366.589          47.750  
> 2018  4 22 11 21 17.3688020  0  6                     
G 1  22936147.525       44791.689        2015.005          48.750  
G 3  21554708.484      -18047.130        -814.169          42.250  
G11  23598046.019       43303.005        2024.000          44.250  
G17  21261054.475      -49228.269       -2312.307          52.000  
G22  23109201.162       16825.211         814.906          46.500  
G28  20832817.531        7337.466         367.267          48.000  
> 2018  4 22 11 21 17.4688020  0  6                     
G 1  22938017.481       44993.203        2015.921          49.250  
G 3  21556526.199      -18128.577        -814.552          42.250  
G11  23599917.131       43505.378        2024.336          44.250  
G17  21262841.858      -49459.459       -2311.829          52.000  
G22  23111047.271       16906.771         817.026          46.500  
G28  20834656.826        7374.240         368.854          47.750  
> 2018  4 22 11 21 17.5688020  0  6                     
G 1  22939887.180       45194.774        2016.393          49.250  
G 3  21558341.636      -18209.944        -813.242          42.000  
G11  23601787.004       43707.843        2024.880          44.250  
G17  21264629.678      -49690.583       -2310.789          52.000  
G22  23112893.726       16988.368         817.117          46.250  
G28  20836495.612        7411.075         369.279          47.750  
> 2018  4 22 11 21 17.6688020  0  6                     
G 1  22941756.689       45396.429        2017.140          49.250  
G 3  21560157.534      -18291.215        -811.925          42.000  
G11  23603656.967       43910.368        2025.694          44.000  
G17  21266417.622      -49921.627       -2310.219          51.750  
G22  23114740.091       17070.065         817.274          46.250  
G28  20838333.363        7448.004         369.339          47.500  
> 2018  4 22 11 21 17.7688020  0  6                     
G 1  22943626.258       45598.100        2017.440          49.000  
G 3  21561973.938      -18372.492        -812.790          42.250  
G11  23605527.844       44112.908        2026.515          43.750  
G17  21268205.020      -50152.660       -2310.155          51.750  
G22  23116588.196       17151.765         817.127          46.750  
G28  20840174.118        7484.932         369.220          47.750  
> 2018  4 22 11 21 17.8688020  0  6                     
G 1  22945496.648       45799.785        2017.225          49.000  
G 3  21563789.018      -18453.729        -811.421          41.500  
G11  23607398.143       44315.473        2026.402          44.000  
G17  21269992.754      -50383.659       -2310.301          51.750  
G22  23118435.856       17233.507         817.030          46.000  
G28  20842010.855        7521.908         369.578          47.750  
> 2018  4 22 11 21 17.9688020  0  6                     
G 1  22947366.750       46001.502        2017.539          49.000  
G 3  21565605.689      -18534.946        -812.235          42.000  
G11  23609268.218       44518.048        2025.914          44.250  
G17  21271780.163      -50614.643       -2309.717          52.000  
G22  23120282.164       17315.273         817.877          46.250  
G28  20843849.639        7558.899         369.838          47.750  
> 2018  4 22 11 21 18.0688020  0  6                     
G 1  22949237.331       46203.194        2016.714          49.000  
G 3  21567422.647      -18616.166        -813.053          41.750  
G11  23611136.566       44720.548        1972.507          43.750  
G17  21273568.093      -50845.650       -2310.622          52.000  
G22  23122129.289       17397.026         817.743          46.750  
G28  20845688.468        7595.876         369.023          47.750  
> 2018  4 22 11 21 18.3688020  0  6                     
G 1  22954846.160       46808.199        2015.484          49.000  
G 3  21572868.444      -18859.876        -813.868          42.250  
G11  23616745.274       45328.246        2024.637          44.000  
G17  21278931.020      -51538.720       -2311.147          52.000  
G22  23127670.996       17642.217         816.826          46.250  
G28  20851204.571        7706.773         368.783          47.750  
> 2018  4 22 11 21 18.4688020  0  6                     
G 1  22956715.875       47009.777        2015.238          49.000  
G 3  21574684.590      -18941.186        -812.771          42.000  
G11  23618615.614       45530.694        2024.090          44.250  
G17  21280718.278      -51769.833       -2311.585          52.000  
G22  23129517.756       17723.875         816.576          46.250  
G28  20853042.691        7743.666         368.715          47.750  
> 2018  4 22 11 21 18.5688020  0  6                     
G 1  22958585.363       47211.315        2014.827          49.000  
G 3  21576499.717      -19022.540        -814.462          41.500  
G11  23620487.247       45733.104        2023.677          43.750  
G17  21282506.091      -52000.985       -2312.240          52.000  
G22  23131364.034       17805.465         814.813          46.250  
G28  20854882.480        7780.509         367.829          48.000  
> 2018  4 22 11 21 18.6688020  0  6                     
G 1  22960456.030       47412.750        2013.768          49.000  
G 3  21578316.448      -19103.971        -815.044          42.000  
G11  23622357.808       45935.396        2022.619          43.500  
G17  21284293.381      -52232.248       -2313.083          52.000  
G22  23133211.282       17886.975         813.836          46.500  
G28  20856719.274        7817.244         366.567          48.000  
> 2018  4 22 11 21 18.7688020  0  6                     
G 1  22962325.522       47614.102        2013.945          49.000  
G 3  21580133.808      -19185.511        -815.514          42.000  
G11  23624227.696       46137.621        2021.799          43.750  
G17  21286080.675      -52463.575       -2313.114          51.750  
G22  23135058.724       17968.418         814.646          46.500  
G28  20858558.693        7853.913         366.566          48.000  
> 2018  4 22 11 21 18.8688020  0  6                     
G 1  22964195.631       47815.436        2012.898          48.750  
G 3  21581950.421      -19267.052        -816.632          42.500  
G11  23626097.296       46339.835        2022.190          43.750  
G17  21287868.543      -52694.927       -2313.581          51.750  
G22  23136905.934       18049.837         814.465          46.250  
G28  20860396.922        7890.567         366.095          47.750  
> 2018  4 22 11 21 18.9688020  0  6                     
G 1  22966065.413       48016.741        2012.721          49.000  
G 3  21583766.637      -19348.625        -815.368          41.500  
G11  23627967.207       46541.991        2021.893          43.500  
G17  21289655.897      -52926.321       -2314.020          52.000  
G22  23138753.436       18131.212         813.604          46.250  
G28  20862235.029        7927.187         366.214          47.750  
> 2018  4 22 11 21 19.0688020  0  6                     
G 1  22967935.430       48217.982        2012.151          48.750  
G 3  21585582.096      -19430.229        -815.670          41.750  
G11  23629836.931       46744.111        2020.037          43.500  
G17  21291443.679      -53157.767       -2314.898          51.750  
G22  23140600.791       18212.549         812.681          46.750  
G28  20864075.003        7963.763         365.926          47.750  
> 2018  4 22 11 21 19.1688020  0  6                     
G 1  22969805.490       48419.167        2011.625          49.000  
G 3  21587397.131      -19511.900        -817.325          41.250  
G11  23631705.799       46946.158        2021.090          43.750  
G17  21293231.283      -53389.283       -2315.886          52.000  
G22  23142448.422       18293.823         811.866          46.500  
G28  20865911.835        8000.264         364.858          47.750  
> 2018  4 22 11 21 19.2688020  0  6                     
G 1  22971675.178       48620.310        2011.325          49.000  
G 3  21589212.275      -19593.621        -817.728          42.250  
G11  23633576.188       47148.173        2020.563          43.750  
G17  21295018.783      -53620.829       -2316.161          52.250  
G22  23144294.647       18375.074         812.298          46.750  
G28  20867750.409        8036.750         364.822          47.750  
> 2018  4 22 11 21 19.3688020  0  6                     
G 1  22973544.801       48821.460        2011.888          48.750  
G 3  21591028.501      -19675.297        -817.299          42.000  
G11  23635446.072       47350.191        2020.341          43.750  
G17  21296806.059      -53852.345       -2314.877          52.250  
G22  23146142.345       18456.325         813.212          46.500  
G28  20869590.196        8073.248         365.349          47.750  
> 2018  4 22 11 21 19.4688020  0  6                     
G 1  22975414.611       49022.718        2012.833          49.000  
G 3  21592846.020      -19756.880        -815.713          42.000  
G11  23637316.663       47552.326        2022.018          44.000  
G17  21298593.047      -54083.775       -2314.178          51.750  
G22  23147988.513       18537.683         813.580          46.250  
G28  20871427.229        8109.848         366.433          48.000  
> 2018  4 22 11 21 19.5688020  0  6                     
G 1  22977284.336       49224.030        2013.279          49.000  
G 3  21594662.636      -19838.388        -816.170          41.250  
G11  23639186.047       47754.506        2021.947          44.000  
G17  21300380.829      -54315.144       -2313.677          51.750  
G22  23149835.146       18619.110         814.234          46.500  
G28  20873266.827        8146.504         366.117          48.000  
> 2018  4 22 11 21 19.6688020  0  6                     
G 1  22979154.090       49425.488        2014.715          48.750  
G 3  21596478.144      -19919.766        -813.391          41.250  
G11  23641056.489       47956.828        2024.327          43.750  
G17  21302168.465      -54546.375       -2312.065          51.750  
G22  23151683.108       18700.672         815.944          46.500  
G28  20875104.414        8183.312         368.282          47.750  
> 2018  4 22 11 21 19.7688020  0  6                     
G 1  22981023.416       49626.945        2014.804          48.750  
G 3  21598293.930      -20001.137        -813.494          42.000  
G11  23642925.941       48159.164        2023.143          44.000  
G17  21303956.299      -54777.597       -2312.180          52.250  
G22  23153529.911       18782.257         815.145          46.500  
G28  20876942.008        8220.133         367.958          47.750  
> 2018  4 22 11 21 19.8688020  0  6                     
G 1  22982893.951       49828.482        2015.353          48.750  
G 3  21600109.623      -20082.427        -812.947          41.750  
G11  23644797.433       48361.548        2023.965          44.250  
G17  21305743.970      -55008.743       -2311.513          52.000  
G22  23155377.571       18863.920         816.459          46.500  
G28  20878782.967        8257.022         368.730          48.000  
> 2018  4 22 11 21 19.9688020  0  6                     
G 1  22984764.023       50030.035        2015.615          48.750  
G 3  21601925.542      -20163.680        -812.934          41.750  
G11  23646667.077       48563.974        2025.127          43.750  
G17  21307531.486      -55239.875       -2311.235          52.000  
G22  23157224.606       18945.593         816.904          46.500  
G28  20880620.360        8293.951         369.481          48.000  
> 2018  4 22 11 21 20.0688020  0  6                     
G 1  22986633.993       50231.557        2015.356          49.000  
G 3  21603742.733      -20244.960        -813.489          42.000  
G11  23648537.848       48766.368        2023.574          44.000  
G17  21309319.410      -55471.033       -2311.653          52.000  
G22  23159071.034       19027.239         816.839          46.750  
G28  20882459.997        8330.843         368.920          48.000  
> 2018  4 22 11 21 20.1688020  0  6                     
G 1  22988503.547       50433.084        2015.214          49.000  
G 3  21605559.525      -20326.228        -814.250          41.500  
G11  23650407.972       48968.751        2024.453          43.750  
G17  21311106.733      -55702.196       -2312.324          52.000  
G22  23160918.828       19108.884         816.074          46.000  
G28  20884298.908        8367.727         369.380          47.750  
> 2018  4 22 11 21 20.2688020  0  6                     
G 1  22990374.147       50634.565        2014.992          48.250  
G 3  21607374.642      -20407.538        -812.854          41.750  
G11  23652278.466       49171.102        2024.095          43.500  
G17  21312894.240      -55933.379       -2311.988          51.500  
G22  23162765.865       19190.507         816.041          46.750  
G28  20886136.751        8404.591         368.944          47.750  
> 2018  4 22 11 21 20.3688020  0  6                     
G 1  22992243.719       50836.022        2014.627          48.750  
G 3  21609191.492      -20488.902        -814.398          42.000  
G11  23654147.803       49373.433        2023.019          43.750  
G17  21314682.281      -56164.609       -2311.815          51.750  
G22  23164614.037       19272.101         816.241          46.750  
G28  20887977.282        8441.426         368.231          47.750  
> 2018  4 22 11 21 20.4688020  0  6                     
G 1  22994112.600       51037.459        2014.259          48.750  
G 3  21611007.411      -20570.233        -813.347          41.500  
G11  23656017.915       49575.730        2023.249          44.250  
G17  21316469.468      -56395.844       -2312.814          52.000  
G22  23166462.030       19353.694         815.371          46.500  
G28  20889815.101        8478.265         367.846          48.000  
> 2018  4 22 11 21 20.5688020  0  6                     
G 1  22995983.024       51238.860        2013.827          48.750  
G 3  21612825.526      -20651.597        -814.310          41.750  
G11  23657888.137       49778.000        2022.416          44.000  
G17  21318257.216      -56627.116       -2313.356          52.000  
G22  23168308.074       19435.246         815.533          46.250  
G28  20891653.544        8515.048         367.017          47.750  
> 2018  4 22 11 21 20.6688020  0  6                     
G 1  22997852.770       51440.217        2013.323          48.750  
G 3  21614642.531      -20732.996        -814.192          41.750  
G11  23659758.492       49980.225        2022.325          43.750  
G17  21320044.684      -56858.443       -2313.311          51.750  
G22  23170154.656       19516.752         814.165          46.750  
G28  20893492.447        8551.804         367.208          48.000  
> 2018  4 22 11 21 20.7688020  0  6                     
G 1  22999722.504       51641.471        2012.114          48.750  
G 3  21616457.861      -20814.519        -816.185          41.500  
G11  23661627.850       50182.348        2022.703          43.750  
G17  21321831.851      -57089.858       -2314.121          52.000  
G22  23172001.405       19598.162         814.488          46.750  
G28  20895328.692        8588.457         366.478          48.000  
> 2018  4 22 11 21 20.8688020  0  6                     
G 1  23001592.806       51842.797        2013.470          49.000  
G 3  21618274.294      -20895.943        -813.899          42.000  
G11  23663497.593       50384.526        2022.364          43.750  
G17  21323620.048      -57321.210       -2313.612          52.000  
G22  23173848.628       19679.641         814.962          46.500  
G28  20897168.075        8625.186         367.815          47.750  
> 2018  4 22 11 21 20.9688020  0  6                     
G 1  23003463.129       52044.152        2013.933          48.750  
G 3  21620089.930      -20977.365        -814.815          42.000  
G11  23665367.681       50586.757        2022.587          43.500  
G17  21325407.807      -57552.529       -2313.026          52.000  
G22  23175695.752       19761.155         815.686          46.500  
G28  20899007.361        8661.940         367.594          48.000  
> 2018  4 22 11 21 21.0688020  0  6                     
G 1  23005332.916       52245.590        2015.133          48.750  
G 3  21621905.188      -21058.667        -812.215          41.750  
G11  23667237.966       50789.052        2023.797          43.750  
G17  21327195.431      -57783.755       -2311.543          52.000  
G22  23177542.233       19842.765         816.629          46.750  
G28  20900846.030        8698.792         369.195          48.000  
> 2018  4 22 11 21 21.1688020  0  6                     
G 1  23007202.343       52447.071        2015.380          48.750  
G 3  21623721.903      -21139.946        -812.990          41.750  
G11  23669109.032       50991.401        2024.137          43.750  
G17  21328982.594      -58014.958       -2311.498          52.000  
G22  23179390.033       19924.415         816.516          46.750  
G28  20902686.245        8735.692         370.143          48.000  
> 2018  4 22 11 21 21.2688020  0  6                     
G 1  23009072.989       52648.628        2016.450          48.750  
G 3  21625537.366      -21221.115        -811.356          41.750  
G11  23670978.256       51193.831        2024.884          43.750  
G17  21330770.140      -58246.067       -2310.970          51.750  
G22  23181236.882       20006.147         817.812          46.750  
G28  20904522.909        8772.675         370.403          47.750  
> 2018  4 22 11 21 21.3688020  0  6                     
G 1  23010943.014       52850.226        2016.061          48.500  
G 3  21627354.013      -21302.242        -810.998          41.500  
G11  23672848.929       51396.293        2025.039          43.750  
G17  21332557.753      -58477.137       -2310.795          51.750  
G22  23183083.521       20087.924         817.617          46.500  
G28  20906362.100        8809.700         371.144          48.000  
> 2018  4 22 11 21 21.4688020  0  6                     
G 1  23012812.793       53051.855        2016.211          48.750  
G 3  21629170.496      -21383.342        -811.282          41.000  
G11  23674717.982       51598.785        2025.625          43.750  
G17  21334345.194      -58708.175       -2310.064          52.000  
G22  23184930.174       20169.743         818.426          47.000  
G28  20908200.147        8846.757         371.606          47.750  
> 2018  4 22 11 21 21.5688020  0  6                     
G 1  23014682.815       53253.531        2017.078          48.750  
G 3  21630985.939      -21464.393        -811.331          41.500  
G11  23676588.074       51801.322        2026.100          43.750  
G17  21336133.135      -58939.171       -2309.686          51.750  
G22  23186777.737       20251.596         818.130          46.750  
G28  20910037.480        8883.865         371.907          47.750  
> 2018  4 22 11 21 21.6688020  0  6                     
G 1  23016552.441       53455.272        2017.532          48.500  
G 3  21632802.588      -21545.372        -809.990          41.750  
G11  23678459.584       52003.922        2026.454          43.500  
G17  21337920.549      -59170.105       -2309.332          51.750  
G22  23188625.138       20333.523         819.805          46.750  
G28  20911877.332        8921.022         371.263          47.750  
> 2018  4 22 11 21 21.7688020  0  6                     
G 1  23018422.543       53656.987        2017.231          48.500  
G 3  21634617.536      -21626.340        -809.080          41.500  
G11  23680329.214       52206.509        2025.607          43.750  
G17  21339708.320      -59401.055       -2309.339          51.750  
G22  23190472.810       20415.438         819.323          46.750  
G28  20913714.919        8958.192         372.293          48.000  
> 2018  4 22 11 21 21.8688020  0  6                     
G 1  23020293.114       53858.731        2017.608          48.750  
G 3  21636433.647      -21707.312        -808.862          41.500  
G11  23682199.277       52409.117        2026.455          43.750  
G17  21341495.468      -59631.986       -2309.080          51.750  
G22  23192319.952       20497.370         819.742          46.500  
G28  20915553.113        8995.372         372.188          48.000  
> 2018  4 22 11 21 21.9688020  0  6                     
G 1  23022162.638       54060.447        2017.038          48.750  
G 3  21638250.158      -21788.311        -810.343          41.750  
G11  23684068.947       52611.685        2026.340          43.750  
G17  21343282.785      -59862.936       -2309.545          51.500  
G22  23194167.557       20579.288         819.066          46.500  
G28  20917393.719        9032.545         371.766          48.000  
> 2018  4 22 11 21 22.0688020  0  6                     
G 1  23024032.772       54262.189        2018.086          48.750  
G 3  21640066.677      -21869.264        -810.651          42.000  
G11  23685939.491       52814.302        2026.876          43.750  
G17  21345070.770      -60093.860       -2309.452          51.750  
G22  23196015.311       20661.228         819.127          46.750  
G28  20919230.224        9069.744         372.347          48.000  
> 2018  4 22 11 21 22.1688020  0  6                     
G 1  23025903.226       54463.920        2017.432          49.000  
G 3  21641882.856      -21950.211        -810.246          41.750  
G11  23687809.658       53016.885        2026.149          43.500  
G17  21346858.978      -60324.789       -2309.811          51.750  
G22  23197862.482       20743.174         819.868          46.750  
G28  20921069.549        9106.945         371.806          47.750  
> 2018  4 22 11 21 22.2688020  0  6                     
G 1  23027773.329       54665.659        2017.939          48.750  
G 3  21643698.594      -22031.176        -810.202          41.500  
G11  23689679.953       53219.484        2026.736          43.500  
G17  21348646.640      -60555.726       -2309.346          51.750  
G22  23199708.541       20825.121         819.617          46.750  
G28  20922908.651        9144.124         371.859          47.500  
> 2018  4 22 11 21 22.3688020  0  6                     
G 1  23029643.586       54867.373        2017.538          48.750  
G 3  21645514.477      -22112.124        -809.804          41.250  
G11  23691549.916       53422.050        2026.498          43.250  
G17  21350433.962      -60786.669       -2309.658          51.750  
G22  23201555.658       20907.041         819.416          46.500  
G28  20924746.552        9181.309         371.452          47.750  
> 2018  4 22 11 21 22.4688020  0  6                     
G 1  23031512.951       55069.033        2016.142          48.500  
G 3  21647329.724      -22193.139        -810.475          41.000  
G11  23693419.226       53624.585        2025.200          43.250  
G17  21352221.356      -61017.664       -2310.063          51.750  
G22  23203402.020       20988.934         819.930          46.500  
G28  20926587.640        9218.429         370.751          47.750  
> 2018  4 22 11 21 22.5688020  0  6                     
G 1  23033383.053       55270.634        2016.018          48.750  
G 3  21649145.630      -22274.193        -810.655          40.750  
G11  23695290.445       53827.040        2025.077          43.500  
G17  21354009.182      -61248.740       -2310.980          51.750  
G22  23205248.732       21070.751         818.499          46.500  
G28  20928424.283        9255.512         370.937          48.000  
> 2018  4 22 11 21 22.6688020  0  6                     
G 1  23035252.534       55472.214        2016.212          48.750  
G 3  21650962.382      -22355.266        -809.873          41.250  
G11  23697159.728       54029.484        2025.883          43.750  
G17  21355796.629      -61479.818       -2310.777          51.500  
G22  23207095.788       21152.560         819.424          46.250  
G28  20930263.314        9292.562         371.203          47.750  
> 2018  4 22 11 21 22.7688020  0  6                     
G 1  23037122.889       55673.755        2015.101          48.750  
G 3  21652778.284      -22436.371        -811.742          41.500  
G11  23699030.255       54231.902        2024.543          43.750  
G17  21357584.201      -61710.928       -2311.552          51.750  
G22  23208943.244       21234.345         817.525          46.500  
G28  20932101.979        9329.605         369.436          47.750  
> 2018  4 22 11 21 22.8688020  0  6                     
G 1  23038992.800       55875.320        2015.927          48.500  
G 3  21654594.353      -22517.467        -811.226          41.250  
G11  23700899.938       54434.316        2024.928          43.250  
G17  21359371.646      -61942.027       -2311.463          51.500  
G22  23210790.925       21316.128         818.049          46.750  
G28  20933940.044        9366.654         370.820          47.750  
> 2018  4 22 11 21 22.9688020  0  6                     
G 1  23040863.113       56076.868        2016.207          48.750  
G 3  21656409.552      -22598.546        -809.281          41.500  
G11  23702770.247       54636.714        2025.684          43.500  
G17  21361158.909      -62173.137       -2310.573          51.750  
G22  23212638.005       21397.903         817.949          46.750  
G28  20935779.906        9403.687         371.264          47.750  
> 2018  4 22 11 21 23.0688020  0  6                     
G 1  23042732.832       56278.474        2016.964          48.750  
G 3  21658225.712      -22679.591        -808.673          41.250  
G11  23704640.162       54839.196        2026.365          43.250  
G17  21362946.654      -62404.187       -2310.432          51.750  
G22  23214486.483       21479.754         819.366          46.500  
G28  20937616.892        9440.793         372.132          47.750  
> 2018  4 22 11 21 23.1688020  0  6                     
G 1  23044603.064       56480.146        2016.825          48.500  
G 3  21660041.589      -22760.563        -810.626          41.750  
G11  23706512.264       55041.691        2024.852          43.750  
G17  21364733.731      -62635.188       -2310.778          51.750  
G22  23216334.504       21561.658         818.412          46.750  
G28  20939455.200        9477.946         371.492          47.750  
> 2018  4 22 11 21 23.2688020  0  6                     
G 1  23046472.481       56681.820        2017.058          48.500  
G 3  21661858.445      -22841.502        -809.469          42.000  
G11  23708382.937       55244.241        2026.076          43.500  
G17  21366521.234      -62866.164       -2310.055          51.500  
G22  23218181.798       21643.592         819.238          46.750  
G28  20941295.950        9515.132         372.344          47.750  
> 2018  4 22 11 21 23.3688020  0  6                     
G 1  23048342.055       56883.578        2017.514          48.750  
G 3  21663674.868      -22922.395        -808.901          41.500  
G11  23710252.935       55446.856        2026.613          43.500  
G17  21368308.804      -63097.068       -2309.314          51.750  
G22  23220028.726       21725.601         820.194          46.500  
G28  20943132.675        9552.396         372.937          48.000  
> 2018  4 22 11 21 23.4688020  0  6                     
G 1  23050212.658       57085.338        2017.964          48.750  
G 3  21665492.033      -23003.240        -808.804          41.250  
G11  23712123.350       55649.474        2026.682          43.500  
G17  21370096.486      -63327.962       -2308.593          51.750  
G22  23221876.213       21807.610         819.466          47.000  
G28  20944972.148        9589.664         372.996          47.750  
> 2018  4 22 11 21 23.5688020  0  6                     
G 1  23052082.332       57287.107        2018.730          49.000  
G 3  21667306.721      -23084.053        -807.197          41.250  
G11  23713992.590       55852.110        2026.688          43.500  
G17  21371884.175      -63558.841       -2308.368          51.750  
G22  23223723.594       21889.639         820.045          47.250  
G28  20946810.904        9626.953         372.953          47.750  
> 2018  4 22 11 21 23.6688020  0  6                     
G 1  23053952.261       57488.910        2018.166          49.000  
G 3  21669122.500      -23164.858        -808.161          41.000  
G11  23715862.673       56054.772        2026.467          43.000  
G17  21373671.810      -63789.687       -2308.844          51.750  
G22  23225570.648       21971.700         820.575          46.750  
G28  20948649.290        9664.280         373.386          48.000  
> 2018  4 22 11 21 23.7688020  0  6                     
G 1  23055822.036       57690.718        2018.010          48.750  
G 3  21670936.990      -23245.667        -808.169          40.750  
G11  23717733.354       56257.439        2026.534          43.500  
G17  21375459.452      -64020.543       -2308.707          51.750  
G22  23227417.380       22053.780         821.147          46.500  
G28  20950490.394        9701.606         373.090          48.250  
> 2018  4 22 11 21 23.8688020  0  6                     
G 1  23057692.230       57892.519        2018.319          48.750  
G 3  21672753.260      -23326.444        -808.312          40.500  
G11  23719602.605       56460.098        2027.685          43.250  
G17  21377247.475      -64251.383       -2308.321          52.000  
G22  23229264.462       22135.863         820.742          46.750  
G28  20952326.748        9738.949         373.619          48.000  
> 2018  4 22 11 21 23.9688020  0  6                     
G 1  23059562.528       58094.363        2018.469          48.750  
G 3  21674569.917      -23407.199        -809.247          40.500  
G11  23721471.625       56662.780        2026.556          43.500  
G17  21379034.682      -64482.197       -2308.089          51.750  
G22  23231110.798       22217.984         821.044          46.750  
G28  20954165.906        9776.326         373.605          47.750  
> 2018  4 22 11 21 24.0688020  0  6                     
G 1  23061432.289       58296.235        2019.399          48.750  
G 3  21676385.978      -23487.904        -806.308          40.750  
G11  23723340.597       56865.470        2007.533          42.750  
G17  21380822.259      -64712.982       -2308.041          51.500  
G22  23232957.692       22300.118         821.735          47.000  
G28  20956004.534        9813.722         374.584          48.000  
> 2018  4 22 11 21 24.1688020  0  6                     
G 1  23063302.935       58498.139        2019.139          48.750  
G 3  21678201.698      -23568.571        -807.121          40.750  
G11  23725210.828       57068.257        2018.132          43.000  
G17  21382609.533      -64943.726       -2307.887          51.500  
G22  23234804.547       22382.312         821.346          47.000  
G28  20957842.332        9851.170         374.855          48.000  
> 2018  4 22 11 21 24.2688020  0  6                     
G 1  23065172.190       58700.018        2019.107          48.750  
G 3  21680018.137      -23649.261        -806.798          41.250  
G11  23727081.342       57271.026        2028.104          43.000  
G17  21384396.962      -65174.496       -2307.833          51.750  
G22  23236653.151       22464.475         821.862          47.000  
G28  20959682.340        9888.600         373.823          48.000  
> 2018  4 22 11 21 24.3688020  0  6                     
G 1  23067041.863       58901.908        2018.772          48.750  
G 3  21681835.008      -23729.940        -807.081          41.500  
G11  23728951.540       57473.771        2028.504          43.500  
G17  21386184.964      -65405.261       -2308.161          51.750  
G22  23238500.824       22546.656         822.320          46.750  
G28  20961519.742        9926.034         374.360          47.250  
> 2018  4 22 11 21 24.4688020  0  6                     
G 1  23068912.548       59103.768        2018.428          48.750  
G 3  21683652.134      -23810.645        -808.041          41.250  
G11  23730821.600       57676.500        2028.205          43.250  
G17  21387972.679      -65636.046       -2308.022          51.750  
G22  23240348.428       22628.807         821.707          46.750  
G28  20963358.593        9963.442         373.759          47.500  
> 2018  4 22 11 21 24.5688020  0  6                     
G 1  23070782.571       59305.591        2018.120          49.000  
G 3  21685467.815      -23891.382        -807.831          41.500  
G11  23732691.580       57879.165        2026.730          43.250  
G17  21389760.271      -65866.875       -2308.647          51.500  
G22  23242196.413       22710.924         821.164          46.750  
G28  20965199.080       10000.822         373.503          48.250  
> 2018  4 22 11 21 24.6688020  0  6                     
G 1  23072652.129       59507.404        2018.381          49.000  
G 3  21687283.916      -23972.097        -807.811          41.250  
G11  23734563.299       58081.842        2026.399          43.500  
G17  21391547.812      -66097.703       -2308.656          51.750  
G22  23244042.032       22793.043         821.478          46.500  
G28  20967035.786       10038.209         373.430          48.250  
> 2018  4 22 11 21 24.7688020  0  6                     
G 1  23074521.793       59709.193        2017.820          48.750  
G 3  21689099.517      -24052.859        -807.255          41.500  
G11  23736432.646       58284.481        2026.530          43.500  
G17  21393335.722      -66328.552       -2308.682          51.750  
G22  23245889.488       22875.131         820.456          46.500  
G28  20968875.183       10075.579         373.539          47.750  
> 2018  4 22 11 21 24.8688020  0  6                     
G 1  23076391.452       59910.944        2017.387          48.750  
G 3  21690914.931      -24133.651        -808.146          41.250  
G11  23738302.691       58487.089        2026.402          43.500  
G17  21395123.210      -66559.454       -2309.674          51.750  
G22  23247736.295       22957.190         820.229          46.750  
G28  20970713.487       10112.880         372.607          47.250  
> 2018  4 22 11 21 24.9688020  0  6                     
G 1  23078261.642       60112.678        2017.210          49.000  
G 3  21692731.034      -24214.445        -807.503          41.250  
G11  23740172.390       58689.670        2025.807          43.250  
G17  21396910.802      -66790.364       -2309.458          51.500  
G22  23249583.699       23039.243         820.459          46.750  
G28  20972551.604       10150.176         372.883          47.500  
> 2018  4 22 11 21 25.0688020  0  6                     
G 1  23080132.016       60314.423        2018.242          49.000  
G 3  21694547.766      -24295.238        -807.621          41.000  
G11  23742041.716       58892.266        2026.041          43.000  
G17  21398698.795      -67021.269       -2309.278          51.500  
G22  23251431.567       23121.301         821.306          46.500  
G28  20974392.706       10187.500         373.736          48.250  
> 2018  4 22 11 21 25.1688020  0  6                     
G 1  23082002.016       60516.152        2016.988          48.750  
G 3  21696365.662      -24376.029        -808.895          41.000  
G11  23743912.679       59094.863        2025.528          43.250  
G17  21400486.147      -67252.172       -2309.646          51.500  
G22  23253278.819       23203.343         819.951          46.750  
G28  20976230.156       10224.825         372.472          48.000  
> 2018  4 22 11 21 25.2688020  0  6                     
G 1  23083871.849       60717.818        2015.554          48.750  
G 3  21698181.864      -24456.872        -809.077          41.000  
G11  23745782.382       59297.383        2025.190          43.000  
G17  21402273.693      -67483.152       -2310.599          51.750  
G22  23255126.342       23285.337         819.016          46.750  
G28  20978070.121       10262.084         372.443          47.500  
> 2018  4 22 11 21 25.3688020  0  6                     
G 1  23085742.316       60919.453        2016.552          49.000  
G 3  21699996.244      -24537.751        -808.259          40.500  
G11  23747652.160       59499.868        2025.915          43.000  
G17  21404061.195      -67714.163       -2310.204          51.500  
G22  23256973.559       23367.298         819.832          47.000  
G28  20979908.248       10299.289         372.452          47.500  
> 2018  4 22 11 21 25.4688020  0  6                     
G 1  23087613.044       61121.071        2016.958          49.000  
G 3  21701812.473      -24618.635        -809.545          40.250  
G11  23749522.610       59702.347        2025.615          43.250  
G17  21405848.618      -67945.187       -2309.937          51.500  
G22  23258820.918       23449.238         819.951          46.750  
G28  20981746.202       10336.509         372.551          48.000  
> 2018  4 22 11 21 25.5688020  0  6                     
G 1  23089482.821       61322.659        2015.730          49.000  
G 3  21703628.573      -24699.555        -810.038          40.500  
G11  23751393.169       59904.796        2023.769          43.250  
G17  21407636.547      -68176.233       -2311.417          51.750  
G22  23260666.597       23531.177         818.773          46.750  
G28  20983586.705       10373.694         372.272          48.000  
> 2018  4 22 11 21 25.6688020  0  6                     
G 1  23091352.437       61524.266        2016.486          49.000  
G 3  21705444.329      -24780.431        -807.913          40.750  
G11  23753263.685       60107.239        2024.606          43.250  
G17  21409423.722      -68407.261       -2310.539          51.750  
G22  23262514.015       23613.107         819.547          46.750  
G28  20985423.241       10410.906         372.687          48.000  
> 2018  4 22 11 21 25.7688020  0  6                     
G 1  23093222.886       61725.781        2014.964          49.000  
G 3  21707259.616      -24861.398        -810.095          40.250  
G11  23755133.552       60309.622        2023.194          43.000  
G17  21411211.474      -68638.384       -2311.458          51.750  
G22  23264361.048       23694.962         817.917          46.750  
G28  20987262.839       10448.030         370.260          48.000  
> 2018  4 22 11 21 25.8688020  0  6                     
G 1  23095091.900       61927.259        2014.932          48.750  
G 3  21709074.927      -24942.405        -810.536          39.750  
G11  23757003.364       60511.944        2024.176          43.000  
G17  21412999.104      -68869.541       -2311.598          51.750  
G22  23266209.383       23776.795         817.545          46.750  
G28  20989102.047       10485.131         371.831          47.750  
> 2018  4 22 11 21 25.9688020  0  6                     
G 1  23096961.537       62128.743        2014.332          49.000  
G 3  21710891.253      -25023.392        -809.161          40.000  
G11  23758872.963       60714.287        2022.944          43.000  
G17  21414786.536      -69100.696       -2311.232          51.750  
G22  23268055.106       23858.629         818.480          46.500  
G28  20990940.308       10522.234         371.352          47.750  
> 2018  4 22 11 21 26.0688020  0  6                     
G 1  23098831.324       62330.320        2016.783          48.750  
G 3  21712708.303      -25104.282        -807.462          40.250  
G11  23760743.923       60916.694        2024.818          42.750  
G17  21416573.967      -69331.756       -2309.937          51.500  
G22  23269901.448       23940.550         819.883          46.500  
G28  20992779.718       10559.425         372.651          47.500  
> 2018  4 22 11 21 26.1688020  0  6                     
G 1  23100700.770       62531.963        2016.758          48.750  
G 3  21714523.709      -25185.112        -808.537          40.250  
G11  23762614.489       61119.221        2026.057          43.000  
G17  21418361.204      -69562.744       -2309.786          51.500  
G22  23271749.138       24022.543         819.969          46.500  
G28  20994616.441       10596.688         373.200          47.750  
> 2018  4 22 11 21 26.2688020  0  6                     
G 1  23102570.638       62733.699        2018.049          49.000  
G 3  21716337.806      -25265.828        -806.741          39.750  
G11  23764485.103       61321.795        2026.027          42.500  
G17  21420149.068      -69793.641       -2308.497          51.750  
G22  23273596.393       24104.657         821.820          46.750  
G28  20996455.023       10634.059         374.292          47.500  
> 2018  4 22 11 21 26.3688020  0  6                     
G 1  23104440.755       62935.509        2018.617          49.000  
G 3  21718154.726      -25346.468        -805.665          40.250  
G11  23766353.619       61524.471        2026.591          43.250  
G17  21421936.387      -70024.460       -2308.210          51.750  
G22  23275443.929       24186.824         822.083          46.750  
G28  20998294.783       10671.489         374.318          47.500  
> 2018  4 22 11 21 26.4688020  0  6                     
G 1  23106310.721       63137.338        2018.690          49.000  
G 3  21719969.831      -25427.102        -806.680          40.500  
G11  23768223.255       61727.139        2026.253          43.000  
G17  21423724.028      -70255.271       -2308.316          51.500  
G22  23277291.600       24269.012         820.952          46.750  
G28  21000131.993       10708.962         374.917          47.750  
> 2018  4 22 11 21 26.5688020  0  6                     
G 1  23108180.989       63339.109        2017.201          49.000  
G 3  21721784.984      -25507.766        -806.676          39.750  
G11  23770093.808       61929.775        2026.202          43.250  
G17  21425511.976      -70486.126       -2309.167          51.500  
G22  23279139.587       24351.158         820.870          46.750  
G28  21001971.618       10746.363         373.586          47.500  
> 2018  4 22 11 21 26.6688020  0  6                     
G 1  23110050.995       63540.852        2017.599          49.000  
G 3  21723601.297      -25588.467        -807.224          40.000  
G11  23771964.395       62132.357        2025.890          43.250  
G17  21427299.345      -70717.010       -2309.109          51.500  
G22  23280986.087       24433.283         820.866          46.750  
G28  21003809.848       10783.768         374.205          47.500  
> 2018  4 22 11 21 26.7688020  0  6                     
G 1  23111920.978       63742.552        2016.412          49.000  
G 3  21725417.878      -25669.180        -807.942          40.000  
G11  23773833.968       62334.919        2024.946          43.000  
G17  21429087.200      -70947.942       -2310.032          51.500  
G22  23282832.648       24515.353         820.752          46.750  
G28  21005648.164       10821.107         372.957          48.000  
> 2018  4 22 11 21 26.8688020  0  6                     
G 1  23113790.543       63944.239        2016.381          49.000  
G 3  21727235.472      -25749.918        -808.303          40.000  
G11  23775703.827       62537.448        2024.961          43.000  
G17  21430874.477      -71178.880       -2309.488          51.750  
G22  23284679.534       24597.426         820.301          46.750  
G28  21007489.015       10858.445         373.513          48.250  
> 2018  4 22 11 21 26.9688020  0  6                     
G 1  23115660.504       64145.916        2016.529          49.000  
G 3  21729052.483      -25830.668        -807.250          40.000  
G11  23777573.888       62739.979        2025.047          43.000  
G17  21432661.826      -71409.831       -2310.127          51.750  
G22  23286527.429       24679.497         820.798          46.750  
G28  21009326.386       10895.786         373.750          48.250  
> 2018  4 22 11 21 27.0688020  0  6                     
G 1  23117530.115       64347.557        2016.415          48.750  
G 3  21730870.032      -25911.441        -807.822          39.750  
G11  23779444.104       62942.479        2024.985          43.250  
G17  21434449.708      -71640.816       -2309.800          51.750  
G22  23288375.463       24761.528         820.916          46.750  
G28  21011166.282       10933.081         373.040          48.000  
> 2018  4 22 11 21 27.1688020  0  6                     
G 1  23119400.639       64549.258        2017.583          49.000  
G 3  21732687.057      -25992.164        -806.887          40.000  
G11  23781314.436       63145.013        2026.447          43.500  
G17  21436237.107      -71871.756       -2309.587          51.500  
G22  23290222.938       24843.604         820.967          46.750  
G28  21013004.294       10970.434         373.886          48.000  
> 2018  4 22 11 21 27.2688020  0  6                     
G 1  23121270.700       64750.926        2016.807          49.000  
G 3  21734501.938      -26072.876        -807.153          40.250  
G11  23783185.304       63347.547        2025.326          43.000  
G17  21438024.896      -72102.697       -2309.631          51.500  
G22  23292070.333       24925.686         820.470          46.750  
G28  21014843.209       11007.791         373.163          47.750  
> 2018  4 22 11 21 27.3688020  0  6                     
G 1  23123141.184       64952.607        2016.917          49.000  
G 3  21736317.059      -26153.584        -807.284          40.000  
G11  23785055.229       63550.073        2026.132          43.250  
G17  21439812.157      -72333.643       -2309.374          51.500  
G22  23293916.834       25007.765         821.265          47.000  
G28  21016683.477       11045.144         373.931          47.750  
> 2018  4 22 11 21 27.4688020  0  6                     
G 1  23125011.184       65154.304        2017.575          49.000  
G 3  21738134.107      -26234.298        -806.406          40.250  
G11  23786925.814       63752.621        2026.087          43.250  
G17  21441599.866      -72564.581       -2309.785          51.500  
G22  23295763.813       25089.855         821.023          46.750  
G28  21018520.011       11082.513         373.308          47.750  
> 2018  4 22 11 21 27.5688020  0  6                     
G 1  23126880.860       65356.004        2016.466          49.000  
G 3  21739949.195      -26314.976        -806.670          40.000  
G11  23788796.916       63955.158        2024.950          43.250  
G17  21443387.464      -72795.498       -2309.656          51.500  
G22  23297610.889       25171.968         820.817          47.000  
G28  21020359.775       11119.896         373.309          47.750  
> 2018  4 22 11 21 27.6688020  0  6                     
G 1  23128750.872       65557.667        2016.677          48.750  
G 3  21741764.360      -26395.705        -807.196          40.000  
G11  23790666.177       64157.690        2025.659          43.250  
G17  21445174.591      -73026.451       -2309.423          51.500  
G22  23299457.441       25254.039         820.884          46.750  
G28  21022198.224       11157.252         373.871          48.250  
> 2018  4 22 11 21 27.7688020  0  6                     
G 1  23130620.056       65759.254        2015.521          48.500  
G 3  21743580.411      -26476.486        -808.884          40.000  
G11  23792536.283       64360.117        2023.883          43.250  
G17  21446962.627      -73257.490       -2310.803          51.250  
G22  23301304.999       25336.057         820.230          47.000  
G28  21024035.215       11194.535         372.887          47.750  
> 2018  4 22 11 21 27.8688020  0  6                     
G 1  23132489.849       65960.829        2016.093          48.750  
G 3  21745398.671      -26557.283        -808.471          40.250  
G11  23794406.609       64562.528        2024.550          43.250  
G17  21448749.667      -73488.538       -2310.105          51.250  
G22  23303152.041       25418.049         820.549          46.750  
G28  21025875.214       11231.803         373.263          47.250  
> 2018  4 22 11 21 27.9688020  0  6                     
G 1  23134359.485       66162.450        2016.386          48.500  
G 3  21747215.125      -26638.026        -808.373          39.750  
G11  23796275.502       64764.997        2025.380          43.000  
G17  21450537.528      -73719.535       -2309.321          51.500  
G22  23304999.779       25500.093         821.153          47.000  
G28  21027712.606       11269.136         374.295          47.500  
> 2018  4 22 11 21 28.0688020  0  6                     
G 1  23136229.254       66364.156        2017.310          49.000  
G 3  21749030.218      -26718.679        -806.394          39.750  
G11  23798145.788       64967.557        2024.867          43.000  
G17  21452325.575      -73950.447       -2308.876          51.250  
G22  23306847.296       25582.216         820.964          47.250  
G28  21029552.442       11306.535         374.689          48.250  
> 2018  4 22 11 21 28.1688020  0  6                     
G 1  23138099.428       66565.877        2016.878          48.750  
G 3  21750846.522      -26799.302        -805.929          40.000  
G11  23800016.523       65170.127        2025.420          43.250  
G17  21454113.391      -74181.336       -2309.237          51.750  
G22  23308694.090       25664.376         820.839          47.000  
G28  21031391.900       11343.965         374.333          48.000  
> 2018  4 22 11 21 28.2688020  0  6                     
G 1  23139969.563       66767.551        2016.728          48.750  
G 3  21752663.926      -26879.973        -807.561          40.250  
G11  23801886.816       65372.657        2025.703          43.000  
G17  21455901.588      -74412.286       -2309.375          51.500  
G22  23310541.948       25746.485         821.300          47.250  
G28  21033229.374       11381.342         374.657          47.500  
> 2018  4 22 11 21 28.3688020  0  6                     
G 1  23141839.855       66969.288        2018.449          48.750  
G 3  21754481.302      -26960.577        -805.023          40.000  
G11  23803759.030       65575.243        2026.560          42.750  
G17  21457689.797      -74643.174       -2308.411          51.750  
G22  23312387.977       25828.656         822.940          47.000  
G28  21035069.481       11418.790         374.841          47.500  
> 2018  4 22 11 21 28.4688020  0  6                     
G 1  23143709.317       67171.146        2019.101          48.500  
G 3  21756296.442      -27041.070        -804.436          40.250  
G11  23805628.056       65777.938        2026.894          42.750  
G17  21459477.418      -74873.940       -2308.240          51.500  
G22  23314235.264       25910.956         821.875          46.750  
G28  21036907.289       11456.379         375.968          48.000  
> 2018  4 22 11 21 28.5688020  0  6                     
G 1  23145579.181       67373.011        2019.131          48.750  
G 3  21758112.299      -27121.521        -802.884          40.000  
G11  23807497.471       65980.661        2029.862          42.750  
G17  21461265.149      -75104.687       -2307.257          51.500  
G22  23316083.027       25993.252         823.445          47.000  
G28  21038745.731       11493.956         376.353          47.750  
> 2018  4 22 11 21 28.6688020  0  6                     
G 1  23147449.043       67574.862        2018.142          49.000  
G 3  21759928.630      -27201.987        -803.796          40.250  
G11  23809367.528       66183.336        2026.875          42.750  
G17  21463052.641      -75335.458       -2308.113          51.500  
G22  23317930.123       26075.550         822.721          46.750  
G28  21040585.586       11531.533         376.123          47.500  
> 2018  4 22 11 21 28.7688020  0  6                     
G 1  23149319.158       67776.672        2017.789          48.750  
G 3  21761744.764      -27282.520        -804.851          40.250  
G11  23811238.075       66385.993        2026.887          43.250  
G17  21464840.411      -75566.249       -2308.210          51.500  
G22  23319776.778       26157.830         823.369          47.000  
G28  21042422.483       11569.090         375.003          47.750  
> 2018  4 22 11 21 28.8688020  0  6                     
G 1  23151188.997       67978.450        2017.895          48.750  
G 3  21763559.879      -27363.051        -805.844          40.250  
G11  23813109.006       66588.621        2026.666          43.250  
G17  21466628.122      -75797.090       -2308.471          51.500  
G22  23321624.397       26240.057         821.780          47.000  
G28  21044262.153       11606.596         374.913          48.000  
> 2018  4 22 11 21 28.9688020  0  6                     
G 1  23153059.293       68180.230        2018.200          48.750  
G 3  21765376.687      -27443.569        -805.284          40.250  
G11  23814978.624       66791.259        2026.995          43.000  
G17  21468415.410      -76027.920       -2307.937          51.500  
G22  23323471.860       26322.306         822.499          47.250  
G28  21046100.660       11644.123         375.265          47.750  
> 2018  4 22 11 21 29.0688020  0  6                     
G 1  23154929.084       68382.017        2017.855          49.000  
G 3  21767194.828      -27524.078        -803.980          39.500  
G11  23816847.975       66993.900        2027.620          43.000  
G17  21470203.545      -76258.741       -2308.085          51.500  
G22  23325319.230       26404.557         823.195          46.750  
G28  21047939.172       11681.660         375.445          47.750  
> 2018  4 22 11 21 29.1688020  0  6                     
G 1  23156798.813       68583.798        2017.866          48.500  
G 3  21769010.585      -27604.593        -805.849          39.500  
G11  23818718.022       67196.528        2027.880          42.750  
G17  21471990.515      -76489.576       -2308.185          51.000  
G22  23327166.540       26486.794         822.512          47.250  
G28  21049779.958       11719.190         375.700          47.750  
> 2018  4 22 11 21 29.2688020  0  6                     
G 1  23158669.652       68785.578        2018.281          49.000  
G 3  21770827.054      -27685.112        -804.923          39.750  
G11  23820587.849       67399.141        2025.325          43.000  
G17  21473778.401      -76720.409       -2308.118          51.250  
G22  23329014.111       26569.050         822.597          47.000  
G28  21051617.102       11756.721         375.729          47.750  
> 2018  4 22 11 21 29.3688020  0  6                     
G 1  23160539.920       68987.372        2018.551          49.000  
G 3  21772642.277      -27765.595        -804.020          39.750  
G11  23822457.291       67601.787        2026.650          43.000  
G17  21475566.303      -76951.220       -2307.915          51.500  
G22  23330861.539       26651.328         823.057          46.750  
G28  21053456.389       11794.276         376.020          47.750  
> 2018  4 22 11 21 29.4688020  0  6                     
G 1  23162409.971       69189.193        2019.025          48.750  
G 3  21774458.147      -27846.067        -804.483          39.750  
G11  23824328.367       67804.454        2027.255          42.750  
G17  21477353.881      -77182.018       -2307.743          51.500  
G22  23332709.341       26733.632         823.685          46.750  
G28  21055295.830       11831.845         375.770          47.750  
> 2018  4 22 11 21 29.5688020  0  6                     
G 1  23164280.674       69391.035        2019.137          48.750  
G 3  21776272.444      -27926.482        -804.799          39.500  
G11  23826199.016       68007.130        2026.883          42.500  
G17  21479141.873      -77412.780       -2307.649          51.500  
G22  23334555.759       26815.948         823.363          46.750  
G28  21057134.301       11869.460         375.650          48.000  
> 2018  4 22 11 21 29.6688020  0  6                     
G 1  23166150.211       69592.913        2018.875          48.500  
G 3  21778089.503      -28006.883        -804.959          39.750  
G11  23828068.060       68209.852        2026.965          43.000  
G17  21480929.223      -77643.522       -2307.643          51.500  
G22  23336403.385       26898.303         823.357          47.000  
G28  21058974.431       11907.096         376.453          48.000  
> 2018  4 22 11 21 29.7688020  0  6                     
G 1  23168020.281       69794.850        2019.749          48.750  
G 3  21779906.839      -28087.214        -804.016          40.000  
G11  23829937.374       68412.635        2028.044          42.750  
G17  21482717.199      -77874.182       -2306.643          51.500  
G22  23338250.491       26980.726         824.776          47.250  
G28  21060810.658       11944.813         377.448          47.750  
> 2018  4 22 11 21 29.8688020  0  6                     
G 1  23169890.642       69996.756        2018.516          48.750  
G 3  21781724.520      -28167.565        -804.350          39.500  
G11  23831807.706       68615.386        2027.496          42.500  
G17  21484504.709      -78104.895       -2307.652          51.500  
G22  23340098.061       27063.135         824.213          47.000  
G28  21062650.272       11982.489         376.742          47.500  
> 2018  4 22 11 21 29.9688020  0  6                     
G 1  23171761.320       70198.628        2018.019          48.750  
G 3  21783541.843      -28247.926        -804.240          40.250  
G11  23833677.932       68818.111        2026.488          42.750  
G17  21486292.510      -78335.618       -2308.081          51.000  
G22  23341945.115       27145.504         824.339          47.250  
G28  21064488.651       12020.155         375.798          47.750  
> 2018  4 22 11 21 30.0688020  0  6                     
G 1  23173630.807       70400.458        2018.365          48.750  
G 3  21785357.777      -28328.350        -804.294          40.250  
G11  23835548.171       69020.517        1994.606          42.750  
G17  21488080.272      -78566.393       -2307.754          51.250  
G22  23343792.362       27227.839         823.212          47.000  
G28  21066325.661       12057.774         376.520          47.500  
> 2018  4 22 11 21 30.1688020  0  6                     
G 1  23175500.457       70602.300        2018.242          48.750  
G 3  21787175.038      -28408.761        -803.527          40.250  
G11  23837418.281       69223.454        2026.511          42.500  
G17  21489867.873      -78797.155       -2307.577          51.250  
G22  23345638.745       27310.186         824.056          47.000  
G28  21068165.208       12095.398         376.316          47.500  
> 2018  4 22 11 21 30.2688020  0  6                     
G 1  23177369.493       70804.069        2017.823          48.500  
G 3  21788992.465      -28489.239        -805.830          41.000  
G11  23839288.700       69426.073        2025.704          42.750  
G17  21491655.432      -79027.998       -2308.416          51.250  
G22  23347486.199       27392.458         822.852          47.000  
G28  21070003.513       12132.963         375.508          47.500  
> 2018  4 22 11 21 30.3688020  0  6                     
G 1  23179239.445       71005.811        2017.111          49.000  
G 3  21790807.731      -28569.718        -805.313          40.000  
G11  23841157.977       69628.652        2025.787          42.750  
G17  21493443.262      -79258.849       -2308.888          51.500  
G22  23349334.099       27474.724         822.700          47.250  
G28  21071841.782       12170.511         375.124          47.500  
> 2018  4 22 11 21 30.4688020  0  6                     
G 1  23181109.481       71207.559        2017.550          49.000  
G 3  21792624.344      -28650.203        -804.512          39.750  
G11  23843029.103       69831.246        2025.457          42.750  
G17  21495231.035      -79489.707       -2308.239          51.500  
G22  23351181.812       27556.985         822.907          47.250  
G28  21073681.988       12208.049         375.880          47.500  
> 2018  4 22 11 21 30.5688020  0  6                     
G 1  23182979.183       71409.281        2017.589          48.750  
G 3  21794439.753      -28730.694        -804.775          39.500  
G11  23844898.738       70033.808        2025.928          42.750  
G17  21497019.114      -79720.579       -2309.363          51.250  
G22  23353029.798       27639.221         822.638          47.250  
G28  21075518.997       12245.599         375.861          47.750  
> 2018  4 22 11 21 30.6688020  0  6                     
G 1  23184849.696       71611.086        2018.761          48.750  
G 3  21796254.865      -28811.089        -803.401          39.500  
G11  23846767.895       70236.467        2027.542          42.750  
G17  21498806.165      -79951.383       -2308.015          51.500  
G22  23354876.881       27721.540         822.834          46.500  
G28  21077358.913       12283.217         376.236          47.500  
> 2018  4 22 11 21 30.7688020  0  6                     
G 1  23186720.208       71812.909        2019.059          48.500  
G 3  21798070.870      -28891.476        -804.204          40.000  
G11  23848637.948       70439.137        2027.307          42.500  
G17  21500593.652      -80182.149       -2307.606          51.000  
G22  23356724.067       27803.913         824.070          47.000  
G28  21079197.815       12320.850         376.362          47.750  
> 2018  4 22 11 21 30.8688020  0  6                     
G 1  23188590.473       72014.779        2019.001          49.000  
G 3  21799887.077      -28971.836        -802.733          39.500  
G11  23850508.252       70641.828        2027.156          42.750  
G17  21502381.012      -80412.883       -2306.538          51.500  
G22  23358570.044       27886.300         824.460          46.750  
G28  21081036.396       12358.537         376.950          48.000  
> 2018  4 22 11 21 30.9688020  0  6                     
G 1  23190459.897       72216.640        2018.284          49.000  
G 3  21801703.389      -29052.139        -804.116          39.750  
G11  23852377.363       70844.535        2026.459          42.250  
G17  21504168.841      -80643.605       -2307.768          51.250  
G22  23360416.812       27968.710         823.821          47.250  
G28  21082876.675       12396.226         375.691          47.750  
> 2018  4 22 11 21 31.0688020  0  6                     
G 1  23192329.937       72418.483        2018.448          49.000  
G 3  21803518.349      -29132.471        -803.208          39.250  
G11  23854247.262       71047.215        2027.671          42.750  
G17  21505956.099      -80874.370       -2307.438          51.500  
G22  23362263.582       28051.079         823.973          47.250  
G28  21084713.736       12433.894         376.901          47.750  
> 2018  4 22 11 21 31.1688020  0  6                     
G 1  23194199.688       72620.310        2017.963          48.750  
G 3  21805332.609      -29212.846        -804.439          38.750  
G11  23856117.850       71249.887        2026.342          42.750  
G17  21507743.710      -81105.140       -2308.729          51.000  
G22  23364110.526       28133.440         822.818          47.250  
G28  21086553.233       12471.548         376.622          47.750  
> 2018  4 22 11 21 31.2688020  0  6                     
G 1  23196069.999       72822.102        2018.375          48.750  
G 3  21807149.464      -29293.199        -803.066          39.500  
G11  23857988.737       71452.523        2026.224          42.000  
G17  21509531.600      -81335.961       -2308.254          51.500  
G22  23365958.150       28215.780         823.438          47.000  
G28  21088392.262       12509.168         376.123          47.750  
> 2018  4 22 11 21 31.3688020  0  6                     
G 1  23197940.668       73023.888        2017.938          48.750  
G 3  21808966.645      -29373.607        -804.957          39.250  
G11  23859860.693       71655.142        2025.364          42.500  
G17  21511319.858      -81566.761       -2308.155          51.250  
G22  23367805.940       28298.119         823.492          47.000  
G28  21090229.769       12546.798         376.248          47.500  
> 2018  4 22 11 21 31.4688020  0  6                     
G 1  23199810.417       73225.564        2016.273          48.750  
G 3  21810781.739      -29454.100        -805.348          40.000  
G11  23861730.907       71857.654        2025.046          42.500  
G17  21513107.108      -81797.681       -2309.220          51.250  
G22  23369652.023       28380.353         822.221          47.250  
G28  21092070.017       12584.324         375.399          47.750  
> 2018  4 22 11 21 31.5688020  0  6                     
G 1  23201680.226       73427.239        2017.464          49.000  
G 3  21812598.823      -29534.602        -804.209          40.000  
G11  23863600.099       72060.181        2024.842          42.250  
G17  21514895.183      -82028.601       -2309.304          51.000  
G22  23371499.115       28462.576         822.517          47.250  
G28  21093906.885       12621.844         375.329          47.750  
> 2018  4 22 11 21 31.6688020  0  6                     
G 1  23203550.549       73628.903        2016.537          49.000  
G 3  21814415.623      -29615.098        -805.449          40.000  
G11  23865470.825       72262.679        2025.445          42.750  
G17  21516683.084      -82259.528       -2309.468          51.250  
G22  23373347.994       28544.798         822.015          47.000  
G28  21095745.776       12659.355         375.189          47.500  
> 2018  4 22 11 21 31.7688020  0  6                     
G 1  23205420.706       73830.526        2016.430          48.750  
G 3  21816233.705      -29695.615        -805.039          40.250  
G11  23867340.262       72465.146        2025.124          43.000  
G17  21518470.867      -82490.497       -2309.742          51.250  
G22  23375194.359       28626.996         821.857          47.000  
G28  21097585.004       12696.836         374.979          47.750  
> 2018  4 22 11 21 31.8688020  0  6                     
G 1  23207290.039       74032.154        2016.024          48.750  
G 3  21818049.607      -29776.140        -805.756          40.000  
G11  23869210.427       72667.617        2024.308          42.750  
G17  21520258.548      -82721.454       -2310.100          51.000  
G22  23377041.444       28709.204         821.752          47.250  
G28  21099422.786       12734.333         375.230          47.250  
> 2018  4 22 11 21 31.9688020  0  6                     
G 1  23209160.222       74233.739        2016.032          48.750  
G 3  21819866.505      -29856.707        -805.450          40.250  
G11  23871079.982       72870.025        2023.684          42.750  
G17  21522045.491      -82952.477       -2310.461          51.250  
G22  23378889.599       28791.344         821.142          47.250  
G28  21101262.950       12771.772         374.486          47.750  
> 2018  4 22 11 21 32.0688020  0  6                     
G 1  23211030.467       74435.250        2015.245          49.000  
G 3  21821682.760      -29937.329        -804.653          39.750  
G11  23872949.705       73072.375        2023.249          43.000  
G17  21523833.133      -83183.538       -2310.624          51.250  
G22  23380736.990       28873.437         821.036          47.000  
G28  21103100.890       12809.161         374.384          47.500  
> 2018  4 22 11 21 32.1688020  0  6                     
G 1  23212899.913       74636.764        2015.274          48.750  
G 3  21823498.414      -30017.937        -806.611          39.500  
G11  23874819.851       73274.736        2023.203          42.500  
G17  21525620.017      -83414.613       -2310.637          51.250  
G22  23382584.100       28955.537         821.243          47.000  
G28  21104938.914       12846.549         373.787          47.500  
> 2018  4 22 11 21 32.2688020  0  6                     
G 1  23214769.561       74838.309        2016.047          48.750  
G 3  21825314.831      -30098.508        -804.995          39.250  
G11  23876690.670       73477.110        2023.956          42.500  
G17  21527407.542      -83645.658       -2310.177          51.250  
G22  23384431.305       29037.665         822.370          47.250  
G28  21106778.940       12883.974         375.235          47.500  
> 2018  4 22 11 21 32.3688020  0  6                     
G 1  23216639.118       75039.953        2016.858          48.750  
G 3  21827131.639      -30178.993        -804.367          39.500  
G11  23878562.135       73679.608        2025.514          42.250  
G17  21529195.112      -83876.596       -2308.567          51.250  
G22  23386278.641       29119.894         822.942          47.250  
G28  21108616.039       12921.498         376.254          47.000  
> 2018  4 22 11 21 32.4688020  0  6                     
G 1  23218509.187       75241.624        2017.915          48.750  
G 3  21828945.787      -30259.433        -803.421          38.500  
G11  23880433.479       73882.130        2024.905          42.750  
G17  21530982.381      -84107.515       -2309.063          51.000  
G22  23388125.590       29202.158         823.369          47.250  
G28  21110455.207       12959.052         376.473          47.250  
> 2018  4 22 11 21 32.5688020  0  6                     
G 1  23220379.095       75443.412        2018.946          48.750  
G 3  21830760.730      -30339.750        -802.336          39.000  
G11  23882303.973       74084.729        2026.464          42.750  
G17  21532769.846      -84338.324       -2307.567          51.250  
G22  23389973.792       29284.531         824.042          47.250  
G28  21112293.501       12996.725         377.670          47.500  
> 2018  4 22 11 21 32.6688020  0  6                     
G 1  23222249.853       75645.256        2019.425          48.750  
G 3  21832576.952      -30419.996        -801.332          38.750  
G11  23884173.675       74287.420        2027.807          43.250  
G17  21534556.870      -84569.063       -2307.181          51.000  
G22  23391821.290       29366.982         824.857          47.250  
G28  21114131.904       13034.469         378.109          47.750  
> 2018  4 22 11 21 32.7688020  0  6                     
G 1  23224119.929       75847.134        2018.162          49.000  
G 3  21834394.143      -30500.219        -801.432          39.000  
G11  23886043.387       74490.133        2026.334          43.250  
G17  21536344.941      -84799.766       -2307.461          51.250  
G22  23393669.045       29449.466         824.625          47.250  
G28  21115972.009       13072.249         378.062          47.750  
> 2018  4 22 11 21 32.8688020  0  6                     
G 1  23225989.575       76049.018        2019.682          48.750  
G 3  21836211.021      -30580.399        -800.530          39.250  
G11  23887911.483       74692.858        2027.896          42.750  
G17  21538132.244      -85030.467       -2307.053          51.000  
G22  23395516.712       29531.962         825.585          47.250  
G28  21117810.524       13110.042         378.245          48.000  
> 2018  4 22 11 21 32.9688020  0  6                     
G 1  23227859.280       76250.981        2019.610          48.750  
G 3  21838026.844      -30660.504        -799.856          39.250  
G11  23889781.964       74895.652        2027.759          42.500  
G17  21539920.168      -85261.073       -2305.647          51.250  
G22  23397363.120       29614.534         826.388          47.000  
G28  21119650.390       13147.913         379.252          48.000  
> 2018  4 22 11 21 33.0688020  0  6                     
G 1  23229729.962       76452.954        2019.991          48.750  
G 3  21839843.122      -30740.641        -801.309          39.500  
G11  23891653.104       75098.467        2027.702          43.000  
G17  21541708.186      -85491.688       -2306.261          51.250  
G22  23399209.820       29697.113         825.385          47.250  
G28  21121489.332       13185.795         378.771          47.750  
> 2018  4 22 11 21 33.1688020  0  6                     
G 1  23231599.538       76654.930        2020.381          48.750  
G 3  21841660.528      -30820.736        -801.084          39.000  
G11  23893523.571       75301.280        2027.722          43.250  
G17  21543495.694      -85722.301       -2306.458          51.250  
G22  23401057.198       29779.695         825.643          47.250  
G28  21123327.765       13223.676         379.179          47.750  
> 2018  4 22 11 21 33.2688020  0  6                     
G 1  23233469.378       76856.935        2020.078          48.750  
G 3  21843476.924      -30900.809        -800.385          39.750  
G11  23895394.890       75504.119        2029.046          43.000  
G17  21545283.786      -85952.884       -2305.772          51.000  
G22  23402903.911       29862.325         826.602          47.250  
G28  21125167.925       13261.599         378.615          48.000  
> 2018  4 22 11 21 33.3688020  0  6                     
G 1  23235340.156       77058.897        2019.296          49.000  
G 3  21845294.176      -30980.911        -801.465          40.000  
G11  23897263.707       75706.928        2027.793          43.250  
G17  21547071.076      -86183.486       -2306.139          51.250  
G22  23404752.002       29944.924         825.460          47.500  
G28  21127004.985       13299.510         378.999          48.250  
> 2018  4 22 11 21 33.4688020  0  6                     
G 1  23237210.170       77260.883        2020.586          48.750  
G 3  21847110.769      -31060.996        -800.533          39.750  
G11  23899133.078       75909.727        2027.947          42.750  
G17  21548858.569      -86414.086       -2305.276          51.250  
G22  23406599.872       30027.519         825.742          47.250  
G28  21128844.093       13337.409         379.478          47.750  
> 2018  4 22 11 21 33.5688020  0  6                     
G 1  23239079.974       77462.882        2019.231          49.000  
G 3  21848927.136      -31141.017        -801.367          40.000  
G11  23901003.894       76112.573        2026.150          42.500  
G17  21550646.324      -86644.666       -2307.068          51.250  
G22  23408447.071       30110.155         825.745          47.250  
G28  21130683.519       13375.342         378.326          47.750  
> 2018  4 22 11 21 33.6688020  0  6                     
G 1  23240949.833       77664.830        2018.896          48.750  
G 3  21850741.629      -31221.125        -801.470          39.500  
G11  23902874.647       76315.366        2027.622          43.250  
G17  21552433.471      -86875.297       -2306.724          51.000  
G22  23410293.830       30192.752         826.250          47.500  
G28  21132521.116       13413.235         378.593          48.000  
> 2018  4 22 11 21 33.7688020  0  6                     
G 1  23242820.695       77866.791        2019.992          49.000  
G 3  21852556.686      -31301.204        -799.844          38.750  
G11  23904744.083       76518.153        2026.742          43.000  
G17  21554221.150      -87105.912       -2306.715          51.000  
G22  23412141.210       30275.341         826.150          47.500  
G28  21134362.075       13451.127         378.673          47.750  
> 2018  4 22 11 21 33.8688020  0  6                     
G 1  23244690.993       78068.765        2019.764          49.000  
G 3  21854375.397      -31381.254        -799.508          38.750  
G11  23906614.301       76720.956        2028.137          43.500  
G17  21556008.563      -87336.526       -2306.286          51.250  
G22  23413988.545       30357.954         826.471          47.250  
G28  21136199.703       13489.042         379.103          47.750  
> 2018  4 22 11 21 33.9688020  0  6                     
G 1  23246560.472       78270.717        2020.544          48.750  
G 3  21856192.826      -31461.327        -799.762          38.750  
G11  23908484.509       76923.750        2029.051          43.250  
G17  21557796.217      -87567.144       -2305.937          51.000  
G22  23415835.451       30440.546         826.128          47.250  
G28  21138039.590       13526.928         379.041          47.750  
> 2018  4 22 11 21 34.0688020  0  6                     
G 1  23248430.465       78472.657        2019.456          49.000  
G 3  21858008.987      -31541.398        -799.774          39.250  
G11  23910356.539       77126.523        2027.356          43.500  
G17  21559583.978      -87797.776       -2306.855          51.250  
G22  23417683.065       30523.145         825.839          47.250  
G28  21139877.963       13564.841         379.081          47.750  
> 2018  4 22 11 21 34.1688020  0  6                     
G 1  23250300.345       78674.575        2019.201          48.500  
G 3  21859825.442      -31621.509        -801.275          39.250  
G11  23912227.025       77329.267        2027.444          43.000  
G17  21561371.756      -88028.432       -2307.128          51.000  
G22  23419530.463       30605.720         825.983          47.250  
G28  21141715.572       13602.708         378.019          47.500  
> 2018  4 22 11 21 34.2688020  0  6                     
G 1  23252169.974       78876.400        2018.282          48.750  
G 3  21861641.693      -31701.683        -802.196          40.000  
G11  23914097.282       77531.917        2025.697          43.250  
G17  21563159.581      -88259.185       -2307.779          51.000  
G22  23421377.666       30688.200         823.668          47.500  
G28  21143556.233       13640.491         377.887          47.750  
> 2018  4 22 11 21 34.3688020  0  6                     
G 1  23254040.174       79078.141        2017.071          48.750  
G 3  21863458.735      -31781.932        -803.184          39.750  
G11  23915967.194       77734.505        2025.306          43.250  
G17  21564947.313      -88490.008       -2309.120          51.000  
G22  23423224.304       30770.620         824.481          47.250  
G28  21145392.454       13678.214         377.044          47.750  
> 2018  4 22 11 21 34.4688020  0  6                     
G 1  23255910.042       79279.878        2017.268          48.500  
G 3  21865277.681      -31862.215        -803.882          39.750  
G11  23917836.991       77937.067        2025.411          43.250  
G17  21566734.693      -88720.850       -2309.093          51.250  
G22  23425071.472       30853.008         823.538          47.750  
G28  21147231.551       13715.900         376.615          47.750  
> 2018  4 22 11 21 34.5688020  0  6                     
G 1  23257779.800       79481.600        2017.433          48.750  
G 3  21867094.803      -31942.468        -802.443          39.750  
G11  23919706.574       78139.643        2025.527          42.750  
G17  21568522.191      -88951.686       -2308.716          50.750  
G22  23426918.131       30935.394         823.539          46.750  
G28  21149071.030       13753.612         376.894          47.750  
> 2018  4 22 11 21 34.6688020  0  6                     
G 1  23259649.413       79683.335        2016.695          48.750  
G 3  21868910.652      -32022.759        -802.340          39.500  
G11  23921576.733       78342.192        2025.011          43.500  
G17  21570309.496      -89182.535       -2309.164          51.000  
G22  23428765.730       31017.792         823.327          47.500  
G28  21150908.583       13791.314         376.640          47.750  
> 2018  4 22 11 21 34.7688020  0  6                     
G 1  23261519.521       79885.035        2017.319          49.000  
G 3  21870725.674      -32103.032        -801.856          39.750  
G11  23923446.994       78544.723        2024.960          43.000  
G17  21572096.914      -89413.400       -2308.970          51.000  
G22  23430613.156       31100.174         823.620          47.250  
G28  21152748.705       13828.996         376.026          47.750  
> 2018  4 22 11 21 34.8688020  0  6                     
G 1  23263389.669       80086.788        2017.716          48.750  
G 3  21872540.975      -32183.263        -802.044          39.750  
G11  23925318.349       78747.300        2025.948          43.000  
G17  21573884.618      -89644.227       -2308.582          51.000  
G22  23432460.591       31182.610         824.036          47.750  
G28  21154587.210       13866.744         377.475          47.750  
> 2018  4 22 11 21 34.9688020  0  6                     
G 1  23265259.801       80288.573        2017.796          48.750  
G 3  21874355.869      -32263.437        -801.433          39.750  
G11  23927187.617       78949.944        2026.981          43.250  
G17  21575671.967      -89874.995       -2307.796          51.000  
G22  23434307.710       31265.081         825.190          47.750  
G28  21156425.300       13904.521         377.601          47.750  
> 2018  4 22 11 21 35.0688020  0  6                     
G 1  23267129.938       80490.432        2019.074          49.000  
G 3  21876172.468      -32343.536        -800.172          39.750  
G11  23929057.785       79152.619        2028.190          43.500  
G17  21577460.110      -90105.712       -2307.054          51.000  
G22  23436154.573       31347.633         825.785          47.250  
G28  21158264.536       13942.362         377.900          47.750  
> 2018  4 22 11 21 35.1688020  0  6                     
G 1  23268999.778       80692.356        2019.867          48.750  
G 3  21877986.979      -32423.585        -800.508          38.750  
G11  23930928.551       79355.366        2027.546          43.250  
G17  21579247.507      -90336.359       -2305.901          50.750  
G22  23438001.834       31430.229         826.770          47.000  
G28  21160100.954       13980.273         378.624          47.250  
> 2018  4 22 11 21 35.2688020  0  6                     
G 1  23270869.181       80894.311        2019.745          48.500  
G 3  21879802.756      -32503.597        -800.360          39.000  
G11  23932798.913       79558.158        2028.308          43.500  
G17  21581035.478      -90566.966       -2306.531          50.750  
G22  23439849.684       31512.899         826.585          47.250  
G28  21161940.419       14018.259         380.336          47.750  
> 2018  4 22 11 21 35.3688020  0  6                     
G 1  23272738.926       81096.328        2021.084          48.750  
G 3  21881619.776      -32583.535        -799.027          39.250  
G11  23934669.418       79761.002        2027.812          43.500  
G17  21582822.699      -90797.509       -2304.551          51.000  
G22  23441697.762       31595.602         827.662          47.250  
G28  21163779.912       14056.269         380.870          47.500  
> 2018  4 22 11 21 35.4688020  0  6                     
G 1  23274609.122       81298.405        2020.630          48.750  
G 3  21883436.944      -32663.407        -798.606          39.000  
G11  23936539.064       79963.910        2028.885          43.750  
G17  21584609.797      -91028.009       -2305.768          51.000  
G22  23443545.786       31678.386         828.006          47.500  
G28  21165618.293       14094.352         380.199          47.500  
> 2018  4 22 11 21 35.5688020  0  6                     
G 1  23276478.728       81500.405        2020.423          48.750  
G 3  21885253.135      -32743.339        -799.934          39.500  
G11  23938409.339       80166.742        2028.796          43.500  
G17  21586397.781      -91258.571       -2305.783          51.000  
G22  23445393.405       31761.089         826.705          47.500  
G28  21167458.850       14132.374         380.109          47.500  
> 2018  4 22 11 21 35.6688020  0  6                     
G 1  23278348.279       81702.415        2020.583          48.750  
G 3  21887070.532      -32823.268        -799.942          39.250  
G11  23940280.051       80369.580        2029.147          43.500  
G17  21588184.962      -91489.131       -2305.680          51.000  
G22  23447240.362       31843.808         826.992          47.250  
G28  21169295.769       14170.399         380.661          47.500  
> 2018  4 22 11 21 35.7688020  0  6                     
G 1  23280218.613       81904.422        2020.694          48.500  
G 3  21888887.666      -32903.187        -798.957          39.000  
G11  23942150.934       80572.427        2029.298          43.750  
G17  21589972.963      -91719.678       -2305.217          50.750  
G22  23449086.780       31926.526         827.766          47.250  
G28  21171134.904       14208.431         380.876          47.750  
> 2018  4 22 11 21 35.8688020  0  6                     
G 1  23282088.933       82106.398        2020.657          48.750  
G 3  21890704.151      -32983.116        -798.395          39.250  
G11  23944021.809       80775.221        2027.218          43.750  
G17  21591760.430      -91950.264       -2305.518          51.000  
G22  23450934.343       32009.207         827.374          47.250  
G28  21172974.160       14246.421         380.119          47.500  
> 2018  4 22 11 21 35.9688020  0  6                     
G 1  23283959.364       82308.408        2020.021          48.500  
G 3  21892519.491      -33063.026        -798.279          39.000  
G11  23945891.715       80978.067        2028.105          43.500  
G17  21593548.600      -92180.823       -2306.061          50.750  
G22  23452781.340       32091.946         827.550          47.250  
G28  21174812.417       14284.479         380.656          47.500  
> 2018  4 22 11 21 36.0688020  0  6                     
G 1  23285829.833       82510.426        2020.805          48.750  
G 3  21894335.750      -33142.917        -798.807          39.250  
G11  23947761.477       81181.075        2050.850          43.750  
G17  21595336.156      -92411.352       -2305.317          51.000  
G22  23454627.882       32174.701         827.525          47.500  
G28  21176652.999       14322.536         380.807          47.750  
> 2018  4 22 11 21 36.1688020  0  6                     
G 1  23287699.298       82712.483        2019.960          48.750  
G 3  21896153.403      -33222.763        -798.003          39.250  
G11  23949631.224       81383.811        2027.419          43.750  
G17  21597123.292      -92641.857       -2305.737          51.000  
G22  23456475.429       32257.483         827.868          47.500  
G28  21178490.042       14360.634         381.193          47.750  
> 2018  4 22 11 21 36.2688020  0  6                     
G 1  23289569.010       82914.509        2020.295          48.750  
G 3  21897969.808      -33302.645        -798.542          39.500  
G11  23951501.605       81586.666        2029.458          43.750  
G17  21598911.319      -92872.381       -2304.572          51.000  
G22  23458323.296       32340.249         827.859          47.500  
G28  21180328.966       14398.715         380.580          47.500  
> 2018  4 22 11 21 36.3688020  0  6                     
G 1  23291439.011       83116.595        2020.863          48.750  
G 3  21899784.753      -33382.427        -798.913          39.250  
G11  23953372.295       81789.577        2029.573          44.000  
G17  21600699.184      -93102.858       -2304.911          51.000  
G22  23460171.620       32423.069         828.428          47.250  
G28  21182167.958       14436.833         381.618          47.500  
> 2018  4 22 11 21 36.4688020  0  6                     
G 1  23293309.214       83318.697        2020.914          48.500  
G 3  21901600.221      -33462.235        -797.737          38.750  
G11  23955242.131       81992.508        2029.582          43.750  
G17  21602486.698      -93333.314       -2304.522          50.750  
G22  23462019.064       32505.914         829.094          47.500  
G28  21184006.001       14474.996         381.643          47.750  
> 2018  4 22 11 21 36.5688020  0  6                     
G 1  23295179.268       83520.806        2021.440          48.750  
G 3  21903415.351      -33542.017        -797.410          39.500  
G11  23957112.451       82195.447        2029.426          43.500  
G17  21604274.435      -93563.760       -2304.216          51.000  
G22  23463865.631       32588.756         828.008          47.500  
G28  21185847.200       14513.164         381.619          47.500  
> 2018  4 22 11 21 36.6688020  0  6                     
G 1  23297049.255       83722.939        2021.682          48.750  
G 3  21905231.547      -33621.771        -798.305          39.750  
G11  23958981.092       82398.401        2030.227          43.750  
G17  21606062.312      -93794.191       -2304.618          51.000  
G22  23465713.151       32671.638         828.323          47.500  
G28  21187683.988       14551.358         381.351          47.750  
> 2018  4 22 11 21 36.7688020  0  6                     
G 1  23298919.383       83925.081        2022.218          48.500  
G 3  21907049.044      -33701.494        -795.768          39.000  
G11  23960850.879       82601.367        2030.071          43.500  
G17  21607850.346      -94024.600       -2303.297          50.750  
G22  23467560.870       32754.526         830.331          47.500  
G28  21189523.671       14589.562         383.594          47.750  
> 2018  4 22 11 21 36.8688020  0  6                     
G 1  23300790.794       84127.212        2020.358          48.750  
G 3  21908866.405      -33781.218        -796.854          39.250  
G11  23962720.258       82804.343        2029.137          43.250  
G17  21609638.107      -94255.020       -2304.260          51.000  
G22  23469407.537       32837.423         827.626          47.500  
G28  21191362.476       14627.767         382.039          47.750  
> 2018  4 22 11 21 36.9688020  0  6                     
G 1  23302660.897       84329.341        2021.669          48.750  
G 3  21910683.908      -33860.949        -796.385          39.250  
G11  23964591.002       83007.282        2029.221          43.500  
G17  21611425.725      -94485.439       -2304.204          50.750  
G22  23471254.858       32920.313         829.539          47.250  
G28  21193199.820       14665.964         382.359          47.500  
> 2018  4 22 11 21 37.0688020  0  6                     
G 1  23304530.537       84531.482        2021.751          48.750  
G 3  21912499.102      -33940.649        -797.052          39.250  
G11  23966460.319       83210.242        2029.205          43.250  
G17  21613213.340      -94715.863       -2304.252          50.750  
G22  23473101.945       33003.206         829.857          47.500  
G28  21195040.274       14704.167         381.730          47.750  
> 2018  4 22 11 21 37.1688020  0  6                     
G 1  23306400.484       84733.616        2020.990          48.750  
G 3  21914313.853      -34020.409        -796.185          39.500  
G11  23968330.690       83413.196        2029.538          43.750  
G17  21615000.426      -94946.290       -2304.610          50.750  
G22  23474948.707       33086.092         828.162          47.500  
G28  21196879.013       14742.386         382.210          47.750  
> 2018  4 22 11 21 37.2688020  0  6                     
G 1  23308270.088       84935.669        2020.173          48.750  
G 3  21916130.455      -34100.187        -799.080          39.250  
G11  23970201.139       83616.098        2028.857          43.500  
G17  21616788.047      -95176.781       -2305.741          50.750  
G22  23476796.081       33168.932         827.638          47.500  
G28  21198718.683       14780.528         380.492          47.500  
> 2018  4 22 11 21 37.3688020  0  6                     
G 1  23310140.518       85137.694        2020.017          48.500  
G 3  21917945.499      -34179.992        -798.623          39.000  
G11  23972070.256       83818.931        2027.838          43.750  
G17  21618575.921      -95407.302       -2305.490          50.750  
G22  23478644.225       33251.721         827.570          47.250  
G28  21200557.202       14818.642         380.876          47.500  
> 2018  4 22 11 21 37.4688020  0  6                     
G 1  23312010.286       85339.674        2020.052          48.500  
G 3  21919761.841      -34259.833        -798.143          38.750  
G11  23973941.185       84021.741        2027.925          43.750  
G17  21620363.556      -95637.871       -2305.844          51.000  
G22  23480491.198       33334.486         827.539          47.500  
G28  21202395.385       14856.719         380.420          47.750  
> 2018  4 22 11 21 37.5688020  0  6                     
G 1  23313880.127       85541.653        2020.283          48.500  
G 3  21921579.057      -34339.695        -798.032          38.750  
G11  23975812.072       84224.546        2028.964          43.750  
G17  21622151.569      -95868.445       -2305.666          51.000  
G22  23482338.857       33417.237         827.552          47.750  
G28  21204235.682       14894.793         381.136          47.750  
> 2018  4 22 11 21 37.6688020  0  6                     
G 1  23315750.635       85743.621        2020.274          48.750  
G 3  21923396.378      -34419.538        -797.623          39.000  
G11  23977683.175       84427.362        2028.951          44.000  
G17  21623939.320      -96099.022       -2305.137          50.750  
G22  23484186.502       33499.998         828.250          47.500  
G28  21206071.904       14932.861         380.884          47.500  
> 2018  4 22 11 21 37.7688020  0  6                     
G 1  23317620.565       85945.670        2020.572          48.750  
G 3  21925210.758      -34499.312        -797.430          39.250  
G11  23979552.803       84630.224        2027.661          43.750  
G17  21625726.612      -96329.513       -2305.179          50.750  
G22  23486035.066       33582.837         828.226          47.750  
G28  21207911.190       14971.026         381.035          47.500  
> 2018  4 22 11 21 37.8688020  0  6                     
G 1  23319491.270       86147.783        2021.756          48.750  
G 3  21927026.850      -34579.016        -798.703          38.750  
G11  23981423.150       84833.163        2030.444          43.750  
G17  21627514.749      -96559.954       -2303.768          50.750  
G22  23487881.428       33665.741         829.214          47.500  
G28  21209750.872       15009.250         383.126          47.750  
> 2018  4 22 11 21 37.9688020  0  6                     
G 1  23321360.315       86349.953        2021.588          48.750  
G 3  21928844.693      -34658.640        -797.131          38.250  
G11  23983293.754       85036.149        2030.298          43.750  
G17  21629302.087      -96790.343       -2303.798          50.750  
G22  23489728.386       33748.707         830.337          47.500  
G28  21211588.088       15047.527         382.606          47.500  
> 2018  4 22 11 21 38.0688020  0  6                     
G 1  23323230.074       86552.146        2021.595          48.250  
G 3  21930662.560      -34738.257        -795.706          38.750  
G11  23985164.525       85239.159        2029.958          43.750  
G17  21631090.539      -97020.689       -2303.462          50.500  
G22  23491575.646       33831.690         829.318          47.750  
G28  21213428.112       15085.836         383.165          47.750  
> 2018  4 22 11 21 38.1688020  0  6                     
G 1  23325100.386       86754.332        2022.336          48.500  
G 3  21932477.446      -34817.869        -797.030          38.500  
G11  23987035.221       85442.176        2030.800          44.000  
G17  21632878.505      -97251.051       -2303.766          50.750  
G22  23493422.494       33914.675         830.067          47.500  
G28  21215265.689       15124.148         383.424          47.750  
> 2018  4 22 11 21 38.2688020  0  6                     
G 1  23326970.597       86956.532        2021.881          48.500  
G 3  21934294.031      -34897.456        -795.652          38.750  
G11  23988904.920       85645.188        2030.372          43.750  
G17  21634666.150      -97481.391       -2303.768          50.500  
G22  23495269.996       33997.693         830.110          47.500  
G28  21217104.349       15162.473         382.666          47.500  
> 2018  4 22 11 21 38.3688020  0  6                     
G 1  23328841.036       87158.680        2020.924          48.750  
G 3  21936110.743      -34977.081        -796.102          38.750  
G11  23990774.491       85848.183        2029.922          44.000  
G17  21636453.834      -97711.782       -2304.242          50.750  
G22  23497117.967       34080.655         829.557          47.500  
G28  21218945.117       15200.764         383.315          47.750  
> 2018  4 22 11 21 38.4688020  0  6                     
G 1  23330710.770       87360.834        2021.434          48.750  
G 3  21937926.515      -35056.696        -794.846          38.750  
G11  23992644.618       86051.155        2029.760          43.750  
G17  21638241.050      -97942.174       -2304.486          50.750  
G22  23498966.367       34163.629         829.706          47.750  
G28  21220782.643       15239.050         382.606          47.750  
> 2018  4 22 11 21 38.5688020  0  6                     
G 1  23332581.600       87562.946        2021.114          48.750  
G 3  21939741.954      -35136.360        -796.927          38.500  
G11  23994513.938       86254.072        2028.940          44.000  
G17  21640028.477      -98172.609       -2304.452          50.750  
G22  23500812.957       34246.553         829.381          47.750  
G28  21222623.911       15277.295         381.989          47.750  
> 2018  4 22 11 21 38.6688020  0  6                     
G 1  23334451.817       87765.064        2021.030          48.750  
G 3  21941558.842      -35216.012        -796.438          39.000  
G11  23996385.376       86457.022        2029.735          44.000  
G17  21641815.777      -98403.031       -2304.518          50.750  
G22  23502660.729       34329.491         830.023          47.750  
G28  21224461.787       15315.563         383.202          47.500  
> 2018  4 22 11 21 38.7688020  0  6                     
G 1  23336322.266       87967.140        2020.615          48.500  
G 3  21943375.441      -35295.690        -797.054          38.750  
G11  23998255.317       86659.927        2029.789          43.500  
G17  21643603.533      -98633.484       -2304.357          50.750  
G22  23504508.044       34412.395         829.423          47.750  
G28  21226300.517       15353.792         382.307          47.500  
> 2018  4 22 11 21 38.8688020  0  6                     
G 1  23338191.760       88169.241        2021.647          48.500  
G 3  21945191.447      -35375.332        -795.400          38.250  
G11  24000126.546       86862.839        2029.191          44.000  
G17  21645391.750      -98863.935       -2304.519          50.750  
G22  23506354.975       34495.322         829.282          47.500  
G28  21228139.963       15392.030         382.784          47.750  
> 2018  4 22 11 21 38.9688020  0  6                     
G 1  23340061.345       88371.322        2021.585          48.500  
G 3  21947008.712      -35455.016        -795.701          38.250  
G11  24001996.006       87065.744        2029.829          44.000  
G17  21647178.944      -99094.388       -2303.960          50.750  
G22  23508202.452       34578.229         829.198          47.750  
G28  21229977.841       15430.279         383.135          47.750  
> 2018  4 22 11 21 39.0688020  0  6                     
G 1  23341931.439       88573.466        2021.499          48.250  
G 3  21948825.268      -35534.617        -796.013          38.750  
G11  24003866.203       87268.712        2030.008          44.000  
G17  21648967.446      -99324.782       -2303.745          50.750  
G22  23510051.025       34661.211         829.642          47.750  
G28  21231817.655       15468.578         383.108          47.500  
> 2018  4 22 11 21 39.1688020  0  6                     
G 1  23343801.301       88775.645        2022.291          48.500  
G 3  21950642.227      -35614.178        -795.116          38.500  
G11  24005736.533       87471.692        2029.598          43.750  
G17  21650755.134      -99555.137       -2302.988          50.750  
G22  23511898.835       34744.234         830.245          47.750  
G28  21233655.015       15506.917         383.839          47.500  
> 2018  4 22 11 21 39.2688020  0  6                     
G 1  23345671.121       88977.894        2022.370          48.500  
G 3  21952457.871      -35693.649        -795.631          38.000  
G11  24007606.091       87674.791        2030.011          43.750  
G17  21652543.188      -99785.417       -2302.699          50.750  
G22  23513746.069       34827.337         831.308          47.750  
G28  21235494.161       15545.347         384.050          47.500  
> 2018  4 22 11 21 39.3688020  0  6                     
G 1  23347541.024       89180.241        2024.599          48.500  
G 3  21954275.126      -35773.015        -790.039          38.250  
G11  24009476.147       87877.945        2033.183          43.750  
G17  21654331.283     -100015.615       -2300.796          50.750  
G22  23515593.032       34910.525         832.901          47.750  
G28  21237333.854       15583.858         385.913          47.750  
> 2018  4 22 11 21 39.4688020  0  6                     
G 1  23349411.542       89382.596        2023.636          48.500  
G 3  21956088.965      -35852.375        -793.620          38.500  
G11  24011346.786       88081.126        2031.294          44.000  
G17  21656119.163     -100245.793       -2302.307          50.750  
G22  23517439.577       34993.733         832.213          47.750  
G28  21239170.967       15622.403         385.267          47.750  
> 2018  4 22 11 21 39.5688020  0  6                     
G 1  23351281.623       89584.922        2023.005          48.500  
G 3  21957904.029      -35931.784        -794.788          38.500  
G11  24013216.597       88284.264        2031.644          44.000  
G17  21657906.732     -100476.010       -2302.890          50.750  
G22  23519287.205       35076.909         831.719          47.750  
G28  21241011.145       15660.900         384.653          47.750  
> 2018  4 22 11 21 39.6688020  0  6                     
G 1  23353152.170       89787.224        2024.101          48.750  
G 3  21959720.445      -36011.199        -794.234          38.750  
G11  24015087.460       88487.386        2032.017          44.250  
G17  21659693.989     -100706.251       -2302.474          50.750  
G22  23521134.276       35160.056         830.939          47.750  
G28  21242849.661       15699.373         384.616          47.750  
> 2018  4 22 11 21 39.7688020  0  6                     
G 1  23355021.234       89989.491        2022.994          48.500  
G 3  21961537.129      -36090.635        -794.164          38.000  
G11  24016957.859       88690.478        2030.790          44.250  
G17  21661481.576     -100936.511       -2302.787          50.750  
G22  23522981.973       35243.190         830.966          47.500  
G28  21244688.481       15737.836         384.064          47.750  
> 2018  4 22 11 21 39.8688020  0  6                     
G 1  23356891.219       90191.776        2023.150          48.750  
G 3  21963355.772      -36170.024        -793.764          38.750  
G11  24018828.458       88893.574        2030.866          43.750  
G17  21663269.245     -101166.750       -2302.506          50.750  
G22  23524830.119       35326.345         831.297          47.750  
G28  21246528.959       15776.317         384.801          47.750  
> 2018  4 22 11 21 39.9688020  0  6                     
G 1  23358761.310       90394.018        2022.270          48.500  
G 3  21965172.293      -36249.497        -795.192          38.250  
G11  24020698.406       89096.637        2031.146          43.750  
G17  21665056.836     -101397.038       -2303.119          50.500  
G22  23526678.718       35409.470         831.227          47.500  
G28  21248366.029       15814.769         384.262          47.750  
> 2018  4 22 11 21 40.0688020  0  6                     
G 1  23360631.204       90596.273        2021.934          48.500  
G 3  21966988.183      -36328.924        -793.705          38.500  
G11  24022568.535       89299.714        2029.802          44.000  
G17  21666844.927     -101627.318       -2302.785          50.750  
G22  23528526.221       35492.588         830.979          47.750  
G28  21250206.440       15853.214         384.398          47.500  
> 2018  4 22 11 21 40.1688020  0  6                     
G 1  23362501.092       90798.528        2023.210          48.750  
G 3  21968804.930      -36408.365        -795.176          38.750  
G11  24024439.695       89502.782        2029.820          44.000  
G17  21668632.857     -101857.598       -2303.231          50.750  
G22  23530372.148       35575.718         830.586          47.750  
G28  21252044.670       15891.670         384.424          47.750  
> 2018  4 22 11 21 40.2688020  0  6                     
G 1  23364370.777       91000.721        2021.919          48.750  
G 3  21970622.038      -36487.852        -795.490          38.250  
G11  24026309.874       89705.799        2030.992          44.250  
G17  21670420.203     -102087.933       -2303.975          50.750  
G22  23532219.240       35658.800         831.955          47.750  
G28  21253883.698       15930.079         384.023          47.750  
> 2018  4 22 11 21 40.3688020  0  6                     
G 1  23366240.850       91202.884        2021.269          48.500  
G 3  21972437.065      -36567.359        -793.632          38.750  
G11  24028180.354       89908.784        2029.947          44.000  
G17  21672208.377     -102318.286       -2303.676          50.750  
G22  23534066.590       35741.845         830.590          47.750  
G28  21255723.875       15968.460         383.665          47.750  
> 2018  4 22 11 21 40.4688020  0  6                     
G 1  23368111.418       91405.030        2021.766          48.750  
G 3  21974253.106      -36646.876        -793.977          38.500  
G11  24030050.907       90111.730        2030.373          44.000  
G17  21673996.185     -102548.686       -2304.213          50.750  
G22  23535913.389       35824.875         830.700          47.750  
G28  21257560.948       16006.816         383.577          47.500  
> 2018  4 22 11 21 40.5688020  0  6                     
G 1  23369981.994       91607.176        2021.267          48.500  
G 3  21976069.051      -36726.394        -794.980          38.500  
G11  24031921.449       90314.701        2028.712          44.000  
G17  21675784.063     -102779.056       -2304.545          50.750  
G22  23537760.578       35907.918         829.889          47.750  
G28  21259400.941       16045.195         383.802          47.750  
> 2018  4 22 11 21 40.6688020  0  6                     
G 1  23371852.331       91809.296        2021.112          48.500  
G 3  21977886.586      -36805.912        -795.500          38.000  
G11  24033791.097       90517.628        2029.435          44.000  
G17  21677571.987     -103009.463       -2304.715          50.500  
G22  23539608.245       35990.940         829.963          47.750  
G28  21261239.311       16083.542         383.292          47.500  
> 2018  4 22 11 21 40.7688020  0  6                     
G 1  23373722.533       92011.419        2021.366          48.750  
G 3  21979702.692      -36885.432        -794.495          38.250  
G11  24035661.307       90720.590        2029.255          44.250  
G17  21679359.749     -103239.861       -2304.438          50.750  
G22  23541455.782       36073.970         829.691          47.750  
G28  21263077.763       16121.906         383.300          47.750  
> 2018  4 22 11 21 40.8688020  0  6                     
G 1  23375591.877       92213.504        2021.128          48.750  
G 3  21981518.079      -36965.004        -796.197          38.000  
G11  24037531.418       90923.471        2027.700          44.000  
G17  21681147.432     -103470.310       -2304.760          50.500  
G22  23543302.128       36156.956         830.623          47.500  
G28  21264917.364       16160.216         382.654          47.500  
> 2018  4 22 11 21 40.9688020  0  6                     
G 1  23377461.887       92415.587        2020.663          48.500  
G 3  21983334.790      -37044.572        -796.437          38.000  
G11  24039402.479       91126.375        2028.674          44.250  
G17  21682934.861     -103700.756       -2305.105          50.500  
G22  23545149.488       36239.931         829.783          47.750  
G28  21266755.207       16198.539         383.163          47.500  
> 2018  4 22 11 21 41.0688020  0  6                     
G 1  23379332.587       92617.654        2021.175          48.500  
G 3  21985151.109      -37124.141        -795.307          38.000  
G11  24041272.710       91329.257        2029.327          43.750  
G17  21684722.659     -103931.202       -2304.482          50.500  
G22  23546997.448       36322.910         830.130          48.000  
G28  21268595.735       16236.857         383.173          47.500  
> 2018  4 22 11 21 41.1688020  0  6                     
G 1  23381202.399       92819.723        2020.466          48.750  
G 3  21986966.882      -37203.662        -796.207          38.250  
G11  24043142.280       91532.150        2028.571          44.250  
G17  21686510.579     -104161.655       -2305.095          50.750  
G22  23548844.942       36405.897         829.755          47.750  
G28  21270433.998       16275.175         383.080          47.500  
> 2018  4 22 11 21 41.2688020  0  6                     
G 1  23383072.702       93021.777        2021.250          48.750  
G 3  21988782.448      -37283.228        -794.273          38.250  
G11  24045011.789       91735.027        2028.603          44.000  
G17  21688298.426     -104392.117       -2304.634          50.500  
G22  23550692.273       36488.881         829.611          48.000  
G28  21272272.518       16313.486         383.158          47.750  
> 2018  4 22 11 21 41.3688020  0  6                     
G 1  23384942.709       93223.812        2020.450          48.750  
G 3  21990597.312      -37362.806        -796.274          38.000  
G11  24046881.955       91937.871        2028.691          44.000  
G17  21690086.558     -104622.599       -2304.908          50.750  
G22  23552540.298       36571.828         829.252          47.750  
G28  21274112.681       16351.775         383.055          47.500  
> 2018  4 22 11 21 41.4688020  0  6                     
G 1  23386811.992       93425.818        2020.047          48.750  
G 3  21992414.308      -37442.401        -794.594          38.500  
G11  24048752.053       92140.703        2029.202          44.250  
G17  21691874.091     -104853.105       -2304.661          50.500  
G22  23554387.843       36654.774         829.725          48.000  
G28  21275950.609       16390.046         382.622          47.500  
> 2018  4 22 11 21 41.5688020  0  6                     
G 1  23388681.683       93627.866        2020.255          48.750  
G 3  21994234.509      -37521.976        -796.322          38.500  
G11  24050622.277       92343.547        2028.944          44.250  
G17  21693661.982     -105083.590       -2305.209          50.750  
G22  23556234.823       36737.746         829.657          47.750  
G28  21277791.346       16428.345         382.632          47.500  
> 2018  4 22 11 21 41.6688020  0  6                     
G 1  23390552.233       93829.887        2020.352          48.500  
G 3  21996051.943      -37601.573        -796.032          38.500  
G11  24052492.875       92546.380        2028.045          44.500  
G17  21695449.525     -105314.082       -2305.397          50.500  
G22  23558082.351       36820.705         829.744          48.000  
G28  21279628.922       16466.649         382.919          47.500  
> 2018  4 22 11 21 41.7688020  0  6                     
G 1  23392422.526       94031.913        2020.447          48.500  
G 3  21997869.721      -37681.123        -797.080          38.250  
G11  24054363.700       92749.229        2028.799          44.000  
G17  21697236.268     -105544.578       -2304.828          50.750  
G22  23559929.950       36903.659         830.185          48.000  
G28  21281467.086       16504.944         383.060          47.750  
> 2018  4 22 11 21 41.8688020  0  6                     
G 1  23394292.773       94233.943        2020.083          48.500  
G 3  21999686.545      -37760.668        -794.093          38.500  
G11  24056233.583       92952.077        2029.156          44.250  
G17  21699024.087     -105775.063       -2304.504          50.750  
G22  23561777.011       36986.632         829.814          48.000  
G28  21283307.045       16543.257         383.266          47.750  
> 2018  4 22 11 21 41.9688020  0  6                     
G 1  23396162.796       94436.026        2020.949          48.500  
G 3  22001500.584      -37840.175        -795.636          38.000  
G11  24058103.318       93154.965        2028.716          44.250  
G17  21700811.102     -106005.504       -2304.709          50.500  
G22  23563625.079       37069.648         830.132          47.750  
G28  21285145.281       16581.614         383.527          47.500  
> 2018  4 22 11 21 42.0688020  0  6                     
G 1  23398033.142       94638.120        2021.578          48.500  
G 3  22003317.080      -37919.671        -795.127          38.250  
G11  24059973.771       93357.997        2076.205          44.500  
G17  21702598.897     -106235.927       -2304.450          50.750  
G22  23565472.765       37152.700         831.048          47.750  
G28  21286985.313       16619.989         383.822          47.750  
> 2018  4 22 11 21 42.1688020  0  6                     
G 1  23399902.906       94840.144        2020.102          48.500  
G 3  22005134.598      -37999.187        -794.311          38.250  
G11  24061844.384       93560.719        2029.378          44.250  
G17  21704386.698     -106466.404       -2304.862          50.750  
G22  23567319.628       37235.674         829.424          47.750  
G28  21288822.663       16658.312         383.017          47.750  
> 2018  4 22 11 21 42.2688020  0  6                     
G 1  23401772.825       95042.239        2020.577          48.500  
G 3  22006950.558      -38078.661        -794.693          38.500  
G11  24063713.196       93763.612        2028.515          44.500  
G17  21706174.152     -106696.837       -2304.971          50.500  
G22  23569166.295       37318.725         830.995          48.000  
G28  21290660.495       16696.702         383.380          47.500  
> 2018  4 22 11 21 42.3688020  0  6                     
G 1  23403642.745       95244.309        2020.691          48.750  
G 3  22008765.944      -38158.164        -795.513          38.250  
G11  24065583.955       93966.505        2029.156          44.500  
G17  21707961.937     -106927.270       -2304.181          50.500  
G22  23571013.655       37401.757         830.431          47.750  
G28  21292501.143       16735.074         384.061          47.750  
> 2018  4 22 11 21 42.4688020  0  6                     
G 1  23405512.870       95446.405        2020.786          48.750  
G 3  22010582.173      -38237.627        -795.664          38.250  
G11  24067453.752       94169.417        2029.091          44.500  
G17  21709749.324     -107157.684       -2304.167          50.500  
G22  23572861.199       37484.817         830.644          47.500  
G28  21294338.531       16773.482         383.900          47.500  
> 2018  4 22 11 21 42.5688020  0  6                     
G 1  23407382.525       95648.510        2021.488          48.500  
G 3  22012398.574      -38317.058        -796.279          38.500  
G11  24069323.684       94372.328        2029.001          44.250  
G17  21711536.422     -107388.098       -2303.676          50.500  
G22  23574708.719       37567.879         830.672          48.000  
G28  21296177.918       16811.882         383.943          47.500  
> 2018  4 22 11 21 42.6688020  0  6                     
G 1  23409252.803       95850.598        2021.547          48.750  
G 3  22014217.220      -38396.501        -793.448          38.000  
G11  24071193.824       94575.250        2030.208          44.500  
G17  21713324.079     -107618.506       -2303.405          50.500  
G22  23576556.416       37650.955         831.362          47.750  
G28  21298016.761       16850.291         385.320          47.750  
> 2018  4 22 11 21 42.7688020  0  6                     
G 1  23411122.615       96052.720        2020.848          48.500  
G 3  22016033.071      -38475.932        -794.118          38.000  
G11  24073064.725       94778.161        2029.145          44.250  
G17  21715111.451     -107848.911       -2304.124          50.250  
G22  23578403.632       37734.031         830.744          47.500  
G28  21299855.140       16888.721         385.210          47.500  
> 2018  4 22 11 21 42.8688020  0  6                     
G 1  23412993.045       96254.851        2021.228          48.500  
G 3  22017850.040      -38555.337        -792.728          38.000  
G11  24074935.276       94981.105        2028.656          44.500  
G17  21716900.019     -108079.280       -2304.183          50.500  
G22  23580250.740       37817.154         830.899          47.750  
G28  21301695.256       16927.157         383.595          47.500  
> 2018  4 22 11 21 42.9688020  0  6                     
G 1  23414862.728       96456.995        2021.115          48.750  
G 3  22019667.242      -38634.701        -795.260          38.250  
G11  24076805.490       95184.042        2028.722          44.500  
G17  21718687.585     -108309.650       -2304.074          50.500  
G22  23582097.453       37900.275         831.384          47.750  
G28  21303532.957       16965.628         384.278          47.750  
> 2018  4 22 11 21 43.0688020  0  6                     
G 1  23416732.683       96659.118        2021.454          48.500  
G 3  22021483.385      -38714.101        -793.529          38.000  
G11  24078675.099       95386.991        2030.055          44.500  
G17  21720475.354     -108540.033       -2303.654          50.500  
G22  23583944.271       37983.384         831.601          47.750  
G28  21305372.740       17004.085         385.275          47.500  
> 2018  4 22 11 21 43.1688020  0  6                     
G 1  23418602.384       96861.262        2021.545          48.500  
G 3  22023298.785      -38793.465        -794.193          38.250  
G11  24080544.807       95589.946        2030.346          44.500  
G17  21722263.210     -108770.399       -2303.799          50.500  
G22  23585792.000       38066.518         831.555          48.000  
G28  21307211.643       17042.559         384.782          47.500  
> 2018  4 22 11 21 43.2688020  0  6                     
G 1  23420472.256       97063.354        2020.848          48.750  
G 3  22025114.793      -38872.906        -793.738          38.250  
G11  24082415.229       95792.862        2029.858          44.500  
G17  21724050.825     -109000.802       -2303.744          50.500  
G22  23587639.083       38149.614         831.733          48.000  
G28  21309050.541       17080.991         384.488          47.750  
> 2018  4 22 11 21 43.3688020  0  6                     
G 1  23422342.102       97265.426        2021.237          48.500  
G 3  22026931.744      -38952.319        -794.205          38.250  
G11  24084286.106       95995.730        2028.897          44.750  
G17  21725838.739     -109231.234       -2304.182          50.500  
G22  23589486.484       38232.676         830.412          48.000  
G28  21310890.597       17119.413         384.230          47.500  
> 2018  4 22 11 21 43.4688020  0  6                     
G 1  23424211.967       97467.440        2020.505          48.750  
G 3  22028748.365      -39031.798        -794.765          38.500  
G11  24086156.584       96198.557        2028.431          44.500  
G17  21727626.418     -109461.730       -2305.621          50.500  
G22  23591334.865       38315.689         830.273          47.750  
G28  21312727.769       17157.760         383.058          47.500  
> 2018  4 22 11 21 43.5688020  0  6                     
G 1  23426081.682       97669.376        2019.172          48.750  
G 3  22030564.927      -39111.369        -795.790          38.250  
G11  24088026.823       96401.296        2026.903          44.500  
G17  21729413.609     -109692.308       -2306.498          50.500  
G22  23593182.470       38398.628         829.082          48.000  
G28  21314568.394       17196.039         382.348          47.500  
> 2018  4 22 11 21 43.6688020  0  6                     
G 1  23427951.442       97871.213        2017.777          48.500  
G 3  22032380.010      -39191.006        -795.995          38.250  
G11  24089897.545       96603.939        2025.861          44.750  
G17  21731200.791     -109922.971       -2307.420          50.500  
G22  23595028.671       38481.461         827.354          47.750  
G28  21316405.598       17234.235         382.026          47.500  
> 2018  4 22 11 21 43.7688020  0  6                     
G 1  23429821.274       98072.939        2017.600          48.500  
G 3  22034195.101      -39270.768        -797.331          38.000  
G11  24091766.295       96806.476        2025.338          44.250  
G17  21732988.198     -110153.744       -2308.073          50.500  
G22  23596877.049       38564.213         827.560          47.750  
G28  21318244.586       17272.319         380.269          47.500  
> 2018  4 22 11 21 43.8688020  0  6                     
G 1  23431692.230       98274.632        2017.168          48.500  
G 3  22036011.765      -39350.546        -798.944          37.750  
G11  24093636.008       97008.977        2024.765          44.750  
G17  21734775.586     -110384.546       -2308.507          50.500  
G22  23598723.487       38646.918         826.535          47.750  
G28  21320084.590       17310.366         380.981          47.500  
> 2018  4 22 11 21 43.9688020  0  6                     
G 1  23433561.697       98476.299        2017.475          48.500  
G 3  22037829.101      -39430.346        -797.448          38.250  
G11  24095505.532       97211.460        2025.033          44.500  
G17  21736563.135     -110615.379       -2307.772          50.500  
G22  23600570.762       38729.601         827.404          47.750  
G28  21321922.128       17348.412         380.660          47.500  
> 2018  4 22 11 21 44.0688020  0  6                     
G 1  23435431.154       98678.099        2018.550          48.500  
G 3  22039643.921      -39510.003        -796.742          37.750  
G11  24097375.263       97414.072        2027.354          44.250  
G17  21738350.741     -110846.082       -2306.456          50.500  
G22  23602418.660       38812.426         828.937          47.750  
G28  21323761.973       17386.579         382.239          47.250  
> 2018  4 22 11 21 44.1688020  0  6                     
G 1  23437301.494       98880.011        2019.960          48.250  
G 3  22041462.579      -39589.562        -794.480          38.250  
G11  24099245.452       97616.779        2027.712          44.500  
G17  21740138.461     -111076.665       -2305.514          50.000  
G22  23604266.056       38895.364         829.972          48.000  
G28  21325600.144       17424.863         383.809          47.500  
> 2018  4 22 11 21 44.2688020  0  6                     
G 1  23439171.263       99081.999        2020.241          48.250  
G 3  22043280.683      -39669.014        -795.427          38.000  
G11  24101114.804       97819.594        2029.009          44.750  
G17  21741926.172     -111307.171       -2305.120          50.500  
G22  23606113.281       38978.386         830.088          48.000  
G28  21327439.008       17463.229         383.729          47.500  
> 2018  4 22 11 21 44.3688020  0  6                     
G 1  23441040.769       99284.057        2020.295          48.500  
G 3  22045096.163      -39748.415        -794.372          38.250  
G11  24102984.919       98022.458        2029.085          44.750  
G17  21743714.141     -111537.612       -2304.305          50.250  
G22  23607959.906       39061.483         831.337          48.000  
G28  21329279.023       17501.670         384.488          47.500  
> 2018  4 22 11 21 44.4688020  0  6                     
G 1  23442911.275       99486.097        2020.963          48.250  
G 3  22046911.323      -39827.795        -794.023          37.750  
G11  24104855.735       98225.297        2028.503          44.750  
G17  21745502.349     -111768.073       -2304.514          50.500  
G22  23609806.380       39144.557         831.123          47.750  
G28  21331116.392       17540.102         384.949          47.750  
> 2018  4 22 11 21 44.5688020  0  6                     
G 1  23444781.149       99688.112        2020.547          48.750  
G 3  22048727.729      -39907.225        -795.285          38.250  
G11  24106726.054       98428.133        2028.874          44.750  
G17  21747289.987     -111998.552       -2304.855          50.500  
G22  23611653.399       39227.631         831.237          48.000  
G28  21332957.326       17578.507         384.483          47.500  
> 2018  4 22 11 21 44.6688020  0  6                     
G 1  23446651.616       99890.095        2020.279          48.500  
G 3  22050545.084      -39986.654        -793.970          37.750  
G11  24108596.269       98630.912        2027.873          44.750  
G17  21749077.557     -112229.063       -2305.427          50.250  
G22  23613501.036       39310.653         830.466          48.000  
G28  21334795.375       17616.892         383.719          47.500  
> 2018  4 22 11 21 44.7688020  0  6                     
G 1  23448522.192      100092.050        2019.128          48.500  
G 3  22052362.323      -40066.161        -796.516          38.250  
G11  24110466.449       98833.664        2027.205          44.500  
G17  21750865.044     -112459.610       -2306.154          50.250  
G22  23615349.255       39393.644         830.017          48.000  
G28  21336634.667       17655.226         383.037          47.500  
> 2018  4 22 11 21 44.8688020  0  6                     
G 1  23450391.936      100293.932        2018.797          48.500  
G 3  22054178.297      -40145.663        -796.124          37.750  
G11  24112335.737       99036.360        2026.547          44.500  
G17  21752653.293     -112690.213       -2306.239          50.500  
G22  23617197.178       39476.582         829.148          48.000  
G28  21338474.285       17693.514         382.114          47.500  
> 2018  4 22 11 21 44.9688020  0  6                     
G 1  23452262.022      100495.803        2018.035          48.500  
G 3  22055994.338      -40225.202        -795.444          38.000  
G11  24114205.946       99239.049        2027.266          44.750  
G17  21754440.450     -112920.835       -2306.809          50.500  
G22  23619045.668       39559.523         828.728          47.750  
G28  21340311.373       17731.804         382.724          47.500  
> 2018  4 22 11 21 45.0688020  0  6                     
G 1  23454132.277      100697.639        2018.597          48.500  
G 3  22057810.934      -40304.809        -795.702          37.500  
G11  24116076.819       99441.684        2026.493          44.500  
G17  21756228.219     -113151.491       -2306.913          50.500  
G22  23620893.159       39642.406         828.236          47.750  
G28  21342151.489       17770.049         382.464          47.500  
> 2018  4 22 11 21 45.1688020  0  6                     
G 1  23456001.818      100899.420        2017.836          48.250  
G 3  22059626.653      -40384.391        -795.439          38.000  
G11  24117945.998       99644.272        2026.426          44.500  
G17  21758016.237     -113382.201       -2307.537          50.250  
G22  23622739.742       39725.258         828.368          48.000  
G28  21343989.779       17808.250         383.188          47.500  
> 2018  4 22 11 21 45.2688020  0  6                     
G 1  23457871.347      101101.169        2016.988          48.500  
G 3  22061441.878      -40464.054        -796.656          37.500  
G11  24119816.903       99846.828        2025.036          44.750  
G17  21759803.881     -113612.947       -2307.937          50.250  
G22  23624586.534       39808.078         828.218          47.750  
G28  21345827.594       17846.414         381.182          47.500  
> 2018  4 22 11 21 45.3688020  0  6                     
G 1  23459741.285      101302.925        2018.016          48.250  
G 3  22063258.036      -40543.679        -795.159          38.500  
G11  24121687.057      100049.384        2025.619          45.000  
G17  21761591.263     -113843.663       -2307.397          50.250  
G22  23626434.140       39890.896         827.832          48.000  
G28  21347667.692       17884.603         382.494          47.500  
> 2018  4 22 11 21 45.4688020  0  6                     
G 1  23461610.511      101504.651        2017.694          48.250  
G 3  22065074.657      -40623.351        -798.250          37.500  
G11  24123557.191      100251.926        2026.091          44.250  
G17  21763378.813     -114074.431       -2307.957          50.250  
G22  23628282.174       39973.711         828.464          47.500  
G28  21349505.224       17922.756         382.253          47.250  
> 2018  4 22 11 21 45.5688020  0  6                     
G 1  23463480.614      101706.402        2017.122          48.000  
G 3  22066893.172      -40702.980        -796.325          37.750  
G11  24125427.661      100454.472        2025.224          44.750  
G17  21765166.286     -114305.169       -2307.491          50.250  
G22  23630129.210       40056.535         827.773          48.000  
G28  21351343.636       17960.942         382.031          47.500  
> 2018  4 22 11 21 45.6688020  0  6                     
G 1  23465350.669      101908.137        2017.040          48.500  
G 3  22068712.740      -40782.618        -796.313          38.000  
G11  24127298.342      100657.005        2025.205          44.750  
G17  21766954.018     -114535.930       -2308.109          50.500  
G22  23631976.543       40139.342         827.920          48.000  
G28  21353182.216       17999.098         381.218          47.750  
> 2018  4 22 11 21 45.7688020  0  6                     
G 1  23467220.481      102109.805        2016.855          48.500  
G 3  22070528.946      -40862.317        -797.643          37.500  
G11  24129168.861      100859.480        2024.548          44.750  
G17  21768741.399     -114766.745       -2308.059          50.500  
G22  23633823.915       40222.107         827.190          48.000  
G28  21355019.585       18037.215         380.876          47.500  
> 2018  4 22 11 21 45.8688020  0  6                     
G 1  23469090.337      102311.463        2017.319          48.000  
G 3  22072343.410      -40942.036        -799.967          37.750  
G11  24131039.118      101061.950        2025.568          45.000  
G17  21770529.708     -114997.570       -2308.401          50.250  
G22  23635671.291       40304.857         827.777          48.000  
G28  21356860.527       18075.321         381.357          47.750  
> 2018  4 22 11 21 45.9688020  0  6                     
G 1  23470960.337      102513.178        2017.467          48.250  
G 3  22074158.653      -41021.646        -795.901          37.750  
G11  24132908.578      101264.462        2025.211          45.000  
G17  21772317.759     -115228.350       -2307.677          50.500  
G22  23637518.257       40387.655         828.454          48.250  
G28  21358698.341       18113.482         381.855          47.500  
> 2018  4 22 11 21 46.0688020  0  6                     
G 1  23472830.838      102714.902        2017.635          48.250  
G 3  22075975.252      -41101.318        -796.453          38.000  
G11  24134778.797      101466.992        2025.971          45.000  
G17  21774104.937     -115459.098       -2307.349          50.250  
G22  23639366.096       40470.484         828.704          48.000  
G28  21360538.063       18151.655         382.397          47.750  
> 2018  4 22 11 21 46.1688020  0  6                     
G 1  23474700.720      102916.690        2018.067          48.250  
G 3  22077792.055      -41180.875        -795.892          37.750  
G11  24136649.620      101669.583        2025.672          45.000  
G17  21775892.711     -115689.800       -2306.466          50.500  
G22  23641213.963       40553.365         829.287          48.000  
G28  21362377.632       18189.901         382.947          47.500  
> 2018  4 22 11 21 46.2688020  0  6                     
G 1  23476570.795      103118.550        2019.085          48.250  
G 3  22079610.562      -41260.331        -792.510          37.750  
G11  24138519.281      101872.260        2028.036          45.000  
G17  21777679.972     -115920.416       -2305.799          50.500  
G22  23643061.110       40636.343         830.967          47.750  
G28  21364216.157       18228.230         384.581          47.500  
> 2018  4 22 11 21 46.3688020  0  6                     
G 1  23478441.100      103320.440        2019.420          47.750  
G 3  22081425.729      -41339.765        -793.222          37.750  
G11  24140390.580      102074.941        2027.360          44.500  
G17  21779467.860     -116151.003       -2305.521          50.000  
G22  23644908.101       40719.339         829.853          48.000  
G28  21366056.996       18266.579         384.030          47.500  
> 2018  4 22 11 21 46.4688020  0  6                     
G 1  23480310.324      103522.364        2019.396          48.250  
G 3  22083242.340      -41419.141        -792.706          38.000  
G11  24142261.024      102277.672        2027.254          44.750  
G17  21781255.678     -116381.552       -2305.282          50.250  
G22  23646755.956       40802.394         830.336          48.250  
G28  21367894.252       18304.986         383.946          47.500  
> 2018  4 22 11 21 46.5688020  0  6                     
G 1  23482180.496      103724.336        2019.633          48.250  
G 3  22085058.164      -41498.522        -792.670          37.500  
G11  24144131.133      102480.455        2027.317          44.750  
G17  21783043.108     -116612.067       -2305.065          50.250  
G22  23648603.368       40885.476         830.885          47.750  
G28  21369732.971       18343.432         384.785          47.250  
> 2018  4 22 11 21 46.6688020  0  6                     
G 1  23484049.378      103926.292        2019.759          48.000  
G 3  22086873.786      -41577.893        -793.005          38.250  
G11  24146001.242      102683.212        2028.284          45.000  
G17  21784830.930     -116842.590       -2305.345          50.250  
G22  23650450.815       40968.547         830.996          48.000  
G28  21371571.499       18381.858         384.704          47.500  
> 2018  4 22 11 21 46.7688020  0  6                     
G 1  23485919.598      104128.178        2017.823          48.000  
G 3  22088689.656      -41657.296        -795.384          37.250  
G11  24147871.245      102885.902        2026.518          44.250  
G17  21786618.568     -117073.178       -2306.385          50.250  
G22  23652297.754       41051.572         830.482          47.750  
G28  21373409.779       18420.235         383.359          47.250  
> 2018  4 22 11 21 46.8688020  0  6                     
G 1  23487789.984      104329.949        2017.952          48.000  
G 3  22090504.526      -41736.856        -795.190          37.750  
G11  24149741.027      103088.464        2024.638          45.000  
G17  21788406.074     -117303.895       -2307.361          50.000  
G22  23654144.701       41134.449         828.538          48.000  
G28  21375250.728       18458.478         382.242          47.500  
> 2018  4 22 11 21 46.9688020  0  6                     
G 1  23489660.688      104531.621        2016.200          48.000  
G 3  22092321.283      -41816.468        -795.542          37.750  
G11  24151610.668      103290.929        2023.742          45.000  
G17  21790194.029     -117534.711       -2308.855          50.250  
G22  23655992.258       41217.249         827.249          48.000  
G28  21377087.772       18496.646         381.261          47.750  
> 2018  4 22 11 21 47.0688020  0  6                     
G 1  23491530.858      104733.254        2016.765          48.250  
G 3  22094138.831      -41896.128        -795.433          37.750  
G11  24153480.925      103493.381        2025.411          45.250  
G17  21791981.886     -117765.552       -2307.815          50.500  
G22  23657839.703       41300.019         828.303          48.000  
G28  21378926.868       18534.773         382.019          47.500  
> 2018  4 22 11 21 47.1688020  0  6                     
G 1  23493401.254      104934.918        2017.641          48.250  
G 3  22095955.684      -41975.803        -797.211          37.750  
G11  24155350.642      103695.837        2024.287          45.000  
G17  21793769.666     -117996.368       -2308.447          50.250  
G22  23659686.706       41382.807         827.610          48.000  
G28  21380766.429       18572.918         381.050          47.250  
> 2018  4 22 11 21 47.2688020  0  6                     
G 1  23495271.167      105136.564        2017.104          48.250  
G 3  22097773.227      -42055.404        -795.794          37.750  
G11  24157221.503      103898.280        2025.339          45.250  
G17  21795557.095     -118227.194       -2308.279          50.500  
G22  23661534.211       41465.602         828.123          48.000  
G28  21382604.421       18611.076         381.667          47.750  
> 2018  4 22 11 21 47.3688020  0  6                     
G 1  23497141.136      105338.337        2017.812          48.000  
G 3  22099587.357      -42134.915        -795.194          37.500  
G11  24159090.833      104100.849        2025.458          45.250  
G17  21797344.963     -118457.893       -2307.025          50.250  
G22  23663381.248       41548.525         829.713          48.250  
G28  21384444.247       18649.359         382.559          47.500  
> 2018  4 22 11 21 47.4688020  0  6                     
G 1  23499010.839      105540.137        2018.263          48.000  
G 3  22101404.635      -42214.383        -794.674          37.500  
G11  24160961.568      104303.451        2026.674          45.000  
G17  21799132.276     -118688.567       -2307.243          50.250  
G22  23665228.318       41631.470         829.091          48.250  
G28  21386281.248       18687.673         383.140          47.500  
> 2018  4 22 11 21 47.5688020  0  6                     
G 1  23500880.026      105742.001        2018.646          48.000  
G 3  22103221.714      -42293.775        -794.788          38.000  
G11  24162831.239      104506.130        2027.290          45.000  
G17  21800919.453     -118919.170       -2305.911          50.250  
G22  23667076.740       41714.495         829.918          48.000  
G28  21388120.553       18726.056         383.750          47.250  
> 2018  4 22 11 21 47.6688020  0  6                     
G 1  23502749.703      105943.884        2018.766          48.000  
G 3  22105037.960      -42373.187        -793.345          37.500  
G11  24164701.592      104708.799        2026.301          45.250  
G17  21802707.520     -119149.756       -2305.097          50.250  
G22  23668924.292       41797.527         830.567          47.750  
G28  21389960.300       18764.451         384.338          47.500  
> 2018  4 22 11 21 47.7688020  0  6                     
G 1  23504619.690      106145.853        2020.538          48.000  
G 3  22106855.589      -42452.460        -792.713          37.500  
G11  24166572.535      104911.571        2028.210          45.000  
G17  21804495.062     -119380.277       -2305.262          50.250  
G22  23670771.900       41880.658         832.124          48.000  
G28  21391798.480       18802.939         385.363          47.500  
> 2018  4 22 11 21 47.8688020  0  6                     
G 1  23506489.780      106347.858        2021.587          48.250  
G 3  22108671.176      -42531.689        -789.758          37.750  
G11  24168442.184      105114.390        2029.600          45.000  
G17  21806282.948     -119610.733       -2303.932          50.250  
G22  23672618.915       41963.842         833.350          48.000  
G28  21393638.819       18841.482         387.120          47.500  
> 2018  4 22 11 21 47.9688020  0  6                     
G 1  23508360.341      106550.040        2022.278          48.000  
G 3  22110488.257      -42610.758        -789.583          37.750  
G11  24170313.401      105317.355        2030.319          45.250  
G17  21808070.960     -119841.024       -2302.937          50.250  
G22  23674466.258       42047.180         833.505          48.000  
G28  21395477.621       18880.193         387.236          47.500  
> 2018  4 22 11 21 48.0688020  0  6                     
G 1  23510231.220      106752.251        2022.489          48.000  
G 3  22112304.024      -42689.796        -791.473          38.250  
G11  24172184.325      105520.145        2002.825          45.250  
G17  21809858.531     -120071.276       -2302.959          50.250  
G22  23676313.237       42130.570         834.144          48.000  
G28  21397317.562       18918.934         386.901          47.500  
> 2018  4 22 11 21 48.1688020  0  6                     
G 1  23512100.509      106954.389        2021.284          48.250  
G 3  22114119.925      -42768.894        -790.969          38.250  
G11  24174054.388      105723.297        2028.869          44.750  
G17  21811646.444     -120301.600       -2303.820          50.250  
G22  23678160.532       42213.882         832.393          48.000  
G28  21399156.029       18957.621         387.034          47.500  
> 2018  4 22 11 21 48.2688020  0  6                     
G 1  23513970.687      107156.433        2020.518          48.250  
G 3  22115937.249      -42848.074        -790.362          37.500  
G11  24175923.798      105926.161        2029.279          45.250  
G17  21813434.865     -120532.036       -2304.951          50.250  
G22  23680007.740       42297.109         832.374          48.250  
G28  21400994.358       18996.210         384.998          47.750  
> 2018  4 22 11 21 48.3688020  0  6                     
G 1  23515841.053      107358.391        2020.069          48.500  
G 3  22117754.085      -42927.356        -793.347          37.750  
G11  24177794.604      106128.906        2027.225          45.500  
G17  21815222.492     -120762.548       -2305.643          50.250  
G22  23681855.301       42380.239         830.546          48.000  
G28  21402835.104       19034.716         384.926          47.250  
> 2018  4 22 11 21 48.4688020  0  6                     
G 1  23517711.746      107560.272        2019.096          48.250  
G 3  22119570.128      -43006.706        -793.508          38.000  
G11  24179664.590      106331.581        2027.710          45.500  
G17  21817010.107     -120993.133       -2306.123          50.500  
G22  23683703.237       42463.317         831.042          48.000  
G28  21404672.493       19073.153         384.467          47.500  
> 2018  4 22 11 21 48.5688020  0  6                     
G 1  23519581.168      107762.152        2018.720          48.000  
G 3  22121388.082      -43086.010        -791.698          37.750  
G11  24181534.814      106534.260        2026.239          45.500  
G17  21818797.462     -121223.713       -2306.211          50.250  
G22  23685550.510       42546.391         830.800          48.250  
G28  21406511.052       19111.598         384.670          47.500  
> 2018  4 22 11 21 48.6688020  0  6                     
G 1  23521451.040      107963.964        2018.002          48.250  
G 3  22123204.954      -43165.400        -792.282          37.750  
G11  24183404.821      106736.870        2025.903          45.500  
G17  21820585.311     -121454.354       -2306.134          50.250  
G22  23687398.654       42629.387         830.538          48.000  
G28  21408350.253       19149.964         384.188          47.250  
> 2018  4 22 11 21 48.7688020  0  6                     
G 1  23523320.291      108165.758        2018.045          48.250  
G 3  22125021.782      -43244.825        -793.294          38.000  
G11  24185275.284      106939.464        2025.815          45.500  
G17  21822373.253     -121685.026       -2306.928          50.250  
G22  23689245.008       42712.392         829.712          48.250  
G28  21410188.412       19188.331         383.824          47.250  
> 2018  4 22 11 21 48.8688020  0  6                     
G 1  23525190.230      108367.522        2017.905          48.250  
G 3  22126837.888      -43324.250        -793.421          37.750  
G11  24187144.836      107142.026        2026.063          45.250  
G17  21824160.371     -121915.730       -2307.090          50.250  
G22  23691092.633       42795.353         829.633          48.250  
G28  21412029.088       19226.659         383.565          47.750  
> 2018  4 22 11 21 48.9688020  0  6                     
G 1  23527060.719      108569.311        2018.252          48.250  
G 3  22128656.236      -43403.645        -795.251          38.000  
G11  24189014.448      107344.593        2025.891          45.250  
G17  21825948.326     -122146.416       -2307.297          50.500  
G22  23692939.282       42878.337         829.469          48.250  
G28  21413866.702       19265.003         383.153          47.500  
> 2018  4 22 11 21 49.0688020  0  6                     
G 1  23528930.272      108771.041        2017.907          48.250  
G 3  22130472.337      -43483.097        -794.879          37.750  
G11  24190884.541      107547.135        2026.084          45.250  
G17  21827735.723     -122377.134       -2307.120          50.500  
G22  23694786.456       42961.288         829.662          48.000  
G28  21415706.360       19303.329         383.223          47.500  
> 2018  4 22 11 21 49.1688020  0  6                     
G 1  23530800.777      108972.830        2018.159          48.000  
G 3  22132288.332      -43562.492        -793.108          37.750  
G11  24192753.921      107749.704        2025.491          45.250  
G17  21829523.638     -122607.812       -2307.066          50.250  
G22  23696633.554       43044.289         830.116          48.000  
G28  21417544.918       19341.701         383.485          47.250  
> 2018  4 22 11 21 49.2688020  0  6                     
G 1  23532670.416      109174.602        2016.984          48.000  
G 3  22134104.687      -43641.871        -793.195          38.250  
G11  24194623.680      107952.276        2025.915          45.250  
G17  21831311.280     -122838.496       -2307.581          50.500  
G22  23698481.132       43127.278         829.490          48.000  
G28  21419383.044       19380.053         383.078          47.500  
> 2018  4 22 11 21 49.3688020  0  6                     
G 1  23534540.576      109376.382        2018.656          48.250  
G 3  22135921.371      -43721.300        -795.278          38.250  
G11  24196493.417      108154.849        2025.303          45.250  
G17  21833098.809     -123069.178       -2306.528          50.500  
G22  23700329.195       43210.278         830.246          48.000  
G28  21421223.552       19418.429         383.585          47.250  
> 2018  4 22 11 21 49.4688020  0  6                     
G 1  23536409.873      109578.242        2019.384          48.250  
G 3  22137738.696      -43800.585        -792.783          37.750  
G11  24198363.821      108357.507        2028.388          45.250  
G17  21834886.694     -123299.778       -2305.164          50.250  
G22  23702176.100       43293.367         831.843          48.000  
G28  21423060.667       19456.886         385.826          47.500  
> 2018  4 22 11 21 49.5688020  0  6                     
G 1  23538280.424      109780.351        2021.757          48.000  
G 3  22139554.480      -43879.628        -789.130          37.750  
G11  24200234.180      108560.413        2029.655          45.000  
G17  21836674.080     -123530.127       -2302.546          50.000  
G22  23704023.431       43376.704         834.948          47.750  
G28  21424899.728       19495.585         387.131          47.000  
> 2018  4 22 11 21 49.6688020  0  6                     
G 1  23540150.032      109982.604        2023.673          48.000  
G 3  22141368.862      -43958.521        -787.803          37.750  
G11  24202104.252      108763.456        2030.403          45.000  
G17  21838462.229     -123760.321       -2301.359          50.250  
G22  23705870.658       43460.182         835.843          48.250  
G28  21426738.243       19534.450         389.518          47.500  
> 2018  4 22 11 21 49.7688020  0  6                     
G 1  23542020.445      110184.953        2023.587          48.250  
G 3  22143185.891      -44037.317        -790.462          37.250  
G11  24203974.848      108966.595        2031.492          45.250  
G17  21840249.898     -123990.440       -2302.006          50.250  
G22  23707718.172       43543.763         835.655          47.750  
G28  21428577.075       19573.401         388.623          47.250  
> 2018  4 22 11 21 49.8688020  0  6                     
G 1  23543890.549      110387.106        2020.401          48.000  
G 3  22145002.933      -44116.299        -789.899          38.000  
G11  24205844.961      109169.544        2027.745          45.000  
G17  21842037.744     -124220.741       -2304.226          50.000  
G22  23709565.706       43627.172         832.779          48.000  
G28  21430417.620       19612.177         387.013          47.500  
> 2018  4 22 11 21 49.9688020  0  6                     
G 1  23545760.588      110589.090        2019.581          48.000  
G 3  22146817.541      -44195.454        -792.024          37.750  
G11  24207714.423      109372.336        2026.645          45.000  
G17  21843825.731     -124451.198       -2304.924          50.500  
G22  23711413.251       43710.398         831.976          48.250  
G28  21432254.526       19650.786         385.711          47.500  
> 2018  4 22 11 21 50.0688020  0  6                     
G 1  23547630.941      110790.978        2019.447          48.250  
G 3  22148634.309      -44274.689        -792.565          38.000  
G11  24209584.336      109575.015        2027.276          45.000  
G17  21845613.307     -124681.773       -2305.644          50.500  
G22  23713260.797       43793.531         831.566          48.250  
G28  21434094.227       19689.282         385.273          47.500  
> 2018  4 22 11 21 50.1688020  0  6                     
G 1  23549500.832      110993.009        2021.972          48.250  
G 3  22150452.196      -44353.795        -789.600          38.000  
G11  24211454.386      109777.837        2029.843          45.000  
G17  21847401.616     -124912.190       -2302.181          50.500  
G22  23715108.977       43876.806         833.952          48.000  
G28  21435933.551       19727.945         388.483          47.500  
> 2018  4 22 11 21 50.2688020  0  6                     
G 1  23551371.568      111195.329        2023.795          48.000  
G 3  22152268.269      -44432.585        -787.012          37.750  
G11  24213324.966      109980.948        2031.982          45.250  
G17  21849189.390     -125142.331       -2300.795          50.250  
G22  23716955.693       43960.380         836.263          48.000  
G28  21437771.633       19766.893         390.604          47.500  
> 2018  4 22 11 21 50.3688020  0  6                     
G 1  23553241.996      111397.660        2023.378          48.250  
G 3  22154083.742      -44511.357        -788.558          38.000  
G11  24215195.673      110184.078        2032.077          45.000  
G17  21850977.185     -125372.454       -2301.315          50.250  
G22  23718802.854       44043.971         835.880          48.250  
G28  21439612.687       19805.854         390.311          47.500  
> 2018  4 22 11 21 50.4688020  0  6                     
G 1  23555111.874      111599.975        2022.706          48.250  
G 3  22155899.813      -44590.134        -788.472          37.750  
G11  24217065.883      110387.183        2031.089          45.000  
G17  21852764.853     -125602.580       -2301.698          50.500  
G22  23720650.174       44127.554         835.938          48.250  
G28  21441449.317       19844.817         389.682          47.500  
> 2018  4 22 11 21 50.5688020  0  6                     
G 1  23556981.448      111802.227        2023.318          48.000  
G 3  22157716.192      -44668.990        -788.822          38.000  
G11  24218936.269      110590.222        2030.844          45.000  
G17  21854551.963     -125832.772       -2301.371          50.500  
G22  23722497.824       44211.064         836.003          48.250  
G28  21443288.333       19883.705         389.951          47.250  
> 2018  4 22 11 21 50.6688020  0  6                     
G 1  23558852.137      112004.546        2022.889          48.250  
G 3  22159532.529      -44747.770        -786.692          38.250  
G11  24220806.240      110793.335        2031.395          45.000  
G17  21856340.434     -126062.912       -2301.586          50.250  
G22  23724345.537       44294.652         836.150          48.250  
G28  21445127.492       19922.660         389.409          47.500  
> 2018  4 22 11 21 50.7688020  0  6                     
G 1  23560722.124      112206.845        2022.875          48.250  
G 3  22161350.815      -44826.564        -788.354          37.500  
G11  24222676.502      110996.425        2031.359          45.250  
G17  21858128.089     -126293.058       -2301.917          50.500  
G22  23726193.555       44378.231         836.022          48.500  
G28  21446965.772       19961.621         389.317          47.750  
> 2018  4 22 11 21 50.8688020  0  6                     
G 1  23562591.726      112409.095        2022.146          48.250  
G 3  22163167.986      -44905.390        -788.185          38.500  
G11  24224546.432      111199.477        2030.494          45.250  
G17  21859915.445     -126523.253       -2302.639          50.500  
G22  23728041.312       44461.751         834.597          48.250  
G28  21448806.906       20000.516         388.947          47.250  
> 2018  4 22 11 21 50.9688020  0  6                     
G 1  23564461.847      112611.179        2020.173          48.000  
G 3  22164983.080      -44984.380        -789.373          37.000  
G11  24226417.224      111402.338        2027.852          44.250  
G17  21861703.301     -126753.621       -2304.270          50.000  
G22  23729888.659       44545.109         832.621          47.750  
G28  21450644.141       20039.255         386.777          47.000  
> 2018  4 22 11 21 51.0688020  0  6                     
G 1  23566331.675      112813.079        2019.004          47.750  
G 3  22166798.676      -45063.557        -791.767          38.000  
G11  24228286.187      111605.030        2025.866          44.500  
G17  21863490.677     -126984.167       -2306.272          50.000  
G22  23731735.185       44628.292         830.942          48.000  
G28  21452484.140       20077.814         384.793          47.250  
> 2018  4 22 11 21 51.1688020  0  6                     
G 1  23568201.755      113014.903        2018.349          48.000  
G 3  22168616.789      -45142.803        -791.273          38.250  
G11  24230156.483      111807.648        2026.624          45.000  
G17  21865278.106     -127214.789       -2305.767          50.000  
G22  23733582.349       44711.414         831.760          48.500  
G28  21454323.374       20116.304         385.787          47.250  
> 2018  4 22 11 21 51.2688020  0  6                     
G 1  23570071.232      113216.739        2018.705          48.250  
G 3  22170434.773      -45222.030        -791.323          38.000  
G11  24232026.423      112010.265        2026.267          45.000  
G17  21867066.360     -127445.401       -2306.045          50.250  
G22  23735430.480       44794.529         831.644          48.250  
G28  21456161.946       20154.808         384.483          47.500  
> 2018  4 22 11 21 51.3688020  0  6                     
G 1  23571942.180      113418.579        2017.990          48.000  
G 3  22172252.270      -45301.222        -792.263          37.500  
G11  24233896.921      112212.914        2026.481          44.750  
G17  21868854.115     -127675.994       -2305.582          50.000  
G22  23737277.855       44877.679         832.085          48.250  
G28  21458002.885       20193.341         385.096          47.250  
> 2018  4 22 11 21 51.4688020  0  6                     
G 1  23573811.385      113620.410        2018.668          48.250  
G 3  22174066.105      -45380.447        -791.194          38.000  
G11  24235767.080      112415.530        2026.192          45.000  
G17  21870641.973     -127906.618       -2305.866          50.500  
G22  23739125.422       44960.811         832.063          48.250  
G28  21459839.996       20231.841         385.195          47.250  
> 2018  4 22 11 21 51.5688020  0  6                     
G 1  23575681.844      113822.269        2018.750          48.250  
G 3  22175882.593      -45459.643        -791.803          38.000  
G11  24237637.381      112618.169        2027.775          45.250  
G17  21872429.581     -128137.194       -2305.534          50.500  
G22  23740973.735       45043.966         831.487          48.500  
G28  21461679.954       20270.389         386.322          47.500  
> 2018  4 22 11 21 51.6688020  0  6                     
G 1  23577551.841      114024.063        2018.153          48.250  
G 3  22177700.833      -45538.872        -790.183          38.000  
G11  24239507.162      112820.759        2025.634          45.000  
G17  21874217.330     -128367.843       -2306.457          50.500  
G22  23742821.518       45127.076         831.214          48.250  
G28  21463518.049       20308.870         384.554          47.500  
> 2018  4 22 11 21 51.7688020  0  6                     
G 1  23579422.019      114225.814        2016.840          48.250  
G 3  22179518.204      -45618.167        -792.699          38.250  
G11  24241377.927      113023.294        2024.297          45.000  
G17  21876004.640     -128598.539       -2306.916          50.500  
G22  23744668.621       45210.126         830.207          48.500  
G28  21465355.921       20347.313         384.987          47.500  
> 2018  4 22 11 21 51.8688020  0  6                     
G 1  23581291.257      114427.511        2017.122          48.250  
G 3  22181333.353      -45697.509        -793.664          38.000  
G11  24243247.072      113225.790        2024.719          45.000  
G17  21877792.082     -128829.274       -2307.738          50.750  
G22  23746515.019       45293.140         830.281          48.000  
G28  21467196.715       20385.715         384.277          47.500  
> 2018  4 22 11 21 51.9688020  0  6                     
G 1  23583162.087      114629.243        2018.001          48.000  
G 3  22183148.984      -45776.788        -792.859          37.000  
G11  24245116.373      113428.318        2025.654          44.750  
G17  21879580.102     -129059.985       -2307.233          50.250  
G22  23748362.224       45376.190         830.542          48.250  
G28  21469034.601       20424.135         384.186          47.250  
> 2018  4 22 11 21 52.0688020  0  6                     
G 1  23585031.954      114830.996        2018.095          48.000  
G 3  22184964.612      -45856.047        -791.386          38.000  
G11  24246987.094      113630.843        2025.534          45.000  
G17  21881367.442     -129290.679       -2306.759          50.500  
G22  23750209.967       45459.247         831.214          48.250  
G28  21470874.857       20462.578         384.543          47.250  
> 2018  4 22 11 21 52.1688020  0  6                     
G 1  23586902.081      115032.832        2018.334          48.250  
G 3  22186782.255      -45935.220        -790.895          38.000  
G11  24248857.095      113833.477        2026.550          45.000  
G17  21883155.358     -129521.275       -2305.956          50.500  
G22  23752057.590       45542.418         831.702          48.250  
G28  21472712.311       20501.130         385.607          47.500  
> 2018  4 22 11 21 52.2688020  0  6                     
G 1  23588771.339      115234.676        2018.844          48.250  
G 3  22188598.018      -46014.365        -789.858          37.750  
G11  24250727.717      114036.102        2027.135          44.750  
G17  21884943.277     -129751.873       -2306.425          50.250  
G22  23753904.786       45625.593         832.067          48.250  
G28  21474550.710       20539.698         385.947          47.500  
> 2018  4 22 11 21 52.3688020  0  6                     
G 1  23590641.278      115436.683        2022.381          48.000  
G 3  22190415.644      -46093.387        -788.621          38.250  
G11  24252597.952      114238.900        2029.948          44.750  
G17  21886731.932     -129982.305       -2302.230          50.250  
G22  23755752.385       45708.936         835.738          48.000  
G28  21476391.315       20578.417         389.747          47.250  
> 2018  4 22 11 21 52.4688020  0  6                     
G 1  23592510.609      115639.104        2024.941          47.750  
G 3  22192232.277      -46171.938        -784.596          38.250  
G11  24254468.510      114442.105        2032.841          44.500  
G17  21888519.717     -130212.322       -2299.653          50.000  
G22  23757599.242       45792.687         838.639          48.250  
G28  21478228.037       20617.550         391.523          47.250  
> 2018  4 22 11 21 52.5688020  0  6                     
G 1  23594381.011      115841.472        2022.548          48.250  
G 3  22194049.107      -46250.580        -787.858          38.250  
G11  24256338.452      114645.264        2031.325          44.750  
G17  21890306.811     -130442.389       -2302.267          50.500  
G22  23759446.310       45876.401         836.741          48.500  
G28  21480068.377       20656.652         390.092          47.500  
> 2018  4 22 11 21 52.6688020  0  6                     
G 1  23596251.202      116043.534        2019.711          48.000  
G 3  22195866.894      -46329.502        -791.236          37.000  
G11  24258208.897      114848.109        2027.159          44.750  
G17  21892094.602     -130672.750       -2304.904          50.250  
G22  23761294.664       45959.797         832.799          48.000  
G28  21481907.356       20695.445         387.492          47.250  
> 2018  4 22 11 21 52.7688020  0  6                     
G 1  23598121.567      116245.417        2018.462          48.000  
G 3  22197685.953      -46408.565        -790.253          38.250  
G11  24260078.995      115050.773        2026.042          44.750  
G17  21893882.400     -130903.297       -2306.307          50.250  
G22  23763142.038       46043.036         831.478          48.000  
G28  21483745.775       20734.059         385.747          47.250  
> 2018  4 22 11 21 52.8688020  0  6                     
G 1  23599992.093      116447.156        2017.519          48.000  
G 3  22199500.359      -46487.831        -792.758          38.500  
G11  24261948.622      115253.302        2024.827          45.000  
G17  21895669.619     -131134.001       -2307.506          50.500  
G22  23764989.840       46126.115         830.405          48.250  
G28  21485586.082       20772.521         384.066          47.500  
> 2018  4 22 11 21 52.9688020  0  6                     
G 1  23601862.381      116648.814        2015.768          48.000  
G 3  22201316.855      -46567.099        -793.199          38.000  
G11  24263819.378      115455.747        2023.646          45.000  
G17  21897457.700     -131364.776       -2308.308          50.500  
G22  23766837.806       46209.136         829.857          48.500  
G28  21487423.578       20810.929         383.795          47.500  
> 2018  4 22 11 21 53.0688020  0  6                     
G 1  23603731.724      116850.447        2017.091          48.250  
G 3  22203135.832      -46646.438        -792.978          38.000  
G11  24265689.049      115658.180        2025.280          45.000  
G17  21899245.035     -131595.568       -2307.362          50.500  
G22  23768684.890       46292.131         830.658          48.500  
G28  21489263.679       20849.316         384.398          47.500  
> 2018  4 22 11 21 53.1688020  0  6                     
G 1  23605601.872      117052.142        2016.202          48.250  
G 3  22204951.255      -46725.723        -793.008          38.000  
G11  24267559.451      115860.644        2023.811          44.750  
G17  21901032.593     -131826.307       -2307.843          50.500  
G22  23770532.261       46375.185         830.492          48.250  
G28  21491101.719       20887.750         384.753          47.500  
> 2018  4 22 11 21 53.2688020  0  6                     
G 1  23607472.715      117253.863        2017.190          48.250  
G 3  22206767.108      -46804.947        -791.594          38.000  
G11  24269430.337      116063.161        2025.100          44.750  
G17  21902820.664     -132057.005       -2306.616          50.500  
G22  23772379.375       46458.283         830.701          48.500  
G28  21492940.081       20926.234         385.026          47.500  
> 2018  4 22 11 21 53.3688020  0  6                     
G 1  23609342.379      117455.622        2017.156          48.250  
G 3  22208585.695      -46884.127        -791.120          38.250  
G11  24271300.764      116265.701        2025.861          45.000  
G17  21904608.349     -132287.680       -2306.983          50.500  
G22  23774226.770       46541.401         831.280          48.500  
G28  21494781.115       20964.750         385.045          47.500  
> 2018  4 22 11 21 53.4688020  0  6                     
G 1  23611212.193      117657.398        2018.400          48.500  
G 3  22210401.380      -46963.280        -791.255          38.250  
G11  24273170.149      116468.271        2026.452          45.000  
G17  21906396.500     -132518.327       -2306.333          50.500  
G22  23776073.701       46624.557         831.832          48.500  
G28  21496619.078       21003.297         386.493          47.750  
> 2018  4 22 11 21 53.5688020  0  6                     
G 1  23613081.870      117859.159        2017.797          48.250  
G 3  22212217.584      -47042.459        -791.630          38.250  
G11  24275040.690      116670.816        2025.455          45.000  
G17  21908184.093     -132748.996       -2307.159          50.500  
G22  23777920.456       46707.692         830.992          48.500  
G28  21498458.184       21041.806         385.063          47.500  
> 2018  4 22 11 21 53.6688020  0  6                     
G 1  23614952.000      118060.848        2016.637          48.250  
G 3  22214033.050      -47121.691        -792.825          38.000  
G11  24276910.741      116873.298        2024.712          44.750  
G17  21909971.519     -132979.733       -2307.740          50.500  
G22  23779767.798       46790.759         830.646          48.250  
G28  21500296.645       21080.278         384.496          47.750  
> 2018  4 22 11 21 53.7688020  0  6                     
G 1  23616822.191      118262.481        2015.934          48.250  
G 3  22215848.226      -47200.972        -793.256          38.000  
G11  24278780.499      117075.727        2023.926          44.750  
G17  21911758.901     -133210.517       -2308.711          50.500  
G22  23781616.099       46873.782         829.699          48.500  
G28  21502135.618       21118.688         383.581          47.500  
> 2018  4 22 11 21 53.8688020  0  6                     
G 1  23618691.603      118464.033        2014.739          48.250  
G 3  22217664.921      -47280.326        -793.226          38.000  
G11  24280651.707      117278.043        2021.900          45.000  
G17  21913546.520     -133441.402       -2310.040          50.500  
G22  23783463.505       46956.722         828.581          48.250  
G28  21503975.223       21157.010         382.991          47.500  
> 2018  4 22 11 21 53.9688020  0  6                     
G 1  23620560.603      118665.476        2013.593          48.250  
G 3  22219482.282      -47359.809        -796.150          37.750  
G11  24282520.400      117480.284        2022.422          44.750  
G17  21915333.859     -133672.378       -2309.957          50.500  
G22  23785309.801       47039.550         827.871          48.250  
G28  21505812.650       21195.234         381.509          47.500  
> 2018  4 22 11 21 54.0688020  0  6                     
G 1  23622430.861      118866.860        2015.030          48.000  
G 3  22221298.109      -47439.329        -794.708          38.000  
G11  24284390.631      117682.439        2022.327          44.750  
G17  21917121.144     -133903.422       -2310.346          50.500  
G22  23787157.210       47122.362         831.901          48.500  
G28  21507653.255       21233.412         382.429          47.500  
> 2018  4 22 11 21 54.1688020  0  6                     
G 1  23624301.054      119068.227        2014.160          48.000  
G 3  22223113.916      -47518.861        -794.818          38.000  
G11  24286260.302      117884.597        2021.457          44.750  
G17  21918908.547     -134134.472       -2310.252          50.500  
G22  23789004.954       47205.098         828.416          48.250  
G28  21509490.995       21271.566         382.614          47.500  
> 2018  4 22 11 21 54.2688020  0  6                     
G 1  23626170.811      119269.650        2014.618          48.000  
G 3  22224930.088      -47598.332        -795.342          38.250  
G11  24288129.775      118086.810        2022.364          45.000  
G17  21920696.176     -134365.467       -2309.735          50.500  
G22  23790852.584       47287.929         828.277          48.500  
G28  21511329.243       21309.790         381.889          47.500  
> 2018  4 22 11 21 54.3688020  0  6                     
G 1  23628040.666      119471.164        2016.359          48.250  
G 3  22226746.917      -47677.678        -791.709          38.500  
G11  24289999.656      118289.090        2024.561          44.750  
G17  21922483.647     -134596.374       -2308.170          50.500  
G22  23792700.220       47370.853         830.474          48.250  
G28  21513169.468       21348.110         384.631          47.500  
> 2018  4 22 11 21 54.4688020  0  6                     
G 1  23629910.312      119672.812        2016.748          48.250  
G 3  22228563.034      -47756.912        -791.287          37.750  
G11  24291870.437      118491.530        2024.712          44.750  
G17  21924271.453     -134827.138       -2307.179          50.500  
G22  23794547.722       47453.909         831.423          48.500  
G28  21515006.938       21386.565         384.987          47.750  
> 2018  4 22 11 21 54.5688020  0  6                     
G 1  23631780.787      119874.509        2017.671          48.250  
G 3  22230379.985      -47836.117        -792.120          38.250  
G11  24293741.930      118694.020        2025.902          45.000  
G17  21926059.168     -135057.867       -2307.275          50.750  
G22  23796395.525       47537.027         831.770          48.500  
G28  21516846.768       21425.074         385.336          47.500  
> 2018  4 22 11 21 54.6688020  0  6                     
G 1  23633650.321      120076.255        2017.985          48.250  
G 3  22232197.885      -47915.220        -789.515          37.750  
G11  24295612.647      118896.541        2026.488          45.000  
G17  21927847.838     -135288.538       -2306.020          50.500  
G22  23798242.880       47620.189         832.415          48.500  
G28  21518684.933       21463.624         386.464          47.500  
> 2018  4 22 11 21 54.7688020  0  6                     
G 1  23635520.137      120278.038        2018.558          48.250  
G 3  22234014.312      -47994.318        -791.473          38.250  
G11  24297482.844      119099.095        2025.040          44.750  
G17  21929635.951     -135519.173       -2306.505          50.500  
G22  23800090.308       47703.384         832.219          48.250  
G28  21520523.633       21502.226         386.100          47.500  
> 2018  4 22 11 21 54.8688020  0  6                     
G 1  23637390.253      120479.781        2018.396          48.250  
G 3  22235830.043      -48073.439        -791.816          38.750  
G11  24299353.038      119301.621        2025.584          44.750  
G17  21931423.750     -135749.855       -2307.258          50.500  
G22  23801936.810       47786.555         832.442          48.500  
G28  21522363.945       21540.785         385.642          47.500  
> 2018  4 22 11 21 54.9688020  0  6                     
G 1  23639261.450      120681.494        2016.825          48.500  
G 3  22237649.836      -48152.572        -791.818          38.000  
G11  24301223.131      119504.113        2023.776          45.000  
G17  21933211.416     -135980.550       -2307.786          50.500  
G22  23803784.154       47869.695         830.625          48.500  
G28  21524201.943       21579.319         384.711          47.250  
> 2018  4 22 11 21 55.0688020  0  6                     
G 1  23641131.020      120883.118        2016.231          48.250  
G 3  22239465.796      -48231.804        -793.482          38.000  
G11  24303093.098      119706.522        2023.555          45.000  
G17  21934998.705     -136211.343       -2308.709          50.250  
G22  23805631.619       47952.761         830.295          48.500  
G28  21526041.636       21617.772         384.670          47.500  
> 2018  4 22 11 21 55.1688020  0  6                     
G 1  23643001.216      121084.622        2014.645          48.250  
G 3  22241281.725      -48311.139        -793.232          38.250  
G11  24304963.085      119908.807        2022.667          45.000  
G17  21936785.775     -136442.244       -2309.591          50.500  
G22  23807478.916       48035.703         828.753          48.500  
G28  21527879.623       21656.115         383.167          47.500  
> 2018  4 22 11 21 55.2688020  0  6                     
G 1  23644871.603      121286.051        2014.208          48.250  
G 3  22243097.631      -48390.538        -794.586          37.500  
G11  24306832.920      120111.030        2021.439          44.500  
G17  21938573.583     -136673.228       -2310.254          50.500  
G22  23809326.269       48118.577         828.522          48.250  
G28  21529718.671       21694.388         382.297          47.500  
> 2018  4 22 11 21 55.3688020  0  6                     
G 1  23646741.669      121487.495        2014.531          47.750  
G 3  22244914.708      -48469.901        -792.851          38.250  
G11  24308702.196      120313.243        2022.266          44.750  
G17  21940361.063     -136904.200       -2309.646          50.500  
G22  23811174.130       48201.462         829.235          48.500  
G28  21531558.462       21732.671         382.793          47.500  
> 2018  4 22 11 21 55.4688020  0  6                     
G 1  23648610.957      121689.004        2015.744          48.250  
G 3  22246729.992      -48549.258        -793.491          38.250  
G11  24310572.082      120515.530        2022.279          44.500  
G17  21942148.734     -137135.106       -2308.959          50.750  
G22  23813020.926       48284.417         829.002          48.500  
G28  21533395.330       21771.022         383.405          47.750  
> 2018  4 22 11 21 55.5688020  0  6                     
G 1  23650480.384      121890.513        2015.669          48.000  
G 3  22248546.459      -48628.540        -793.390          38.750  
G11  24312441.487      120717.813        2022.674          44.750  
G17  21943936.437     -137366.010       -2309.222          50.500  
G22  23814867.421       48367.375         829.787          48.500  
G28  21535235.935       21809.386         383.855          47.500  
> 2018  4 22 11 21 55.6688020  0  6                     
G 1  23652350.212      122092.112        2016.679          48.250  
G 3  22250362.567      -48707.745        -792.263          38.250  
G11  24314311.730      120920.195        2023.500          45.000  
G17  21945723.735     -137596.812       -2307.879          50.500  
G22  23816714.888       48450.435         831.327          48.500  
G28  21537074.300       21847.842         385.821          47.500  
> 2018  4 22 11 21 55.7688020  0  6                     
G 1  23654220.266      122293.776        2016.583          48.250  
G 3  22252178.848      -48786.923        -791.950          38.500  
G11  24316182.573      121122.649        2023.933          44.750  
G17  21947511.417     -137827.565       -2308.301          50.750  
G22  23818562.730       48533.552         830.634          48.500  
G28  21538912.810       21886.363         384.696          47.500  
> 2018  4 22 11 21 55.8688020  0  6                     
G 1  23656090.608      122495.402        2016.900          48.250  
G 3  22253996.615      -48866.079        -790.546          37.750  
G11  24318052.990      121325.061        2024.255          44.750  
G17  21949298.805     -138058.345       -2308.110          50.500  
G22  23820410.271       48616.649         831.312          48.250  
G28  21540752.925       21924.845         384.845          47.250  
> 2018  4 22 11 21 55.9688020  0  6                     
G 1  23657960.623      122697.060        2017.068          48.000  
G 3  22255813.233      -48945.224        -791.554          38.250  
G11  24319923.734      121527.497        2024.993          44.750  
G17  21951087.040     -138289.095       -2307.458          50.250  
G22  23822258.197       48699.775         831.281          48.500  
G28  21542590.135       21963.378         385.240          47.500  
> 2018  4 22 11 21 56.0688020  0  6                     
G 1  23659830.320      122898.667        2016.100          48.250  
G 3  22257631.288      -49024.411        -791.904          38.500  
G11  24321793.006      121729.885        2024.253          44.750  
G17  21952874.557     -138519.886       -2308.290          50.750  
G22  23824105.716       48782.857         830.989          48.500  
G28  21544430.621       22001.866         385.200          47.500  
> 2018  4 22 11 21 56.1688020  0  6                     
G 1  23661699.834      123100.228        2016.330          48.250  
G 3  22259446.470      -49103.625        -790.803          38.000  
G11  24323662.566      121932.221        2023.212          45.250  
G17  21954662.076     -138750.731       -2308.565          50.500  
G22  23825952.347       48865.899         830.327          48.750  
G28  21546269.747       22040.295         384.198          47.750  
> 2018  4 22 11 21 56.2688020  0  6                     
G 1  23663569.438      123301.776        2015.771          48.250  
G 3  22261262.262      -49182.866        -793.916          37.750  
G11  24325533.073      122134.543        2022.880          44.750  
G17  21956450.112     -138981.599       -2309.085          50.750  
G22  23827799.673       48948.907         830.614          48.250  
G28  21548108.548       22078.716         383.626          47.500  
> 2018  4 22 11 21 56.3688020  0  6                     
G 1  23665439.136      123503.250        2015.590          48.000  
G 3  22263078.554      -49262.155        -792.415          38.500  
G11  24327402.671      122336.797        2023.233          44.750  
G17  21958237.319     -139212.534       -2309.365          50.500  
G22  23829646.604       49031.862         829.291          48.500  
G28  21549948.313       22117.072         383.217          47.500  
> 2018  4 22 11 21 56.4688020  0  6                     
G 1  23667308.531      123704.707        2013.359          48.250  
G 3  22264896.145      -49341.461        -793.462          38.750  
G11  24329272.935      122539.046        2021.774          45.000  
G17  21960025.547     -139443.463       -2309.957          50.750  
G22  23831494.716       49114.819         829.662          48.500  
G28  21551785.598       22155.443         382.886          47.750  
> 2018  4 22 11 21 56.5688020  0  6                     
G 1  23669178.513      123906.074        2014.277          48.000  
G 3  22266711.410      -49420.854        -793.518          38.000  
G11  24331143.424      122741.187        2021.355          44.500  
G17  21961813.446     -139674.499       -2310.254          50.750  
G22  23833341.992       49197.670         829.382          48.500  
G28  21553624.955       22193.696         383.254          47.250  
> 2018  4 22 11 21 56.6688020  0  6                     
G 1  23671048.717      124107.393        2013.567          48.000  
G 3  22268529.388      -49500.307        -794.981          38.000  
G11  24333012.576      122943.270        2020.033          44.750  
G17  21963601.361     -139905.589       -2310.905          50.750  
G22  23835190.121       49280.482         827.869          48.500  
G28  21555462.644       22231.904         382.607          47.500  
> 2018  4 22 11 21 56.7688020  0  6                     
G 1  23672918.832      124308.654        2012.438          48.250  
G 3  22270345.059      -49579.802        -795.129          39.000  
G11  24334881.954      123145.316        2019.763          44.750  
G17  21965389.152     -140136.726       -2311.415          50.750  
G22  23837037.776       49363.236         826.837          48.500  
G28  21557301.413       22270.064         381.420          47.750  
> 2018  4 22 11 21 56.8688020  0  6                     
G 1  23674789.102      124509.841        2010.872          48.250  
G 3  22272161.341      -49659.363        -796.503          38.500  
G11  24336751.743      123347.266        2018.638          44.500  
G17  21967176.823     -140367.945       -2313.152          51.000  
G22  23838884.948       49445.927         826.008          48.750  
G28  21559141.457       22308.152         380.443          47.500  
> 2018  4 22 11 21 56.9688020  0  6                     
G 1  23676659.237      124710.973        2011.237          48.250  
G 3  22273978.594      -49738.961        -794.564          38.500  
G11  24338622.624      123549.194        2019.249          44.750  
G17  21968963.888     -140599.204       -2311.848          50.750  
G22  23840731.373       49528.562         827.207          48.750  
G28  21560978.991       22346.199         379.867          47.750  
> 2018  4 22 11 21 57.0688020  0  6                     
G 1  23678529.759      124912.093        2012.169          48.250  
G 3  22275794.571      -49818.587        -795.664          39.000  
G11  24340492.482      123751.075        2019.177          44.750  
G17  21970751.620     -140830.501       -2313.212          50.750  
G22  23842579.129       49611.179         826.429          48.750  
G28  21562819.155       22384.216         380.438          47.500  
> 2018  4 22 11 21 57.1688020  0  6                     
G 1  23680399.868      125113.111        2009.165          48.000  
G 3  22277609.708      -49898.304        -796.820          39.250  
G11  24342362.715      123952.897        2017.802          44.750  
G17  21972538.959     -141061.868       -2314.131          50.750  
G22  23844426.336       49693.719         825.061          48.750  
G28  21564657.546       22422.162         379.499          47.750  
> 2018  4 22 11 21 57.2688020  0  6                     
G 1  23682269.997      125314.124        2009.880          48.250  
G 3  22279427.726      -49978.008        -797.703          38.750  
G11  24344232.549      124154.659        2016.501          44.250  
G17  21974327.156     -141293.259       -2314.527          50.500  
G22  23846274.266       49776.246         824.339          48.500  
G28  21566495.905       22460.091         378.548          47.500  
> 2018  4 22 11 21 57.3688020  0  6                     
G 1  23684139.505      125515.102        2009.258          48.000  
G 3  22281246.176      -50057.768        -799.827          38.250  
G11  24346102.347      124356.426        2018.101          44.750  
G17  21976114.493     -141524.671       -2314.227          51.000  
G22  23848121.331       49858.743         824.857          48.750  
G28  21568335.909       22498.007         378.497          47.750  
> 2018  4 22 11 21 57.4688020  0  6                     
G 1  23686009.033      125716.028        2009.225          48.250  
G 3  22283063.559      -50137.532        -797.416          38.250  
G11  24347971.928      124558.123        2017.683          44.250  
G17  21977902.528     -141756.145       -2314.928          50.750  
G22  23849969.047       49941.188         823.954          48.750  
G28  21570172.809       22535.863         378.315          47.750  
> 2018  4 22 11 21 57.5688020  0  6                     
G 1  23687879.105      125916.954        2009.312          48.500  
G 3  22284878.931      -50217.314        -798.905          38.250  
G11  24349841.891      124759.815        2017.202          44.500  
G17  21979690.125     -141987.624       -2315.432          50.750  
G22  23851815.978       50023.644         824.693          48.750  
G28  21572012.528       22573.704         378.449          47.500  
> 2018  4 22 11 21 57.6688020  0  6                     
G 1  23689748.426      126117.860        2008.938          48.250  
G 3  22286694.511      -50297.102        -797.013          38.250  
G11  24351712.429      124961.501        2016.515          44.250  
G17  21981477.627     -142219.104       -2315.217          50.750  
G22  23853663.517       50106.080         824.324          48.250  
G28  21573851.255       22611.553         378.766          47.250  
> 2018  4 22 11 21 57.7688020  0  6                     
G 1  23691618.379      126318.786        2009.374          47.750  
G 3  22288510.769      -50376.882        -797.035          38.500  
G11  24353583.738      125163.215        2016.662          44.250  
G17  21983265.666     -142450.557       -2314.786          50.250  
G22  23855510.545       50188.553         824.823          48.250  
G28  21575690.390       22649.435         378.496          47.250  
> 2018  4 22 11 21 57.8688020  0  6                     
G 1  23693488.103      126519.732        2010.292          48.000  
G 3  22290326.926      -50456.642        -797.882          38.500  
G11  24355452.608      125364.928        2017.272          44.250  
G17  21985053.463     -142682.010       -2313.907          50.750  
G22  23857357.820       50271.019         825.656          48.500  
G28  21577530.516       22687.321         379.955          47.750  
> 2018  4 22 11 21 57.9688020  0  6                     
G 1  23695358.087      126720.686        2010.426          48.250  
G 3  22292144.656      -50536.348        -796.519          38.750  
G11  24357323.424      125566.647        2017.419          44.750  
G17  21986841.593     -142913.449       -2314.062          51.000  
G22  23859205.187       50353.514         825.064          48.750  
G28  21579366.947       22725.234         379.599          47.750  
> 2018  4 22 11 21 58.0688020  0  6                     
G 1  23697227.859      126921.674        2010.119          48.250  
G 3  22293960.724      -50616.049        -797.692          38.250  
G11  24359192.990      125768.426        2017.448          44.750  
G17  21988628.847     -143144.851       -2314.150          51.000  
G22  23861052.664       50436.052         824.647          48.750  
G28  21581206.158       22763.179         379.122          47.750  
> 2018  4 22 11 21 58.1688020  0  6                     
G 1  23699097.364      127122.716        2011.332          48.250  
G 3  22295776.901      -50695.667        -795.638          38.500  
G11  24361063.105      125970.241        2018.223          44.500  
G17  21990415.878     -143376.203       -2313.257          51.000  
G22  23862900.413       50518.650         826.609          48.750  
G28  21583046.299       22801.169         380.439          47.750  
> 2018  4 22 11 21 58.2688020  0  6                     
G 1  23700966.938      127323.772        2011.431          48.250  
G 3  22297592.780      -50775.296        -795.101          38.750  
G11  24362933.769      126172.071        2019.121          44.500  
G17  21992203.421     -143607.534       -2313.418          51.000  
G22  23864746.902       50601.248         826.780          48.750  
G28  21584884.536       22839.194         380.699          47.750  
> 2018  4 22 11 21 58.3688020  0  6                     
G 1  23702837.356      127524.888        2012.047          48.250  
G 3  22299409.656      -50854.849        -794.546          38.500  
G11  24364804.265      126373.953        2018.925          44.500  
G17  21993990.754     -143838.813       -2312.714          51.000  
G22  23866594.157       50683.924         827.037          48.500  
G28  21586724.385       22877.271         381.119          47.500  
> 2018  4 22 11 21 58.4688020  0  6                     
G 1  23704707.224      127726.094        2012.518          48.000  
G 3  22301228.444      -50934.292        -794.089          38.250  
G11  24366673.556      126575.936        2019.886          44.250  
G17  21995778.914     -144069.985       -2311.617          50.750  
G22  23868441.366       50766.689         828.259          48.250  
G28  21588561.122       22915.457         383.038          47.250  
> 2018  4 22 11 21 58.5688020  0  6                     
G 1  23706576.847      127927.388        2013.387          47.750  
G 3  22303043.057      -51013.634        -793.535          38.750  
G11  24368543.224      126778.020        2021.851          44.250  
G17  21997566.503     -144301.076       -2310.681          50.750  
G22  23870288.364       50849.552         829.369          48.500  
G28  21590400.722       22953.728         383.337          47.500  
> 2018  4 22 11 21 58.6688020  0  6                     
G 1  23708446.635      128128.749        2013.449          48.000  
G 3  22304859.895      -51092.925        -793.991          38.000  
G11  24370412.496      126980.145        2021.984          44.500  
G17  21999353.820     -144532.108       -2310.414          50.750  
G22  23872135.930       50932.473         829.181          48.750  
G28  21592240.392       22992.050         383.263          47.500  
> 2018  4 22 11 21 58.7688020  0  6                     
G 1  23710316.383      128330.138        2014.477          48.250  
G 3  22306676.045      -51172.181        -791.837          38.500  
G11  24372282.520      127182.312        2022.354          44.500  
G17  22001141.901     -144763.099       -2309.244          51.000  
G22  23873983.629       51015.448         830.784          48.750  
G28  21594078.279       23030.442         383.991          47.500  
> 2018  4 22 11 21 58.8688020  0  6                     
G 1  23712185.921      128531.595        2014.555          48.250  
G 3  22308493.159      -51251.346        -790.912          38.500  
G11  24374152.583      127384.539        2022.529          45.000  
G17  22002929.321     -144994.029       -2309.754          51.000  
G22  23875831.562       51098.464         830.138          48.750  
G28  21595919.284       23068.887         384.207          47.750  
> 2018  4 22 11 21 58.9688020  0  6                     
G 1  23714055.772      128733.104        2015.356          48.000  
G 3  22310308.363      -51330.478        -791.924          38.500  
G11  24376021.594      127586.825        2022.479          44.500  
G17  22004716.765     -145224.900       -2308.576          50.750  
G22  23877680.073       51181.555         831.020          48.500  
G28  21597756.577       23107.389         385.817          47.250  
> 2018  4 22 11 21 59.0688020  0  6                     
G 1  23715925.731      128934.657        2015.359          47.750  
G 3  22312122.485      -51409.558        -790.809          38.250  
G11  24377891.550      127789.122        2022.119          44.500  
G17  22006504.298     -145455.745       -2308.863          50.750  
G22  23879525.879       51264.685         831.248          48.500  
G28  21599596.454       23145.923         384.611          47.500  
> 2018  4 22 11 21 59.1688020  0  6                     
G 1  23717795.195      129136.147        2014.971          48.000  
G 3  22313939.579      -51488.679        -792.469          38.250  
G11  24379761.829      127991.397        2022.505          44.750  
G17  22008291.225     -145686.627       -2309.098          51.000  
G22  23881373.483       51347.760         830.648          48.750  
G28  21601434.828       23184.419         384.370          47.750  
> 2018  4 22 11 21 59.2688020  0  6                     
G 1  23719665.184      129337.547        2013.838          48.000  
G 3  22315753.472      -51567.887        -792.423          38.500  
G11  24381631.793      128193.574        2021.326          44.500  
G17  22010078.955     -145917.603       -2310.117          50.750  
G22  23883219.773       51430.755         830.045          48.750  
G28  21603272.657       23222.838         384.152          47.750  
> 2018  4 22 11 21 59.3688020  0  6                     
G 1  23721535.322      129538.900        2013.218          48.000  
G 3  22317569.289      -51647.164        -793.969          38.500  
G11  24383501.823      128395.678        2021.020          44.750  
G17  22011866.630     -146148.644       -2310.498          51.000  
G22  23885067.338       51513.693         829.579          48.500  
G28  21605113.851       23261.181         383.433          47.500  
> 2018  4 22 11 21 59.4688020  0  6                     
G 1  23723405.201      129740.229        2014.123          47.750  
G 3  22319385.326      -51726.421        -792.572          38.500  
G11  24385372.495      128597.795        2021.900          44.500  
G17  22013654.787     -146379.694       -2310.334          50.750  
G22  23886915.115       51596.618         829.502          48.500  
G28  21606949.939       23299.532         383.999          47.500  
> 2018  4 22 11 21 59.5688020  0  6                     
G 1  23725274.812      129941.578        2014.463          47.750  
G 3  22321200.441      -51805.683        -792.099          38.500  
G11  24387243.324      128799.912        2022.296          44.500  
G17  22015442.721     -146610.715       -2310.066          51.000  
G22  23888762.855       51679.574         830.319          48.750  
G28  21608788.750       23337.898         384.621          47.500  
> 2018  4 22 11 21 59.6688020  0  6                     
G 1  23727145.232      130142.999        2014.087          48.000  
G 3  22323018.512      -51884.825        -790.834          38.500  
G11  24389113.160      129002.101        2021.247          44.500  
G17  22017230.621     -146841.684       -2310.317          51.000  
G22  23890610.266       51762.594         829.894          48.500  
G28  21610628.578       23376.331         383.646          47.500  
> 2018  4 22 11 21 59.7688020  0  6                     
G 1  23729014.650      130344.378        2014.018          47.750  
G 3  22324836.085      -51964.043        -792.804          38.000  
G11  24390982.560      129204.277        2022.526          44.250  
G17  22019018.898     -147072.667       -2310.518          50.750  
G22  23892457.371       51845.591         830.348          48.750  
G28  21612466.504       23414.751         384.170          47.750  
> 2018  4 22 11 21 59.8688020  0  6                     
G 1  23730884.017      130545.760        2013.742          48.250  
G 3  22326652.576      -52043.246        -792.560          38.500  
G11  24392853.768      129406.405        2021.394          44.750  
G17  22020806.809     -147303.679       -2309.735          51.000  
G22  23894304.336       51928.572         830.334          48.500  
G28  21614307.725       23453.143         384.071          47.500  
> 2018  4 22 11 21 59.9688020  0  6                     
G 1  23732753.948      130747.132        2013.635          48.000  
G 3  22328469.875      -52122.442        -791.812          38.500  
G11  24394724.511      129608.543        2020.371          44.750  
G17  22022594.465     -147534.678       -2310.423          51.000  
G22  23896151.148       52011.551         830.037          48.750  
G28  21616144.817       23491.561         384.053          47.500  
> 2018  4 22 11 22  0.0688020  0  6                     
G 1  23734623.879      130948.494        2012.914          48.000  
G 3  22330286.366      -52201.653        -792.883          38.750  
G11  24396594.660      129810.481        2018.580          44.750  
G17  22024381.802     -147765.689       -2310.015          51.000  
G22  23897998.613       52094.542         829.713          48.750  
G28  21617983.807       23529.955         383.769          47.750  
> 2018  4 22 11 22  0.1688020  0  6                     
G 1  23736493.931      131149.869        2012.536          48.000  
G 3  22332105.581      -52280.842        -793.174          38.750  
G11  24398465.184      130012.829        2022.015          44.500  
G17  22026168.788     -147996.694       -2310.493          51.000  
G22  23899846.272       52177.525         829.017          48.750  
G28  21619823.241       23568.372         383.864          47.750  
> 2018  4 22 11 22  0.2688020  0  6                     
G 1  23738363.497      131351.219        2013.264          48.000  
G 3  22333922.123      -52360.012        -790.731          38.750  
G11  24400334.342      130214.952        2021.609          44.250  
G17  22027956.462     -148227.712       -2310.912          51.000  
G22  23901694.491       52260.518         829.112          48.750  
G28  21621661.686       23606.782         383.335          47.750  
> 2018  4 22 11 22  0.3688020  0  6                     
G 1  23740233.437      131552.571        2013.923          47.750  
G 3  22335738.919      -52439.235        -792.190          38.000  
G11  24402204.341      130417.059        2021.473          44.500  
G17  22029743.894     -148458.735       -2309.779          51.000  
G22  23903542.316       52343.498         830.618          48.750  
G28  21623502.760       23645.167         383.610          47.500  
> 2018  4 22 11 22  0.4688020  0  6                     
G 1  23742102.821      131753.940        2012.506          47.750  
G 3  22337554.957      -52518.385        -791.181          38.500  
G11  24404073.345      130619.206        2021.268          44.500  
G17  22031531.314     -148689.737       -2311.003          51.000  
G22  23905389.535       52426.502         829.175          48.750  
G28  21625339.852       23683.605         383.458          47.750  
> 2018  4 22 11 22  0.5688020  0  6                     
G 1  23743972.354      131955.297        2014.769          47.750  
G 3  22339368.449      -52597.606        -791.667          38.750  
G11  24405943.191      130821.322        2021.009          44.500  
G17  22033319.094     -148920.759       -2310.167          51.250  
G22  23907235.634       52509.496         830.162          48.750  
G28  21627178.714       23722.009         384.885          47.750  
> 2018  4 22 11 22  0.6688020  0  6                     
G 1  23745842.503      132156.658        2014.053          48.000  
G 3  22341183.824      -52676.783        -791.442          38.500  
G11  24407812.309      131023.459        2021.947          44.250  
G17  22035106.703     -149151.772       -2309.359          51.250  
G22  23909082.473       52592.477         830.255          48.500  
G28  21629018.037       23760.434         384.864          47.500  
> 2018  4 22 11 22  0.7688020  0  6                     
G 1  23747713.315      132358.057        2014.128          47.750  
G 3  22343000.978      -52755.899        -791.463          37.750  
G11  24409683.142      131225.634        2022.250          43.750  
G17  22036894.721     -149382.735       -2310.020          50.750  
G22  23910930.076       52675.527         829.465          48.500  
G28  21630856.734       23798.913         384.706          47.250  
> 2018  4 22 11 22  0.8688020  0  6                     
G 1  23749582.891      132559.421        2014.095          47.750  
G 3  22344818.071      -52835.072        -792.322          38.750  
G11  24411552.925      131427.764        2021.982          44.250  
G17  22038682.495     -149613.743       -2310.002          51.000  
G22  23912777.927       52758.544         830.331          48.750  
G28  21632697.306       23837.349         384.933          47.750  
> 2018  4 22 11 22  0.9688020  0  6                     
G 1  23751453.024      132760.782        2013.425          47.750  
G 3  22346633.180      -52914.218        -791.954          39.000  
G11  24413422.305      131629.886        2021.283          44.750  
G17  22040470.257     -149844.751       -2310.467          51.250  
G22  23914625.469       52841.558         830.135          48.750  
G28  21634534.363       23875.781         383.945          47.750  
> 2018  4 22 11 22  1.0688020  0  6                     
G 1  23753322.867      132962.137        2014.027          48.000  
G 3  22348449.845      -52993.363        -791.221          38.250  
G11  24415292.878      131831.994        2020.779          44.500  
G17  22042258.072     -150075.764       -2310.095          51.250  
G22  23916473.870       52924.568         830.362          48.750  
G28  21636373.272       23914.205         384.325          47.500  
> 2018  4 22 11 22  1.1688020  0  6                     
G 1  23755193.710      133163.526        2013.638          48.000  
G 3  22350267.110      -53072.490        -791.794          38.750  
G11  24417162.687      132034.156        2021.422          44.750  
G17  22044045.508     -150306.738       -2310.098          51.250  
G22  23918320.687       53007.626         830.352          49.000  
G28  21638213.337       23952.679         384.231          47.750  
> 2018  4 22 11 22  1.2688020  0  6                     
G 1  23757063.567      133364.901        2013.983          48.000  
G 3  22352083.669      -53151.619        -791.327          38.750  
G11  24419033.083      132236.303        2021.531          44.500  
G17  22045833.664     -150537.726       -2309.922          51.000  
G22  23920167.924       53090.664         831.010          49.000  
G28  21640050.791       23991.149         384.976          47.750  
> 2018  4 22 11 22  1.3688020  0  6                     
G 1  23758932.443      133566.276        2013.197          48.000  
G 3  22353902.303      -53230.723        -790.955          38.500  
G11  24420902.923      132438.451        2021.086          44.500  
G17  22047621.130     -150768.719       -2310.612          51.250  
G22  23922015.106       53173.700         830.362          48.750  
G28  21641890.795       24029.610         383.998          47.750  
> 2018  4 22 11 22  1.4688020  0  6                     
G 1  23760801.886      133767.658        2014.337          48.000  
G 3  22355719.424      -53309.839        -791.182          38.500  
G11  24422772.692      132640.595        2020.676          44.250  
G17  22049408.588     -150999.703       -2310.139          51.250  
G22  23923862.898       53256.750         830.776          48.750  
G28  21643728.463       24068.093         384.303          47.500  
> 2018  4 22 11 22  1.5688020  0  6                     
G 1  23762671.368      133969.007        2013.645          47.750  
G 3  22357537.415      -53388.969        -791.507          38.750  
G11  24424643.189      132842.706        2020.134          44.500  
G17  22051196.136     -151230.715       -2310.307          51.000  
G22  23925709.957       53339.777         830.347          48.750  
G28  21645567.793       24106.545         384.598          47.500  
> 2018  4 22 11 22  1.6688020  0  6                     
G 1  23764541.365      134170.375        2013.704          48.000  
G 3  22359355.363      -53468.073        -790.375          38.750  
G11  24426513.322      133044.844        2021.802          44.500  
G17  22052983.118     -151461.714       -2309.901          51.000  
G22  23927557.635       53422.812         830.651          48.750  
G28  21647406.835       24145.009         385.374          47.500  
> 2018  4 22 11 22  1.7688020  0  6                     
G 1  23766412.516      134371.755        2013.643          48.000  
G 3  22361171.808      -53547.177        -789.704          38.250  
G11  24428383.325      133246.992        2020.999          44.250  
G17  22054770.958     -151692.687       -2309.768          51.000  
G22  23929405.312       53505.886         830.120          48.500  
G28  21649245.514       24183.516         384.588          47.500  
> 2018  4 22 11 22  1.8688020  0  6                     
G 1  23768282.241      134573.160        2014.097          47.500  
G 3  22362987.854      -53626.235        -789.189          38.500  
G11  24430253.392      133449.172        2022.664          44.000  
G17  22056558.252     -151923.643       -2309.400          51.000  
G22  23931252.590       53588.982         831.253          48.750  
G28  21651086.362       24222.035         385.638          47.500  
> 2018  4 22 11 22  1.9688020  0  6                     
G 1  23770151.801      134774.602        2014.811          47.750  
G 3  22364802.799      -53705.248        -790.406          38.500  
G11  24432124.660      133651.377        2022.835          44.000  
G17  22058345.623     -152154.563       -2309.015          51.000  
G22  23933099.177       53672.106         831.201          48.750  
G28  21652923.785       24260.591         385.570          47.500  
> 2018  4 22 11 22  2.0688020  0  6                     
G 1  23772021.658      134976.117        2015.112          47.750  
G 3  22366619.690      -53784.199        -790.395          38.750  
G11  24433994.243      133853.646        2022.633          44.250  
G17  22060134.132     -152385.418       -2308.886          51.250  
G22  23934945.823       53755.319         832.212          48.750  
G28  21654763.546       24299.221         386.049          47.750  
> 2018  4 22 11 22  2.1688020  0  6                     
G 1  23773891.743      135177.571        2015.428          48.000  
G 3  22368436.016      -53863.185        -788.236          38.500  
G11  24435863.558      134055.862        2023.476          44.500  
G17  22061921.829     -152616.329       -2308.841          51.250  
G22  23936793.672       53838.459         832.020          49.000  
G28  21656601.997       24337.789         386.126          47.500  
> 2018  4 22 11 22  2.2688020  0  6                     
G 1  23775761.511      135379.033        2014.887          48.000  
G 3  22370252.335      -53942.191        -790.143          38.750  
G11  24437734.048      134258.102        2022.677          44.000  
G17  22063710.201     -152847.214       -2308.784          51.000  
G22  23938641.051       53921.629         832.364          48.500  
G28  21658440.409       24376.402         386.311          47.500  
> 2018  4 22 11 22  2.3688020  0  6                     
G 1  23777631.901      135580.537        2014.639          47.750  
G 3  22372067.993      -54021.121        -789.629          38.500  
G11  24439604.005      134460.367        2023.557          44.250  
G17  22065497.373     -153078.061       -2308.732          51.000  
G22  23940488.568       54004.838         832.295          48.750  
G28  21660280.853       24415.031         386.373          47.250  
> 2018  4 22 11 22  2.4688020  0  6                     
G 1  23779501.871      135782.022        2015.114          48.000  
G 3  22373886.194      -54100.042        -788.839          39.000  
G11  24441474.088      134662.617        2023.426          44.000  
G17  22067284.700     -153308.933       -2309.368          51.250  
G22  23942336.446       54088.031         831.818          49.000  
G28  21662117.576       24453.666         385.849          47.750  
> 2018  4 22 11 22  2.5688020  0  6                     
G 1  23781372.213      135983.565        2015.521          48.000  
G 3  22375702.082      -54178.944        -787.467          38.500  
G11  24443344.035      134864.925        2024.093          44.000  
G17  22069072.882     -153539.747       -2308.151          51.250  
G22  23944184.278       54171.284         832.217          48.250  
G28  21663956.505       24492.332         386.712          47.250  
> 2018  4 22 11 22  2.6688020  0  6                     
G 1  23783242.194      136185.094        2015.427          47.500  
G 3  22377518.698      -54257.828        -787.031          38.750  
G11  24445213.824      135067.216        2023.114          44.000  
G17  22070860.521     -153770.565       -2308.065          51.000  
G22  23946030.598       54254.539         832.849          48.750  
G28  21665795.619       24531.026         387.041          47.500  
> 2018  4 22 11 22  2.7688020  0  6                     
G 1  23785111.747      136386.688        2016.553          48.000  
G 3  22379334.728      -54336.647        -787.630          38.750  
G11  24447083.755      135269.572        2024.185          44.250  
G17  22072648.688     -154001.331       -2306.883          51.250  
G22  23947878.075       54337.835         833.655          48.750  
G28  21667633.646       24569.770         388.375          47.750  
> 2018  4 22 11 22  2.8688020  0  6                     
G 1  23786982.211      136588.294        2016.237          48.000  
G 3  22381150.656      -54415.460        -788.554          39.000  
G11  24448953.779      135471.943        2024.617          44.000  
G17  22074436.419     -154232.074       -2307.563          51.500  
G22  23949725.165       54421.171         833.352          48.750  
G28  21669473.810       24608.528         387.586          47.500  
> 2018  4 22 11 22  2.9688020  0  6                     
G 1  23788852.268      136789.878        2016.342          48.000  
G 3  22382967.656      -54494.281        -787.401          38.750  
G11  24450824.407      135674.289        2023.264          44.000  
G17  22076224.317     -154462.845       -2307.563          51.250  
G22  23951572.829       54504.479         833.487          48.500  
G28  21671311.547       24647.276         388.110          47.500  
> 2018  4 22 11 22  3.0688020  0  6                     
G 1  23790721.659      136991.495        2015.405          47.750  
G 3  22384785.217      -54573.057        -787.986          38.750  
G11  24452695.491      135876.661        2023.446          43.750  
G17  22078012.058     -154693.581       -2307.808          51.000  
G22  23953420.377       54587.831         833.298          48.750  
G28  21673150.605       24686.046         387.453          47.750  
> 2018  4 22 11 22  3.1688020  0  6                     
G 1  23792591.105      137193.089        2015.824          48.000  
G 3  22386601.639      -54651.856        -787.486          38.750  
G11  24454565.031      136079.014        2023.067          44.000  
G17  22079799.500     -154924.344       -2307.750          51.250  
G22  23955268.775       54671.143         832.804          48.750  
G28  21674990.479       24724.801         387.889          47.750  
> 2018  4 22 11 22  3.2688020  0  6                     
G 1  23794460.975      137394.629        2015.909          48.000  
G 3  22388419.032      -54730.713        -788.510          38.750  
G11  24456436.011      136281.324        2023.389          44.250  
G17  22081587.224     -155155.146       -2307.817          51.250  
G22  23957116.838       54754.441         832.733          48.750  
G28  21676828.874       24763.533         387.979          47.750  
> 2018  4 22 11 22  3.3688020  0  6                     
G 1  23796330.923      137596.103        2014.785          48.000  
G 3  22390235.129      -54809.609        -788.493          39.250  
G11  24458306.266      136483.570        2022.527          44.000  
G17  22083374.587     -155386.026       -2309.124          51.250  
G22  23958965.352       54837.654         832.097          49.000  
G28  21678668.815       24802.173         386.366          47.750  
> 2018  4 22 11 22  3.4688020  0  6                     
G 1  23798200.762      137797.560        2014.779          48.000  
G 3  22392052.131      -54888.539        -788.216          39.000  
G11  24460176.833      136685.769        2021.682          44.000  
G17  22085162.066     -155616.913       -2309.121          51.250  
G22  23960812.051       54920.861         832.107          48.750  
G28  21680506.665       24840.820         386.320          47.750  
> 2018  4 22 11 22  3.5688020  0  6                     
G 1  23800070.466      137999.042        2015.208          48.000  
G 3  22393869.253      -54967.442        -789.053          38.750  
G11  24462046.284      136888.015        2022.884          44.250  
G17  22086949.918     -155847.783       -2308.229          51.250  
G22  23962657.472       55004.085         832.684          48.750  
G28  21682346.585       24879.474         386.894          47.500  
> 2018  4 22 11 22  3.6688020  0  6                     
G 1  23801940.941      138200.481        2014.820          48.000  
G 3  22395687.161      -55046.351        -788.779          39.000  
G11  24463917.161      137090.215        2022.421          44.000  
G17  22088737.440     -156078.698       -2309.011          51.500  
G22  23964504.804       55087.275         832.642          49.000  
G28  21684185.578       24918.097         386.992          47.750  
> 2018  4 22 11 22  3.7688020  0  6                     
G 1  23803810.706      138401.958        2015.472          48.000  
G 3  22397503.075      -55125.245        -789.026          39.000  
G11  24465786.427      137292.466        2023.308          44.000  
G17  22090525.911     -156309.554       -2308.437          51.250  
G22  23966352.204       55170.513         832.834          48.750  
G28  21686023.999       24956.781         386.837          47.750  
> 2018  4 22 11 22  3.8688020  0  6                     
G 1  23805680.325      138603.499        2016.212          48.000  
G 3  22399318.699      -55204.055        -786.378          39.000  
G11  24467655.982      137494.752        2023.465          44.000  
G17  22092313.471     -156540.367       -2307.597          51.500  
G22  23968200.070       55253.803         833.680          49.000  
G28  21687864.884       24995.504         387.620          47.750  
> 2018  4 22 11 22  3.9688020  0  6                     
G 1  23807550.058      138805.127        2016.955          48.000  
G 3  22401134.419      -55282.761        -786.541          38.750  
G11  24469525.609      137697.147        2024.652          43.750  
G17  22094100.916     -156771.084       -2306.953          51.250  
G22  23970048.110       55337.210         834.398          48.500  
G28  21689702.293       25034.340         388.275          47.250  
> 2018  4 22 11 22  4.0688020  0  6                     
G 1  23809420.745      139006.819        2016.811          47.750  
G 3  22402950.124      -55361.427        -787.311          38.750  
G11  24471394.352      137899.601        2025.158          43.500  
G17  22095888.510     -157001.736       -2306.242          51.000  
G22  23971896.203       55420.665         834.649          48.750  
G28  21691542.262       25073.237         389.028          47.500  
> 2018  4 22 11 22  4.1688020  0  6                     
G 1  23811290.312      139208.577        2018.830          47.750  
G 3  22404767.258      -55440.023        -785.527          39.000  
G11  24473264.717      138102.122        2025.319          43.750  
G17  22097675.941     -157232.316       -2305.409          51.000  
G22  23973743.248       55504.201         836.639          48.750  
G28  21693381.100       25112.201         390.395          47.500  
> 2018  4 22 11 22  4.2688020  0  6                     
G 1  23813160.780      139410.445        2019.254          47.750  
G 3  22406584.107      -55518.441        -782.626          39.000  
G11  24475134.759      138304.747        2026.039          43.750  
G17  22099463.658     -157462.783       -2304.537          51.250  
G22  23975589.925       55587.842         836.323          49.000  
G28  21695220.000       25151.297         390.898          47.500  
> 2018  4 22 11 22  4.3688020  0  6                     
G 1  23815030.333      139612.351        2018.692          48.000  
G 3  22408401.168      -55596.894        -784.383          39.000  
G11  24477004.355      138507.418        2026.973          43.750  
G17  22101251.647     -157693.223       -2304.728          51.500  
G22  23977437.377       55671.534         837.204          48.500  
G28  21697059.811       25190.427         391.798          47.500  
> 2018  4 22 11 22  4.4688020  0  6                     
G 1  23816901.453      139814.332        2020.645          47.500  
G 3  22410218.077      -55675.222        -782.641          38.250  
G11  24478873.237      138710.158        2027.626          43.000  
G17  22103039.381     -157923.578       -2302.814          51.000  
G22  23979284.746       55755.291         838.592          48.500  
G28  21698896.750       25229.629         392.901          47.250  
> 2018  4 22 11 22  4.5688020  0  6                     
G 1  23818771.466      140016.382        2021.106          47.750  
G 3  22412034.432      -55753.489        -782.833          38.250  
G11  24480743.816      138912.956        2027.913          43.250  
G17  22104827.385     -158153.870       -2302.865          51.250  
G22  23981132.376       55839.129         838.280          48.500  
G28  21700736.665       25268.900         392.738          47.250  
> 2018  4 22 11 22  4.6688020  0  6                     
G 1  23820642.109      140218.451        2020.520          47.750  
G 3  22413850.020      -55831.741        -782.008          39.000  
G11  24482614.071      139115.781        2028.588          43.750  
G17  22106615.031     -158384.153       -2303.364          51.250  
G22  23982980.393       55922.979         838.566          48.750  
G28  21702575.085       25308.186         392.735          47.500  
> 2018  4 22 11 22  4.7688020  0  6                     
G 1  23822512.504      140420.538        2021.389          47.500  
G 3  22415666.179      -55909.958        -781.084          38.750  
G11  24484485.594      139318.624        2027.527          43.500  
G17  22108402.936     -158614.404       -2302.865          51.000  
G22  23984828.094       56006.861         838.823          48.500  
G28  21704414.224       25347.500         392.586          47.250  
> 2018  4 22 11 22  4.8688020  0  6                     
G 1  23824382.146      140622.616        2020.708          47.750  
G 3  22417483.969      -55988.163        -782.825          39.500  
G11  24486355.444      139521.473        2028.211          43.750  
G17  22110190.665     -158844.656       -2302.986          51.250  
G22  23986676.193       56090.741         838.848          49.000  
G28  21706254.448       25386.835         392.796          47.750  
> 2018  4 22 11 22  4.9688020  0  6                     
G 1  23826252.117      140824.715        2021.244          48.000  
G 3  22419300.460      -56066.359        -781.720          39.250  
G11  24488225.310      139724.335        2028.903          44.000  
G17  22111977.904     -159074.892       -2302.610          51.500  
G22  23988523.069       56174.646         839.301          49.000  
G28  21708092.603       25426.177         392.955          47.750  
> 2018  4 22 11 22  5.0688020  0  6                     
G 1  23828122.369      141026.750        2020.037          47.750  
G 3  22421117.058      -56144.623        -783.636          39.000  
G11  24490095.199      139927.121        2027.805          43.750  
G17  22113765.617     -159305.189       -2303.184          51.500  
G22  23990370.559       56258.476         838.255          48.750  
G28  21709933.517       25465.453         392.416          47.750  
> 2018  4 22 11 22  5.1688020  0  6                     
G 1  23829991.558      141228.742        2019.400          48.000  
G 3  22422934.349      -56222.908        -783.800          38.500  
G11  24491965.289      140129.867        2026.884          43.500  
G17  22115553.150     -159535.537       -2304.293          51.250  
G22  23992217.316       56342.278         837.433          48.250  
G28  21711771.141       25504.709         392.181          47.250  
> 2018  4 22 11 22  5.2688020  0  6                     
G 1  23831861.278      141430.673        2019.903          47.500  
G 3  22424753.114      -56301.256        -782.772          38.500  
G11  24493835.956      140332.548        2026.729          43.500  
G17  22117341.001     -159765.950       -2303.959          51.000  
G22  23994065.209       56426.018         837.988          48.750  
G28  21713610.648       25543.879         392.633          47.500  
> 2018  4 22 11 22  5.3688020  0  6                     
G 1  23833731.204      141632.625        2020.016          48.000  
G 3  22426568.816      -56379.558        -782.459          39.500  
G11  24495706.668      140535.280        2027.976          43.500  
G17  22119128.846     -159996.310       -2303.405          51.250  
G22  23995913.067       56509.801         838.605          49.000  
G28  21715449.983       25583.112         392.742          47.500  
> 2018  4 22 11 22  5.4688020  0  6                     
G 1  23835601.288      141834.628        2020.397          47.750  
G 3  22428383.677      -56457.823        -781.641          39.250  
G11  24497576.589      140738.023        2027.610          43.500  
G17  22120916.121     -160226.654       -2303.370          51.500  
G22  23997761.023       56593.613         838.458          49.000  
G28  21717288.228       25622.365         392.727          47.750  
> 2018  4 22 11 22  5.5688020  0  6                     
G 1  23837471.342      142036.608        2019.540          47.750  
G 3  22430199.167      -56536.096        -782.938          39.000  
G11  24499446.577      140940.787        2027.711          43.500  
G17  22122704.262     -160456.993       -2303.240          51.500  
G22  23999608.382       56677.425         837.591          48.750  
G28  21719128.366       25661.622         392.367          47.750  
> 2018  4 22 11 22  5.6688020  0  6                     
G 1  23839341.247      142238.517        2019.045          48.000  
G 3  22432016.028      -56614.449        -783.648          39.250  
G11  24501316.574      141143.433        2027.020          43.750  
G17  22124491.756     -160687.424       -2304.598          51.500  
G22  24001455.587       56761.156         837.181          49.000  
G28  21720966.299       25700.799         391.556          47.750  
> 2018  4 22 11 22  5.7688020  0  6                     
G 1  23841211.253      142440.366        2018.755          47.750  
G 3  22433832.475      -56692.856        -783.974          39.500  
G11  24503186.128      141346.031        2026.247          43.750  
G17  22126279.959     -160917.909       -2305.089          51.500  
G22  24003303.228       56844.833         836.905          49.000  
G28  21722806.201       25739.926         391.491          47.750  
> 2018  4 22 11 22  5.8688020  0  6                     
G 1  23843081.428      142642.162        2018.347          48.000  
G 3  22435648.579      -56771.293        -785.007          39.000  
G11  24505056.487      141548.590        2025.853          43.250  
G17  22128068.073     -161148.442       -2305.222          51.500  
G22  24005150.952       56928.467         836.805          48.750  
G28  21724645.110       25778.998         390.707          47.500  
> 2018  4 22 11 22  5.9688020  0  6                     
G 1  23844951.582      142844.009        2018.860          47.750  
G 3  22437465.956      -56849.706        -784.911          38.750  
G11  24506926.952      141751.197        2027.229          43.250  
G17  22129855.630     -161378.918       -2304.520          51.500  
G22  24006998.296       57012.163         837.634          48.750  
G28  21726483.549       25818.146         392.477          47.500  
> 2018  4 22 11 22  6.0688020  0  6                     
G 1  23846821.688      143045.968        2019.754          48.000  
G 3  22439282.171      -56927.967        -783.056          39.250  
G11  24508796.968      141953.902        2026.425          43.750  
G17  22131644.160     -161609.293       -2303.816          51.750  
G22  24008845.024       57095.891         838.805          49.000  
G28  21728323.838       25857.378         392.236          47.750  
> 2018  4 22 11 22  6.1688020  0  6                     
G 1  23848691.645      143247.965        2020.248          48.000  
G 3  22441098.783      -57006.188        -782.747          39.250  
G11  24510667.171      142156.645        2027.264          43.750  
G17  22133432.067     -161839.627       -2303.174          51.750  
G22  24010692.510       57179.795         839.183          49.000  
G28  21730160.981       25896.667         393.915          47.750  
> 2018  4 22 11 22  6.2688020  0  6                     
G 1  23850561.790      143450.020        2020.603          48.000  
G 3  22442916.194      -57084.349        -781.328          39.000  
G11  24512538.606      142359.477        2029.200          43.000  
G17  22135219.914     -162069.895       -2302.881          51.500  
G22  24012541.043       57263.704         839.460          48.750  
G28  21732000.498       25936.026         393.496          47.500  
> 2018  4 22 11 22  6.3688020  0  6                     
G 1  23852431.980      143652.106        2020.063          47.500  
G 3  22444732.523      -57162.457        -780.849          38.750  
G11  24514408.156      142562.311        2027.921          43.250  
G17  22137007.572     -162300.134       -2303.080          51.250  
G22  24014388.747       57347.651         838.670          48.500  
G28  21733839.254       25975.409         392.801          47.500  
> 2018  4 22 11 22  6.4688020  0  6                     
G 1  23854302.024      143854.161        2020.084          48.000  
G 3  22446548.414      -57240.635        -782.117          39.500  
G11  24516278.687      142765.108        2027.075          43.500  
G17  22138795.345     -162530.413       -2303.125          51.500  
G22  24016235.598       57431.546         839.132          49.250  
G28  21735677.889       26014.767         393.125          48.000  
> 2018  4 22 11 22  6.5688020  0  6                     
G 1  23856171.794      144056.310        2024.373          47.750  
G 3  22448365.051      -57318.678        -778.333          38.250  
G11  24518149.597      142968.022        2032.226          42.750  
G17  22140583.436     -162760.578       -2298.930          51.500  
G22  24018083.481       57515.569         843.250          48.000  
G28  21737518.903       26054.238         397.360          46.500  
> 2018  4 22 11 22  6.6688020  0  6                     
G 1  23858042.081      144259.091        2029.657          46.750  
G 3  22450181.509      -57396.106        -773.199          38.250  
G11  24520019.702      143171.557        2037.196          42.500  
G17  22142371.687     -162990.124       -2293.808          50.500  
G22  24019931.180       57600.209         848.449          48.500  
G28  21739356.396       26094.337         402.560          47.250  
> 2018  4 22 11 22  6.7688020  0  6                     
G 1  23859912.116      144462.036        2029.043          47.750  
G 3  22451998.855      -57473.376        -774.685          39.000  
G11  24521890.357      143375.248        2036.045          43.500  
G17  22144159.088     -163219.504       -2294.823          51.500  
G22  24021778.436       57685.020         847.085          48.750  
G28  21741196.649       26134.593         401.976          47.500  
> 2018  4 22 11 22  6.8688020  0  6                     
G 1  23861781.834      144664.609        2024.070          47.500  
G 3  22453816.966      -57550.951        -777.504          38.500  
G11  24523760.749      143578.571        2031.667          42.750  
G17  22145947.613     -163449.247       -2299.112          51.250  
G22  24023626.639       57769.466         842.987          48.250  
G28  21743035.428       26174.484         396.749          47.000  
> 2018  4 22 11 22  6.9688020  0  6                     
G 1  23863652.219      144867.025        2025.729          47.250  
G 3  22455634.009      -57628.717        -776.803          39.250  
G11  24525631.294      143781.736        2033.084          43.250  
G17  22147734.958     -163679.162       -2297.871          51.250  
G22  24025474.348       57853.752         844.069          49.000  
G28  21744873.878       26214.222         398.702          47.750  
> 2018  4 22 11 22  7.0688020  0  6                     
G 1  23865521.706      145069.546        2024.113          48.000  
G 3  22457449.233      -57706.397        -777.041          38.750  
G11  24527501.592      143985.003        2031.596          43.500  
G17  22149523.168     -163908.962       -2299.001          51.500  
G22  24027322.099       57938.154         843.119          49.000  
G28  21746714.178       26254.075         397.345          47.750  
> 2018  4 22 11 22  7.1688020  0  6                     
G 1  23867391.343      145271.794        2020.734          47.750  
G 3  22459265.589      -57784.299        -779.984          38.750  
G11  24529371.394      144188.007        2027.989          43.000  
G17  22151310.702     -164139.028       -2302.228          51.500  
G22  24029170.241       58022.295         840.415          48.750  
G28  21748551.679       26293.656         394.311          47.500  
> 2018  4 22 11 22  7.2688020  0  6                     
G 1  23869260.723      145473.803        2018.685          47.750  
G 3  22461083.658      -57862.459        -781.431          39.000  
G11  24531240.533      144390.783        2026.878          43.000  
G17  22153098.475     -164369.343       -2305.104          51.500  
G22  24031018.038       58106.192         837.730          48.500  
G28  21750391.839       26333.009         392.739          47.250  
> 2018  4 22 11 22  7.3688020  0  6                     
G 1  23871131.246      145675.572        2017.601          47.250  
G 3  22462900.140      -57940.858        -784.322          38.750  
G11  24533110.304      144593.282        2024.209          42.750  
G17  22154886.203     -164599.898       -2305.930          51.000  
G22  24032864.861       58189.844         836.288          48.750  
G28  21752230.118       26372.121         391.330          47.250  
> 2018  4 22 11 22  7.4688020  0  6                     
G 1  23873001.059      145877.360        2019.261          47.250  
G 3  22464716.756      -58019.213        -783.817          38.750  
G11  24534980.202      144795.849        2026.785          42.750  
G17  22156673.176     -164830.417       -2304.428          51.250  
G22  24034711.996       58273.534         837.864          49.000  
G28  21754068.361       26411.262         392.865          47.500  
> 2018  4 22 11 22  7.5688020  0  6                     
G 1  23874870.655      146079.308        2019.641          47.750  
G 3  22466533.487      -58097.398        -781.045          39.500  
G11  24536850.779      144998.547        2027.777          43.250  
G17  22158461.075     -165060.791       -2303.669          51.750  
G22  24036559.716       58357.372         838.557          49.250  
G28  21755908.091       26450.555         393.532          47.750  
> 2018  4 22 11 22  7.6688020  0  6                     
G 1  23876740.572      146281.314        2021.510          48.000  
G 3  22468349.997      -58175.561        -781.071          39.000  
G11  24538719.795      145201.289        2029.242          43.250  
G17  22160249.401     -165291.097       -2301.856          51.750  
G22  24038408.213       58441.287         840.392          49.000  
G28  21757746.118       26489.911         394.953          47.500  
> 2018  4 22 11 22  7.7688020  0  6                     
G 1  23878610.362      146483.657        2024.820          47.750  
G 3  22470167.704      -58253.335        -776.175          39.000  
G11  24540590.180      145404.387        2032.584          43.000  
G17  22162037.259     -165521.073       -2298.425          51.250  
G22  24040256.036       58525.538         844.300          48.750  
G28  21759586.431       26529.613         397.950          47.500  
> 2018  4 22 11 22  7.8688020  0  6                     
G 1  23880480.918      146686.113        2024.132          48.000  
G 3  22471984.385      -58331.017        -777.272          39.250  
G11  24542460.993      145607.592        2030.919          43.250  
G17  22163825.555     -165750.938       -2299.916          51.750  
G22  24042103.959       58609.903         842.570          49.000  
G28  21761424.619       26569.443         397.344          47.250  
> 2018  4 22 11 22  7.9688020  0  6                     
G 1  23882351.155      146888.317        2020.559          47.250  
G 3  22473801.061      -58408.939        -782.227          38.750  
G11  24544331.166      145810.535        2027.181          42.500  
G17  22165613.066     -165981.050       -2302.927          51.250  
G22  24043951.499       58694.009         839.518          48.500  
G28  21763264.392       26609.009         393.457          47.250  
> 2018  4 22 11 22  8.0688020  0  6                     
G 1  23884221.142      147090.143        2017.800          47.250  
G 3  22475616.982      -58487.225        -784.236          38.750  
G11  24546200.671      146013.115        2025.164          42.500  
G17  22167400.636     -166211.530       -2306.061          51.250  
G22  24045799.526       58777.761         837.261          49.000  
G28  21765104.064       26648.209         391.581          47.500  
> 2018  4 22 11 22  8.1688020  0  6                     
G 1  23886091.496      147291.860        2016.651          47.750  
G 3  22477433.090      -58565.625        -784.228          38.750  
G11  24548071.486      146215.572        2023.952          43.250  
G17  22169188.709     -166442.133       -2306.688          51.750  
G22  24047646.649       58861.389         835.743          49.000  
G28  21766942.693       26687.295         389.993          48.000  
